2.978           GPS_NMEA_FROM_GPS    iGPS            $GPRMC,181914.000,A,4144.3493,N,06959.5375,W,0.03,72.66,250321,,,D*43 
3.980           GPS_NMEA_FROM_GPS    iGPS            $GPGGA,181915.000,4144.3493,N,06959.5375,W,2,10,0.84,10.7,M,-34.3,M,0000,0000*65 
3.980           GPS_NMEA_FROM_GPS    iGPS            $GPGGA,181915.000,4144.3493,N,06959.5375,W,2,10,0.84,10.7,M,-34.3,M,0000,0000*65 
4.983           GPS_NMEA_FROM_GPS    iGPS            $GPRMC,181916.000,A,4144.3493,N,06959.5375,W,0.01,47.55,250321,,,D*45 
5.986           GPS_NMEA_FROM_GPS    iGPS            $GPGGA,181917.000,4144.3493,N,06959.5375,W,2,10,0.84,10.7,M,-34.3,M,0000,0000*67 
6.987           GPS_NMEA_FROM_GPS    iGPS            $GPGGA,181918.000,4144.3493,N,06959.5375,W,2,10,0.84,10.7,M,-34.3,M,0000,0000*68 
7.990           GPS_NMEA_FROM_GPS    iGPS            $GPGGA,181919.000,4144.3493,N,06959.5375,W,2,09,0.95,10.7,M,-34.3,M,0000,0000*61 
8.892           GPS_NMEA_FROM_GPS    iGPS            $GPGGA,181920.000,4144.3493,N,06959.5375,W,2,10,0.84,10.7,M,-34.3,M,0000,0000*63 
9.894           GPS_NMEA_FROM_GPS    iGPS            $GPGGA,181921.000,4144.3493,N,06959.5375,W,2,10,0.84,10.7,M,-34.3,M,0000,0000*62 
10.997          GPS_NMEA_FROM_GPS    iGPS            $GPGGA,181922.000,4144.3493,N,06959.5375,W,2,10,0.84,10.7,M,-34.3,M,0000,0000*61 
10.997          GPS_NMEA_FROM_GPS    iGPS            $GPGGA,181922.000,4144.3493,N,06959.5375,W,2,10,0.84,10.7,M,-34.3,M,0000,0000*61 
11.899          GPS_NMEA_FROM_GPS    iGPS            $GPGGA,181923.000,4144.3493,N,06959.5375,W,2,10,0.84,10.7,M,-34.3,M,0000,0000*60 
12.902          GPS_NMEA_FROM_GPS    iGPS            $GPGGA,181924.000,4144.3493,N,06959.5375,W,2,09,0.95,10.7,M,-34.3,M,0000,0000*6F 
12.902          GPS_NMEA_FROM_GPS    iGPS            $GPGGA,181924.000,4144.3493,N,06959.5375,W,2,09,0.95,10.7,M,-34.3,M,0000,0000*6F 
14.006          GPS_NMEA_FROM_GPS    iGPS            $GPGGA,181925.000,4144.3493,N,06959.5375,W,2,10,0.84,10.7,M,-34.3,M,0000,0000*66 
14.908          GPS_NMEA_FROM_GPS    iGPS            $GPGGA,181926.000,4144.3493,N,06959.5375,W,2,10,0.84,10.7,M,-34.3,M,0000,0000*65 
15.912          GPS_NMEA_FROM_GPS    iGPS            $GPGGA,181927.000,4144.3493,N,06959.5375,W,2,09,0.95,10.7,M,-34.3,M,0000,0000*6C 
16.914          GPS_NMEA_FROM_GPS    iGPS            $GPGGA,181928.000,4144.3493,N,06959.5375,W,2,10,0.84,10.7,M,-34.3,M,0000,0000*6B 
17.917          GPS_NMEA_FROM_GPS    iGPS            $GPGGA,181929.000,4144.3493,N,06959.5375,W,2,09,0.95,10.7,M,-34.3,M,0000,0000*62 
18.920          GPS_NMEA_FROM_GPS    iGPS            $GPGGA,181930.000,4144.3493,N,06959.5375,W,2,09,0.95,10.7,M,-34.3,M,0000,0000*6A 
19.923          GPS_NMEA_FROM_GPS    iGPS            $GPGGA,181931.000,4144.3493,N,06959.5375,W,2,10,0.84,10.7,M,-34.3,M,0000,0000*63 
20.925          GPS_NMEA_FROM_GPS    iGPS            $GPGGA,181932.000,4144.3493,N,06959.5375,W,2,09,0.95,10.7,M,-34.3,M,0000,0000*68 
21.928          GPS_NMEA_FROM_GPS    iGPS            $GPGGA,181933.000,4144.3493,N,06959.5375,W,2,09,0.95,10.7,M,-34.3,M,0000,0000*69 
22.931          GPS_NMEA_FROM_GPS    iGPS            $GPGGA,181934.000,4144.3493,N,06959.5375,W,2,09,0.95,10.7,M,-34.3,M,0000,0000*6E 
23.934          GPS_NMEA_FROM_GPS    iGPS            $GPGGA,181935.000,4144.3493,N,06959.5376,W,2,09,0.95,10.7,M,-34.3,M,0000,0000*6C 
25.037          GPS_NMEA_FROM_GPS    iGPS            $GPRMC,181936.000,A,4144.3493,N,06959.5376,W,0.02,245.94,250321,,,D*7A 
25.939          GPS_NMEA_FROM_GPS    iGPS            $GPGGA,181937.000,4144.3493,N,06959.5376,W,2,09,0.95,10.7,M,-34.3,M,0000,0000*6E 
26.941          GPS_NMEA_FROM_GPS    iGPS            $GPGGA,181938.000,4144.3493,N,06959.5376,W,2,09,0.95,10.7,M,-34.3,M,0000,0000*61 
27.944          GPS_NMEA_FROM_GPS    iGPS            $GPGGA,181939.000,4144.3493,N,06959.5376,W,2,09,0.95,10.7,M,-34.3,M,0000,0000*60 
28.946          GPS_NMEA_FROM_GPS    iGPS            $GPGGA,181940.000,4144.3493,N,06959.5376,W,2,09,0.95,10.7,M,-34.3,M,0000,0000*6E 
29.949          GPS_NMEA_FROM_GPS    iGPS            $GPRMC,181941.000,A,4144.3493,N,06959.5376,W,0.03,257.27,250321,,,D*70 
29.949          GPS_NMEA_FROM_GPS    iGPS            $GPRMC,181941.000,A,4144.3493,N,06959.5376,W,0.03,257.27,250321,,,D*70 
30.951          GPS_NMEA_FROM_GPS    iGPS            $GPRMC,181942.000,A,4144.3493,N,06959.5376,W,0.02,235.51,250321,,,D*77 
31.955          GPS_NMEA_FROM_GPS    iGPS            $GPGGA,181943.000,4144.3493,N,06959.5376,W,2,09,0.95,10.7,M,-34.3,M,0000,0000*6D 
32.958          GPS_NMEA_FROM_GPS    iGPS            $GPRMC,181944.000,A,4144.3493,N,06959.5376,W,0.03,264.03,250321,,,D*73 
33.960          GPS_NMEA_FROM_GPS    iGPS            $GPGGA,181945.000,4144.3493,N,06959.5376,W,2,09,0.95,10.7,M,-34.3,M,0000,0000*6B 
34.962          GPS_NMEA_FROM_GPS    iGPS            $GPGGA,181946.000,4144.3493,N,06959.5376,W,2,09,0.95,10.7,M,-34.3,M,0000,0000*68 
35.965          GPS_NMEA_FROM_GPS    iGPS            $GPRMC,181947.000,A,4144.3493,N,06959.5376,W,0.02,246.90,250321,,,D*7B 
35.965          GPS_NMEA_FROM_GPS    iGPS            $GPRMC,181947.000,A,4144.3493,N,06959.5376,W,0.02,246.90,250321,,,D*7B 
36.967          GPS_NMEA_FROM_GPS    iGPS            $GPGGA,181948.000,4144.3493,N,06959.5376,W,2,09,0.95,10.7,M,-34.3,M,0000,0000*66 
37.969          GPS_NMEA_FROM_GPS    iGPS            $GPRMC,181949.000,A,4144.3493,N,06959.5376,W,0.04,167.48,250321,,,D*76 
38.871          GPS_NMEA_FROM_GPS    iGPS            $GPGGA,181950.000,4144.3493,N,06959.5376,W,2,09,0.95,10.7,M,-34.3,M,0000,0000*6F 
39.874          GPS_NMEA_FROM_GPS    iGPS            $GPGGA,181951.000,4144.3493,N,06959.5376,W,2,10,0.84,10.7,M,-34.3,M,0000,0000*66 
40.877          GPS_NMEA_FROM_GPS    iGPS            $GPGGA,181952.000,4144.3493,N,06959.5376,W,2,09,0.95,10.7,M,-34.3,M,0000,0000*6D 
41.979          GPS_NMEA_FROM_GPS    iGPS            $GPGGA,181953.000,4144.3493,N,06959.5376,W,2,10,0.84,10.7,M,-34.3,M,0000,0000*64 
42.982          GPS_NMEA_FROM_GPS    iGPS            $GPGGA,181954.000,4144.3493,N,06959.5375,W,2,10,0.84,10.7,M,-34.3,M,0000,0000*60 
43.985          GPS_NMEA_FROM_GPS    iGPS            $GPRMC,181955.000,A,4144.3493,N,06959.5375,W,0.22,127.68,250321,,,D*7A 
44.987          GPS_NMEA_FROM_GPS    iGPS            $GPGGA,181956.000,4144.3493,N,06959.5375,W,2,10,0.84,10.7,M,-34.3,M,0000,0000*62 
45.990          GPS_NMEA_FROM_GPS    iGPS            $GPRMC,181957.000,A,4144.3492,N,06959.5374,W,0.28,122.64,250321,,,D*7B 
46.992          GPS_NMEA_FROM_GPS    iGPS            $GPGGA,181958.000,4144.3492,N,06959.5373,W,2,10,0.83,10.7,M,-34.3,M,0000,0000*6C 
47.995          GPS_NMEA_FROM_GPS    iGPS            $GPRMC,181959.000,A,4144.3492,N,06959.5372,W,0.34,116.15,250321,,,D*7F 
48.897          GPS_NMEA_FROM_GPS    iGPS            $GPGGA,182000.000,4144.3491,N,06959.5371,W,2,09,0.87,10.8,M,-34.3,M,0000,0000*69 
50.001          GPS_NMEA_FROM_GPS    iGPS            $GPRMC,182001.000,A,4144.3491,N,06959.5369,W,0.41,108.41,250321,,,D*7D 
51.003          GPS_NMEA_FROM_GPS    iGPS            $GPRMC,182002.000,A,4144.3491,N,06959.5368,W,0.42,105.19,250321,,,D*7C 
52.006          GPS_NMEA_FROM_GPS    iGPS            $GPRMC,182003.000,A,4144.3491,N,06959.5366,W,0.50,100.37,250321,,,D*79 
52.908          GPS_NMEA_FROM_GPS    iGPS            $GPGGA,182004.000,4144.3491,N,06959.5364,W,2,08,1.00,10.9,M,-34.3,M,0000,0000*67 
53.910          GPS_NMEA_FROM_GPS    iGPS            $GPGGA,182005.000,4144.3491,N,06959.5362,W,2,10,0.83,10.9,M,-34.3,M,0000,0000*63 
54.913          GPS_NMEA_FROM_GPS    iGPS            $GPGGA,182006.000,4144.3491,N,06959.5360,W,2,09,0.96,10.9,M,-34.3,M,0000,0000*6E 
55.915          GPS_NMEA_FROM_GPS    iGPS            $GPGGA,182007.000,4144.3491,N,06959.5358,W,2,09,0.95,10.9,M,-34.3,M,0000,0000*67 
56.918          GPS_NMEA_FROM_GPS    iGPS            $GPGGA,182008.000,4144.3492,N,06959.5356,W,2,09,0.95,10.9,M,-34.3,M,0000,0000*65 
57.921          GPS_NMEA_FROM_GPS    iGPS            $GPGGA,182009.000,4144.3492,N,06959.5353,W,2,09,0.96,10.9,M,-34.3,M,0000,0000*62 
58.923          GPS_NMEA_FROM_GPS    iGPS            $GPGGA,182010.000,4144.3492,N,06959.5350,W,2,09,0.95,10.9,M,-34.3,M,0000,0000*6A 
59.926          GPS_NMEA_FROM_GPS    iGPS            $GPGGA,182011.000,4144.3493,N,06959.5347,W,2,09,0.95,10.8,M,-34.3,M,0000,0000*6D 
60.928          GPS_NMEA_FROM_GPS    iGPS            $GPGGA,182012.000,4144.3493,N,06959.5344,W,2,09,0.96,10.8,M,-34.3,M,0000,0000*6E 
61.931          GPS_NMEA_FROM_GPS    iGPS            $GPGGA,182013.000,4144.3493,N,06959.5341,W,2,09,0.96,10.8,M,-34.3,M,0000,0000*6A 
62.934          GPS_NMEA_FROM_GPS    iGPS            $GPGGA,182014.000,4144.3494,N,06959.5338,W,2,10,0.83,10.8,M,-34.3,M,0000,0000*68 
63.936          GPS_NMEA_FROM_GPS    iGPS            $GPGGA,182015.000,4144.3494,N,06959.5335,W,2,10,0.83,10.8,M,-34.3,M,0000,0000*64 
64.939          GPS_NMEA_FROM_GPS    iGPS            $GPRMC,182016.000,A,4144.3495,N,06959.5332,W,0.73,75.93,250321,,,D*44 
65.941          GPS_NMEA_FROM_GPS    iGPS            $GPGGA,182017.000,4144.3495,N,06959.5328,W,2,09,0.96,10.7,M,-34.3,M,0000,0000*68 
66.948          GPS_NMEA_FROM_GPS    iGPS            $GPGGA,182018.000,4144.3496,N,06959.5325,W,2,09,0.96,10.7,M,-34.3,M,0000,0000*69 
67.950          GPS_NMEA_FROM_GPS    iGPS            $GPGGA,182019.000,4144.3496,N,06959.5322,W,2,10,0.83,10.7,M,-34.3,M,0000,0000*63 
68.953          GPS_NMEA_FROM_GPS    iGPS            $GPRMC,182020.000,A,4144.3497,N,06959.5318,W,0.74,76.78,250321,,,D*4A 
69.956          GPS_NMEA_FROM_GPS    iGPS            $GPRMC,182021.000,A,4144.3497,N,06959.5315,W,0.83,77.83,250321,,,D*4B 
70.958          GPS_NMEA_FROM_GPS    iGPS            $GPGGA,182022.000,4144.3497,N,06959.5311,W,2,10,0.83,10.7,M,-34.3,M,0000,0000*6A 
71.960          GPS_NMEA_FROM_GPS    iGPS            $GPGGA,182023.000,4144.3498,N,06959.5308,W,2,10,0.83,10.7,M,-34.3,M,0000,0000*6C 
72.963          GPS_NMEA_FROM_GPS    iGPS            $GPGGA,182024.000,4144.3498,N,06959.5304,W,2,10,0.83,10.7,M,-34.3,M,0000,0000*67 
73.966          GPS_NMEA_FROM_GPS    iGPS            $GPGGA,182025.000,4144.3498,N,06959.5301,W,2,10,0.84,10.6,M,-34.3,M,0000,0000*65 
74.968          GPS_NMEA_FROM_GPS    iGPS            $GPGGA,182026.000,4144.3498,N,06959.5297,W,2,10,0.84,10.6,M,-34.3,M,0000,0000*68 
75.971          GPS_NMEA_FROM_GPS    iGPS            $GPRMC,182027.000,A,4144.3498,N,06959.5294,W,0.70,70.64,250321,,,D*48 
76.973          GPS_NMEA_FROM_GPS    iGPS            $GPGGA,182028.000,4144.3499,N,06959.5291,W,2,10,0.83,10.6,M,-34.3,M,0000,0000*66 
77.976          GPS_NMEA_FROM_GPS    iGPS            $GPGGA,182029.000,4144.3500,N,06959.5288,W,2,10,0.84,10.6,M,-34.3,M,0000,0000*69 
78.979          GPS_NMEA_FROM_GPS    iGPS            $GPRMC,182030.000,A,4144.3500,N,06959.5285,W,0.68,66.91,250321,,,D*4A 
79.981          GPS_NMEA_FROM_GPS    iGPS            $GPGGA,182031.000,4144.3500,N,06959.5281,W,2,10,0.83,10.8,M,-34.3,M,0000,0000*60 
80.884          GPS_NMEA_FROM_GPS    iGPS            $GPGGA,182032.000,4144.3501,N,06959.5278,W,2,10,0.83,10.9,M,-34.3,M,0000,0000*65 
81.887          GPS_NMEA_FROM_GPS    iGPS            $GPGGA,182033.000,4144.3501,N,06959.5275,W,2,10,0.83,11.1,M,-34.3,M,0000,0000*60 
82.990          GPS_NMEA_FROM_GPS    iGPS            $GPGGA,182034.000,4144.3501,N,06959.5271,W,2,10,0.83,11.1,M,-34.3,M,0000,0000*63 
83.892          GPS_NMEA_FROM_GPS    iGPS            $GPGGA,182035.000,4144.3502,N,06959.5268,W,2,10,0.84,11.2,M,-34.3,M,0000,0000*6D 
84.995          GPS_NMEA_FROM_GPS    iGPS            $GPGGA,182036.000,4144.3503,N,06959.5265,W,2,10,0.83,11.2,M,-34.3,M,0000,0000*65 
85.998          GPS_NMEA_FROM_GPS    iGPS            $GPGGA,182037.000,4144.3503,N,06959.5263,W,2,10,0.83,11.3,M,-34.3,M,0000,0000*63 
86.900          GPS_NMEA_FROM_GPS    iGPS            $GPGGA,182038.000,4144.3504,N,06959.5259,W,2,10,0.83,11.3,M,-34.3,M,0000,0000*62 
88.003          GPS_NMEA_FROM_GPS    iGPS            $GPRMC,182039.000,A,4144.3505,N,06959.5257,W,0.77,65.31,250321,,,D*4E 
89.005          GPS_NMEA_FROM_GPS    iGPS            $GPGGA,182040.000,4144.3506,N,06959.5254,W,2,10,0.83,11.4,M,-34.3,M,0000,0000*65 
90.008          GPS_NMEA_FROM_GPS    iGPS            $GPGGA,182041.000,4144.3507,N,06959.5251,W,2,10,0.83,11.4,M,-34.3,M,0000,0000*60 
90.910          GPS_NMEA_FROM_GPS    iGPS            $GPGGA,182042.000,4144.3508,N,06959.5248,W,2,10,0.84,11.3,M,-34.3,M,0000,0000*64 
92.013          GPS_NMEA_FROM_GPS    iGPS            $GPRMC,182043.000,A,4144.3509,N,06959.5246,W,0.72,63.06,250321,,,D*48 
93.015          GPS_NMEA_FROM_GPS    iGPS            $GPRMC,182044.000,A,4144.3510,N,06959.5243,W,0.69,63.05,250321,,,D*4B 
93.918          GPS_NMEA_FROM_GPS    iGPS            $GPGGA,182045.000,4144.3511,N,06959.5241,W,2,10,0.84,11.2,M,-34.3,M,0000,0000*63 
94.923          GPS_NMEA_FROM_GPS    iGPS            $GPGGA,182046.000,4144.3512,N,06959.5238,W,2,10,0.84,11.2,M,-34.3,M,0000,0000*6D 
95.925          GPS_NMEA_FROM_GPS    iGPS            $GPGGA,182047.000,4144.3514,N,06959.5236,W,2,10,0.83,11.2,M,-34.3,M,0000,0000*63 
96.928          GPS_NMEA_FROM_GPS    iGPS            $GPGGA,182048.000,4144.3515,N,06959.5233,W,2,10,0.83,11.2,M,-34.3,M,0000,0000*68 
98.031          GPS_NMEA_FROM_GPS    iGPS            $GPRMC,182049.000,A,4144.3516,N,06959.5230,W,0.81,58.92,250321,,,D*44 
99.033          GPS_NMEA_FROM_GPS    iGPS            $GPRMC,182050.000,A,4144.3517,N,06959.5228,W,0.83,58.25,250321,,,D*4A 
99.935          GPS_NMEA_FROM_GPS    iGPS            $GPGGA,182051.000,4144.3519,N,06959.5225,W,2,10,0.83,11.3,M,-34.3,M,0000,0000*6A 
100.938         GPS_NMEA_FROM_GPS    iGPS            $GPGGA,182052.000,4144.3520,N,06959.5223,W,2,10,0.83,11.3,M,-34.3,M,0000,0000*65 
101.941         GPS_NMEA_FROM_GPS    iGPS            $GPGGA,182053.000,4144.3521,N,06959.5221,W,2,10,0.83,11.3,M,-34.3,M,0000,0000*67 
102.943         GPS_NMEA_FROM_GPS    iGPS            $GPGGA,182054.000,4144.3522,N,06959.5218,W,2,10,0.84,11.2,M,-34.3,M,0000,0000*6F 
103.946         GPS_NMEA_FROM_GPS    iGPS            $GPGGA,182055.000,4144.3523,N,06959.5216,W,2,10,0.83,11.2,M,-34.3,M,0000,0000*66 
104.948         GPS_NMEA_FROM_GPS    iGPS            $GPGGA,182056.000,4144.3524,N,06959.5214,W,2,10,0.83,11.2,M,-34.3,M,0000,0000*60 
105.951         GPS_NMEA_FROM_GPS    iGPS            $GPGGA,182057.000,4144.3525,N,06959.5211,W,2,10,0.83,11.2,M,-34.3,M,0000,0000*65 
106.955         GPS_NMEA_FROM_GPS    iGPS            $GPGGA,182058.000,4144.3526,N,06959.5209,W,2,10,0.83,11.2,M,-34.3,M,0000,0000*60 
107.958         GPS_NMEA_FROM_GPS    iGPS            $GPRMC,182059.000,A,4144.3527,N,06959.5207,W,0.79,58.14,250321,,,D*4A 
108.961         GPS_NMEA_FROM_GPS    iGPS            $GPRMC,182100.000,A,4144.3528,N,06959.5204,W,0.77,57.75,250321,,,D*4D 
109.963         GPS_NMEA_FROM_GPS    iGPS            $GPGGA,182101.000,4144.3529,N,06959.5202,W,2,10,0.83,11.2,M,-34.3,M,0000,0000*69 
110.966         GPS_NMEA_FROM_GPS    iGPS            $GPGGA,182102.000,4144.3531,N,06959.5199,W,2,10,0.84,11.2,M,-34.3,M,0000,0000*65 
111.969         GPS_NMEA_FROM_GPS    iGPS            $GPGGA,182103.000,4144.3532,N,06959.5196,W,2,10,0.83,11.3,M,-34.3,M,0000,0000*6E 
112.972         GPS_NMEA_FROM_GPS    iGPS            $GPGGA,182104.000,4144.3533,N,06959.5194,W,2,10,0.83,11.3,M,-34.3,M,0000,0000*6A 
113.974         GPS_NMEA_FROM_GPS    iGPS            $GPGGA,182105.000,4144.3534,N,06959.5191,W,2,10,0.84,11.3,M,-34.3,M,0000,0000*6E 
114.877         GPS_NMEA_FROM_GPS    iGPS            $GPGGA,182106.000,4144.3536,N,06959.5189,W,2,10,0.83,11.3,M,-34.3,M,0000,0000*61 
115.980         GPS_NMEA_FROM_GPS    iGPS            $GPRMC,182107.000,A,4144.3537,N,06959.5187,W,0.74,56.56,250321,,,D*4F 
116.982         GPS_NMEA_FROM_GPS    iGPS            $GPGGA,182108.000,4144.3538,N,06959.5184,W,2,10,0.84,11.4,M,-34.3,M,0000,0000*6C 
117.985         GPS_NMEA_FROM_GPS    iGPS            $GPRMC,182109.000,A,4144.3539,N,06959.5182,W,0.74,54.82,250321,,,D*41 
118.887         GPS_NMEA_FROM_GPS    iGPS            $GPGGA,182110.000,4144.3541,N,06959.5179,W,2,10,0.83,11.5,M,-34.3,M,0000,0000*6F 
119.990         GPS_NMEA_FROM_GPS    iGPS            $GPGGA,182111.000,4144.3542,N,06959.5177,W,2,10,0.83,11.5,M,-34.3,M,0000,0000*63 
120.992         GPS_NMEA_FROM_GPS    iGPS            $GPGGA,182112.000,4144.3544,N,06959.5174,W,2,10,0.83,11.6,M,-34.3,M,0000,0000*66 
121.895         GPS_NMEA_FROM_GPS    iGPS            $GPGGA,182113.000,4144.3545,N,06959.5172,W,2,10,0.83,11.7,M,-34.3,M,0000,0000*61 
122.998         GPS_NMEA_FROM_GPS    iGPS            $GPRMC,182114.000,A,4144.3547,N,06959.5169,W,0.73,49.64,250321,,,D*42 
123.900         GPS_NMEA_FROM_GPS    iGPS            $GPGGA,182115.000,4144.3549,N,06959.5167,W,2,10,0.83,11.7,M,-34.3,M,0000,0000*6F 
124.903         GPS_NMEA_FROM_GPS    iGPS            $GPGGA,182116.000,4144.3551,N,06959.5165,W,2,10,0.83,11.8,M,-34.3,M,0000,0000*68 
125.905         GPS_NMEA_FROM_GPS    iGPS            $GPGGA,182117.000,4144.3552,N,06959.5162,W,2,10,0.83,11.9,M,-34.3,M,0000,0000*6C 
127.008         GPS_NMEA_FROM_GPS    iGPS            $GPGGA,182118.000,4144.3554,N,06959.5160,W,2,10,0.83,11.9,M,-34.3,M,0000,0000*67 
128.010         GPS_NMEA_FROM_GPS    iGPS            $GPRMC,182119.000,A,4144.3555,N,06959.5158,W,0.77,47.71,250321,,,D*40 
128.912         GPS_NMEA_FROM_GPS    iGPS            $GPGGA,182120.000,4144.3557,N,06959.5156,W,2,10,0.83,12.0,M,-34.3,M,0000,0000*60 
129.915         GPS_NMEA_FROM_GPS    iGPS            $GPGGA,182121.000,4144.3559,N,06959.5153,W,2,10,0.83,12.1,M,-34.3,M,0000,0000*6B 
131.017         GPS_NMEA_FROM_GPS    iGPS            $GPGGA,182122.000,4144.3560,N,06959.5151,W,2,10,0.83,12.1,M,-34.3,M,0000,0000*60 
132.020         GPS_NMEA_FROM_GPS    iGPS            $GPRMC,182123.000,A,4144.3562,N,06959.5149,W,0.77,48.07,250321,,,D*43 
132.922         GPS_NMEA_FROM_GPS    iGPS            $GPGGA,182124.000,4144.3563,N,06959.5147,W,2,09,0.87,12.1,M,-34.3,M,0000,0000*6E 
133.925         GPS_NMEA_FROM_GPS    iGPS            $GPGGA,182125.000,4144.3565,N,06959.5144,W,2,09,0.87,12.2,M,-34.3,M,0000,0000*69 
135.028         GPS_NMEA_FROM_GPS    iGPS            $GPRMC,182126.000,A,4144.3566,N,06959.5142,W,0.74,47.64,250321,,,D*40 
135.930         GPS_NMEA_FROM_GPS    iGPS            $GPGGA,182127.000,4144.3568,N,06959.5140,W,2,09,0.87,12.3,M,-34.3,M,0000,0000*63 
136.933         GPS_NMEA_FROM_GPS    iGPS            $GPRMC,182128.000,A,4144.3570,N,06959.5138,W,0.72,45.92,250321,,,D*49 
137.935         GPS_NMEA_FROM_GPS    iGPS            $GPGGA,182129.000,4144.3571,N,06959.5136,W,2,08,0.99,12.4,M,-34.3,M,0000,0000*6D 
138.938         GPS_NMEA_FROM_GPS    iGPS            $GPRMC,182130.000,A,4144.3573,N,06959.5134,W,0.81,43.12,250321,,,D*4D 
139.940         GPS_NMEA_FROM_GPS    iGPS            $GPGGA,182131.000,4144.3575,N,06959.5132,W,2,09,0.87,12.3,M,-34.3,M,0000,0000*6D 
140.943         GPS_NMEA_FROM_GPS    iGPS            $GPGGA,182132.000,4144.3577,N,06959.5130,W,2,09,0.87,12.4,M,-34.3,M,0000,0000*69 
141.945         GPS_NMEA_FROM_GPS    iGPS            $GPGGA,182133.000,4144.3578,N,06959.5128,W,2,10,0.83,12.5,M,-34.3,M,0000,0000*63 
142.948         GPS_NMEA_FROM_GPS    iGPS            $GPGGA,182134.000,4144.3580,N,06959.5127,W,2,09,0.96,12.6,M,-34.3,M,0000,0000*63 
143.950         GPS_NMEA_FROM_GPS    iGPS            $GPGGA,182135.000,4144.3581,N,06959.5127,W,2,10,0.84,12.6,M,-34.3,M,0000,0000*68 
144.953         GPS_NMEA_FROM_GPS    iGPS            $GPGGA,182136.000,4144.3583,N,06959.5126,W,2,10,0.83,12.7,M,-34.3,M,0000,0000*6E 
145.956         GPS_NMEA_FROM_GPS    iGPS            $GPRMC,182137.000,A,4144.3584,N,06959.5126,W,0.42,24.13,250321,,,D*4E 
146.959         GPS_NMEA_FROM_GPS    iGPS            $GPRMC,182138.000,A,4144.3585,N,06959.5127,W,0.43,18.55,250321,,,D*4D 
147.962         GPS_NMEA_FROM_GPS    iGPS            $GPGGA,182139.000,4144.3586,N,06959.5127,W,2,10,0.84,12.7,M,-34.3,M,0000,0000*62 
148.965         GPS_NMEA_FROM_GPS    iGPS            $GPGGA,182140.000,4144.3587,N,06959.5127,W,2,10,0.83,12.7,M,-34.3,M,0000,0000*6A 
149.967         GPS_NMEA_FROM_GPS    iGPS            $GPGGA,182141.000,4144.3588,N,06959.5128,W,2,10,0.83,12.6,M,-34.3,M,0000,0000*6A 
150.970         GPS_NMEA_FROM_GPS    iGPS            $GPGGA,182142.000,4144.3589,N,06959.5129,W,2,10,0.83,12.6,M,-34.3,M,0000,0000*69 
151.972         GPS_NMEA_FROM_GPS    iGPS            $GPGGA,182143.000,4144.3590,N,06959.5130,W,2,10,0.83,12.6,M,-34.3,M,0000,0000*68 
152.975         GPS_NMEA_FROM_GPS    iGPS            $GPGGA,182144.000,4144.3590,N,06959.5132,W,2,10,0.83,12.6,M,-34.3,M,0000,0000*6D 
153.977         GPS_NMEA_FROM_GPS    iGPS            $GPGGA,182145.000,4144.3591,N,06959.5134,W,2,10,0.83,12.6,M,-34.3,M,0000,0000*6B 
154.880         GPS_NMEA_FROM_GPS    iGPS            $GPGGA,182146.000,4144.3591,N,06959.5136,W,2,10,0.83,12.7,M,-34.3,M,0000,0000*6B 
155.883         GPS_NMEA_FROM_GPS    iGPS            $GPGGA,182147.000,4144.3591,N,06959.5138,W,2,10,0.83,12.7,M,-34.3,M,0000,0000*64 
156.986         GPS_NMEA_FROM_GPS    iGPS            $GPGGA,182148.000,4144.3591,N,06959.5140,W,2,10,0.83,12.6,M,-34.3,M,0000,0000*65 
157.988         GPS_NMEA_FROM_GPS    iGPS            $GPGGA,182149.000,4144.3591,N,06959.5142,W,2,10,0.83,12.6,M,-34.3,M,0000,0000*66 
158.991         GPS_NMEA_FROM_GPS    iGPS            $GPGGA,182150.000,4144.3592,N,06959.5144,W,2,10,0.83,12.7,M,-34.3,M,0000,0000*6A 
159.994         GPS_NMEA_FROM_GPS    iGPS            $GPRMC,182151.000,A,4144.3592,N,06959.5147,W,0.75,280.81,250321,,,D*7D 
160.897         GPS_NMEA_FROM_GPS    iGPS            $GPGGA,182152.000,4144.3593,N,06959.5151,W,2,09,0.96,12.6,M,-34.3,M,0000,0000*60 
161.999         GPS_NMEA_FROM_GPS    iGPS            $GPGGA,182153.000,4144.3593,N,06959.5154,W,2,10,0.84,12.5,M,-34.3,M,0000,0000*6C 
163.002         GPS_NMEA_FROM_GPS    iGPS            $GPGGA,182154.000,4144.3594,N,06959.5157,W,2,10,0.84,12.4,M,-34.3,M,0000,0000*6E 
164.005         GPS_NMEA_FROM_GPS    iGPS            $GPGGA,182155.000,4144.3594,N,06959.5160,W,2,10,0.84,12.4,M,-34.3,M,0000,0000*6B 
164.907         GPS_NMEA_FROM_GPS    iGPS            $GPGGA,182156.000,4144.3595,N,06959.5163,W,2,10,0.84,12.4,M,-34.3,M,0000,0000*6A 
165.910         GPS_NMEA_FROM_GPS    iGPS            $GPGGA,182157.000,4144.3596,N,06959.5165,W,2,10,0.84,12.5,M,-34.3,M,0000,0000*6F 
166.912         GPS_NMEA_FROM_GPS    iGPS            $GPGGA,182158.000,4144.3596,N,06959.5168,W,2,09,0.96,12.5,M,-34.3,M,0000,0000*66 
167.915         GPS_NMEA_FROM_GPS    iGPS            $GPGGA,182159.000,4144.3597,N,06959.5170,W,2,10,0.84,12.5,M,-34.3,M,0000,0000*64 
168.917         GPS_NMEA_FROM_GPS    iGPS            $GPGGA,182200.000,4144.3597,N,06959.5173,W,2,10,0.83,12.4,M,-34.3,M,0000,0000*6E 
170.020         GPS_NMEA_FROM_GPS    iGPS            $GPRMC,182201.000,A,4144.3597,N,06959.5176,W,0.55,268.49,250321,,,D*7C 
170.922         GPS_NMEA_FROM_GPS    iGPS            $GPGGA,182202.000,4144.3597,N,06959.5180,W,2,09,0.96,12.1,M,-34.3,M,0000,0000*69 
171.925         GPS_NMEA_FROM_GPS    iGPS            $GPGGA,182203.000,4144.3597,N,06959.5183,W,2,09,0.96,12.0,M,-34.3,M,0000,0000*6A 
172.928         GPS_NMEA_FROM_GPS    iGPS            $GPGGA,182204.000,4144.3596,N,06959.5186,W,2,10,0.83,12.0,M,-34.3,M,0000,0000*65 
174.031         GPS_NMEA_FROM_GPS    iGPS            $GPRMC,182205.000,A,4144.3595,N,06959.5188,W,0.69,246.81,250321,,,D*7C 
174.933         GPS_NMEA_FROM_GPS    iGPS            $GPGGA,182206.000,4144.3594,N,06959.5191,W,2,10,0.84,11.9,M,-34.3,M,0000,0000*6E 
175.935         GPS_NMEA_FROM_GPS    iGPS            $GPGGA,182207.000,4144.3593,N,06959.5193,W,2,10,0.84,11.8,M,-34.3,M,0000,0000*6B 
176.938         GPS_NMEA_FROM_GPS    iGPS            $GPGGA,182208.000,4144.3591,N,06959.5196,W,2,10,0.83,11.8,M,-34.3,M,0000,0000*64 
177.941         GPS_NMEA_FROM_GPS    iGPS            $GPGGA,182209.000,4144.3590,N,06959.5198,W,2,10,0.83,11.8,M,-34.3,M,0000,0000*6A 
178.943         GPS_NMEA_FROM_GPS    iGPS            $GPGGA,182210.000,4144.3589,N,06959.5200,W,2,09,0.96,11.7,M,-34.3,M,0000,0000*6B 
179.946         GPS_NMEA_FROM_GPS    iGPS            $GPGGA,182211.000,4144.3588,N,06959.5202,W,2,09,0.96,11.6,M,-34.3,M,0000,0000*68 
180.949         GPS_NMEA_FROM_GPS    iGPS            $GPGGA,182212.000,4144.3587,N,06959.5204,W,2,09,0.96,11.6,M,-34.3,M,0000,0000*62 
181.952         GPS_NMEA_FROM_GPS    iGPS            $GPGGA,182213.000,4144.3586,N,06959.5207,W,2,10,0.84,11.6,M,-34.3,M,0000,0000*6A 
182.955         GPS_NMEA_FROM_GPS    iGPS            $GPGGA,182214.000,4144.3585,N,06959.5210,W,2,10,0.83,11.6,M,-34.3,M,0000,0000*6F 
183.958         GPS_NMEA_FROM_GPS    iGPS            $GPRMC,182215.000,A,4144.3584,N,06959.5213,W,0.75,235.89,250321,,,D*7D 
184.960         GPS_NMEA_FROM_GPS    iGPS            $GPGGA,182216.000,4144.3583,N,06959.5215,W,2,10,0.83,11.6,M,-34.3,M,0000,0000*6E 
185.963         GPS_NMEA_FROM_GPS    iGPS            $GPRMC,182217.000,A,4144.3582,N,06959.5218,W,0.68,238.86,250321,,,D*7C 
186.965         GPS_NMEA_FROM_GPS    iGPS            $GPRMC,182218.000,A,4144.3581,N,06959.5221,W,0.71,240.17,250321,,,D*75 
187.967         GPS_NMEA_FROM_GPS    iGPS            $GPRMC,182219.000,A,4144.3580,N,06959.5223,W,0.67,241.09,250321,,,D*7E 
188.969         GPS_NMEA_FROM_GPS    iGPS            $GPGGA,182220.000,4144.3579,N,06959.5226,W,2,10,0.83,11.4,M,-34.3,M,0000,0000*6C 
189.972         GPS_NMEA_FROM_GPS    iGPS            $GPGGA,182221.000,4144.3578,N,06959.5228,W,2,10,0.84,11.3,M,-34.3,M,0000,0000*62 
190.976         GPS_NMEA_FROM_GPS    iGPS            $GPRMC,182222.000,A,4144.3577,N,06959.5231,W,0.69,243.10,250321,,,D*79 
191.977         GPS_NMEA_FROM_GPS    iGPS            $GPGGA,182223.000,4144.3576,N,06959.5233,W,2,10,0.83,11.3,M,-34.3,M,0000,0000*63 
192.980         GPS_NMEA_FROM_GPS    iGPS            $GPGGA,182224.000,4144.3575,N,06959.5236,W,2,10,0.84,11.3,M,-34.3,M,0000,0000*65 
193.983         GPS_NMEA_FROM_GPS    iGPS            $GPGGA,182225.000,4144.3574,N,06959.5239,W,2,10,0.83,11.3,M,-34.3,M,0000,0000*6D 
194.986         GPS_NMEA_FROM_GPS    iGPS            $GPGGA,182226.000,4144.3573,N,06959.5241,W,2,10,0.83,11.3,M,-34.3,M,0000,0000*66 
195.989         GPS_NMEA_FROM_GPS    iGPS            $GPGGA,182227.000,4144.3572,N,06959.5244,W,2,10,0.84,11.3,M,-34.3,M,0000,0000*64 
196.891         GPS_NMEA_FROM_GPS    iGPS            $GPGGA,182228.000,4144.3570,N,06959.5247,W,2,10,0.84,11.4,M,-34.3,M,0000,0000*6D 
197.893         GPS_NMEA_FROM_GPS    iGPS            $GPGGA,182229.000,4144.3569,N,06959.5250,W,2,10,0.83,11.4,M,-34.3,M,0000,0000*65 
198.996         GPS_NMEA_FROM_GPS    iGPS            $GPGGA,182230.000,4144.3568,N,06959.5253,W,2,10,0.83,11.4,M,-34.3,M,0000,0000*6F 
199.899         GPS_NMEA_FROM_GPS    iGPS            $GPGGA,182231.000,4144.3567,N,06959.5256,W,2,10,0.83,11.4,M,-34.3,M,0000,0000*64 
200.902         GPS_NMEA_FROM_GPS    iGPS            $GPGGA,182232.000,4144.3566,N,06959.5259,W,2,10,0.83,11.4,M,-34.3,M,0000,0000*69 
202.005         GPS_NMEA_FROM_GPS    iGPS            $GPRMC,182233.000,A,4144.3565,N,06959.5261,W,0.73,242.79,250321,,,D*7A 
202.907         GPS_NMEA_FROM_GPS    iGPS            $GPGGA,182234.000,4144.3563,N,06959.5264,W,2,10,0.83,11.3,M,-34.3,M,0000,0000*63 
204.011         GPS_NMEA_FROM_GPS    iGPS            $GPRMC,182235.000,A,4144.3562,N,06959.5266,W,0.72,242.58,250321,,,D*7E 
205.012         GPS_NMEA_FROM_GPS    iGPS            $GPRMC,182236.000,A,4144.3561,N,06959.5269,W,0.77,242.04,250321,,,D*7D 
206.015         GPS_NMEA_FROM_GPS    iGPS            $GPRMC,182237.000,A,4144.3560,N,06959.5271,W,0.78,241.80,250321,,,D*74 
207.017         GPS_NMEA_FROM_GPS    iGPS            $GPRMC,182238.000,A,4144.3558,N,06959.5274,W,0.75,241.37,250321,,,D*74 
207.919         GPS_NMEA_FROM_GPS    iGPS            $GPGGA,182239.000,4144.3557,N,06959.5276,W,2,10,0.83,11.3,M,-34.3,M,0000,0000*6A 
208.922         GPS_NMEA_FROM_GPS    iGPS            $GPGGA,182240.000,4144.3556,N,06959.5279,W,2,10,0.83,11.3,M,-34.3,M,0000,0000*6A 
209.924         GPS_NMEA_FROM_GPS    iGPS            $GPGGA,182241.000,4144.3556,N,06959.5281,W,2,09,0.87,11.3,M,-34.3,M,0000,0000*60 
210.927         GPS_NMEA_FROM_GPS    iGPS            $GPGGA,182242.000,4144.3555,N,06959.5284,W,2,09,0.89,11.3,M,-34.3,M,0000,0000*6B 
211.930         GPS_NMEA_FROM_GPS    iGPS            $GPGGA,182243.000,4144.3555,N,06959.5287,W,2,10,0.83,11.3,M,-34.3,M,0000,0000*6B 
212.933         GPS_NMEA_FROM_GPS    iGPS            $GPGGA,182244.000,4144.3554,N,06959.5289,W,2,10,0.83,11.2,M,-34.3,M,0000,0000*62 
213.935         GPS_NMEA_FROM_GPS    iGPS            $GPGGA,182245.000,4144.3553,N,06959.5292,W,2,10,0.84,11.2,M,-34.3,M,0000,0000*69 
214.938         GPS_NMEA_FROM_GPS    iGPS            $GPGGA,182246.000,4144.3553,N,06959.5295,W,2,10,0.83,11.1,M,-34.3,M,0000,0000*69 
215.940         GPS_NMEA_FROM_GPS    iGPS            $GPGGA,182247.000,4144.3552,N,06959.5297,W,2,10,0.83,11.0,M,-34.3,M,0000,0000*6A 
216.943         GPS_NMEA_FROM_GPS    iGPS            $GPGGA,182248.000,4144.3551,N,06959.5300,W,2,10,0.84,11.0,M,-34.3,M,0000,0000*6E 
217.946         GPS_NMEA_FROM_GPS    iGPS            $GPGGA,182249.000,4144.3550,N,06959.5303,W,2,10,0.84,11.0,M,-34.3,M,0000,0000*6D 
218.949         GPS_NMEA_FROM_GPS    iGPS            $GPGGA,182250.000,4144.3549,N,06959.5306,W,2,10,0.84,11.1,M,-34.3,M,0000,0000*69 
219.952         GPS_NMEA_FROM_GPS    iGPS            $GPGGA,182251.000,4144.3548,N,06959.5308,W,2,10,0.83,11.0,M,-34.3,M,0000,0000*61 
220.955         GPS_NMEA_FROM_GPS    iGPS            $GPRMC,182252.000,A,4144.3547,N,06959.5310,W,0.63,242.14,250321,,,D*70 
221.957         GPS_NMEA_FROM_GPS    iGPS            $GPGGA,182253.000,4144.3547,N,06959.5312,W,2,10,0.84,11.1,M,-34.3,M,0000,0000*61 
222.959         GPS_NMEA_FROM_GPS    iGPS            $GPGGA,182254.000,4144.3546,N,06959.5315,W,2,10,0.84,11.0,M,-34.3,M,0000,0000*61 
223.962         GPS_NMEA_FROM_GPS    iGPS            $GPGGA,182255.000,4144.3545,N,06959.5317,W,2,10,0.84,11.0,M,-34.3,M,0000,0000*61 
224.965         GPS_NMEA_FROM_GPS    iGPS            $GPRMC,182256.000,A,4144.3544,N,06959.5320,W,0.68,245.84,250321,,,D*71 
225.967         GPS_NMEA_FROM_GPS    iGPS            $GPGGA,182257.000,4144.3543,N,06959.5322,W,2,10,0.83,10.9,M,-34.3,M,0000,0000*6C 
226.972         GPS_NMEA_FROM_GPS    iGPS            $GPGGA,182258.000,4144.3542,N,06959.5325,W,2,10,0.83,10.9,M,-34.3,M,0000,0000*65 
227.975         GPS_NMEA_FROM_GPS    iGPS            $GPGGA,182259.000,4144.3541,N,06959.5327,W,2,10,0.83,10.9,M,-34.3,M,0000,0000*65 
228.978         GPS_NMEA_FROM_GPS    iGPS            $GPRMC,182300.000,A,4144.3540,N,06959.5330,W,0.79,241.00,250321,,,D*7E 
229.980         GPS_NMEA_FROM_GPS    iGPS            $GPRMC,182301.000,A,4144.3538,N,06959.5333,W,0.80,239.51,250321,,,D*7E 
230.885         GPS_NMEA_FROM_GPS    iGPS            $GPGGA,182302.000,4144.3537,N,06959.5335,W,2,10,0.83,10.8,M,-34.3,M,0000,0000*69 
231.988         GPS_NMEA_FROM_GPS    iGPS            $GPGGA,182303.000,4144.3535,N,06959.5338,W,2,10,0.83,10.8,M,-34.3,M,0000,0000*67 
232.890         GPS_NMEA_FROM_GPS    iGPS            $GPGGA,182304.000,4144.3534,N,06959.5340,W,2,10,0.84,10.7,M,-34.3,M,0000,0000*66 
233.993         GPS_NMEA_FROM_GPS    iGPS            $GPGGA,182305.000,4144.3533,N,06959.5342,W,2,10,0.83,10.7,M,-34.3,M,0000,0000*65 
234.895         GPS_NMEA_FROM_GPS    iGPS            $GPGGA,182306.000,4144.3533,N,06959.5345,W,2,10,0.83,10.7,M,-34.3,M,0000,0000*61 
235.898         GPS_NMEA_FROM_GPS    iGPS            $GPGGA,182307.000,4144.3532,N,06959.5347,W,2,09,0.89,10.7,M,-34.3,M,0000,0000*61 
237.001         GPS_NMEA_FROM_GPS    iGPS            $GPRMC,182308.000,A,4144.3532,N,06959.5349,W,0.63,249.21,250321,,,D*7D 
237.903         GPS_NMEA_FROM_GPS    iGPS            $GPGGA,182309.000,4144.3531,N,06959.5352,W,2,10,0.83,10.8,M,-34.3,M,0000,0000*65 
238.906         GPS_NMEA_FROM_GPS    iGPS            $GPGGA,182310.000,4144.3531,N,06959.5355,W,2,10,0.84,10.8,M,-34.3,M,0000,0000*6D 
239.908         GPS_NMEA_FROM_GPS    iGPS            $GPGGA,182311.000,4144.3530,N,06959.5357,W,2,10,0.83,10.9,M,-34.3,M,0000,0000*69 
241.012         GPS_NMEA_FROM_GPS    iGPS            $GPRMC,182312.000,A,4144.3529,N,06959.5360,W,0.66,251.01,250321,,,D*79 
241.914         GPS_NMEA_FROM_GPS    iGPS            $GPGGA,182313.000,4144.3529,N,06959.5363,W,2,10,0.84,10.9,M,-34.3,M,0000,0000*63 
242.917         GPS_NMEA_FROM_GPS    iGPS            $GPGGA,182314.000,4144.3529,N,06959.5365,W,2,10,0.84,11.0,M,-34.3,M,0000,0000*6A 
244.019         GPS_NMEA_FROM_GPS    iGPS            $GPGGA,182315.000,4144.3529,N,06959.5368,W,2,10,0.84,11.0,M,-34.3,M,0000,0000*66 
244.922         GPS_NMEA_FROM_GPS    iGPS            $GPGGA,182316.000,4144.3530,N,06959.5370,W,2,10,0.84,11.0,M,-34.3,M,0000,0000*64 
245.925         GPS_NMEA_FROM_GPS    iGPS            $GPGGA,182317.000,4144.3531,N,06959.5372,W,2,10,0.84,10.9,M,-34.3,M,0000,0000*6E 
247.027         GPS_NMEA_FROM_GPS    iGPS            $GPRMC,182318.000,A,4144.3532,N,06959.5374,W,0.54,275.27,250321,,,D*7F 
248.030         GPS_NMEA_FROM_GPS    iGPS            $GPRMC,182319.000,A,4144.3533,N,06959.5376,W,0.59,285.13,250321,,,D*78 
248.932         GPS_NMEA_FROM_GPS    iGPS            $GPGGA,182320.000,4144.3535,N,06959.5377,W,2,10,0.84,10.9,M,-34.3,M,0000,0000*6B 
249.934         GPS_NMEA_FROM_GPS    iGPS            $GPGGA,182321.000,4144.3536,N,06959.5378,W,2,10,0.84,10.9,M,-34.3,M,0000,0000*66 
250.937         GPS_NMEA_FROM_GPS    iGPS            $GPGGA,182322.000,4144.3537,N,06959.5379,W,2,10,0.83,10.8,M,-34.3,M,0000,0000*63 
251.940         GPS_NMEA_FROM_GPS    iGPS            $GPGGA,182323.000,4144.3538,N,06959.5379,W,2,10,0.83,10.7,M,-34.3,M,0000,0000*62 
252.943         GPS_NMEA_FROM_GPS    iGPS            $GPGGA,182324.000,4144.3539,N,06959.5380,W,2,10,0.84,10.7,M,-34.3,M,0000,0000*65 
253.946         GPS_NMEA_FROM_GPS    iGPS            $GPGGA,182325.000,4144.3540,N,06959.5381,W,2,10,0.84,10.7,M,-34.3,M,0000,0000*6B 
254.948         GPS_NMEA_FROM_GPS    iGPS            $GPGGA,182326.000,4144.3542,N,06959.5382,W,2,10,0.84,10.7,M,-34.3,M,0000,0000*69 
255.951         GPS_NMEA_FROM_GPS    iGPS            $GPGGA,182327.000,4144.3543,N,06959.5382,W,2,10,0.83,10.7,M,-34.3,M,0000,0000*6E 
256.953         GPS_NMEA_FROM_GPS    iGPS            $GPGGA,182328.000,4144.3544,N,06959.5384,W,2,10,0.83,10.7,M,-34.3,M,0000,0000*60 
257.956         GPS_NMEA_FROM_GPS    iGPS            $GPGGA,182329.000,4144.3546,N,06959.5385,W,2,10,0.83,10.6,M,-34.3,M,0000,0000*63 
258.959         GPS_NMEA_FROM_GPS    iGPS            $GPGGA,182330.000,4144.3548,N,06959.5386,W,2,10,0.83,10.6,M,-34.3,M,0000,0000*66 
259.961         GPS_NMEA_FROM_GPS    iGPS            $GPGGA,182331.000,4144.3550,N,06959.5388,W,2,10,0.84,10.5,M,-34.3,M,0000,0000*64 
260.964         GPS_NMEA_FROM_GPS    iGPS            $GPGGA,182332.000,4144.3551,N,06959.5389,W,2,10,0.83,10.4,M,-34.3,M,0000,0000*61 
261.967         GPS_NMEA_FROM_GPS    iGPS            $GPGGA,182333.000,4144.3553,N,06959.5391,W,2,10,0.83,10.3,M,-34.3,M,0000,0000*6C 
262.970         GPS_NMEA_FROM_GPS    iGPS            $GPRMC,182334.000,A,4144.3555,N,06959.5393,W,0.80,320.35,250321,,,D*72 
263.972         GPS_NMEA_FROM_GPS    iGPS            $GPGGA,182335.000,4144.3556,N,06959.5396,W,2,10,0.83,10.1,M,-34.3,M,0000,0000*6A 
264.974         GPS_NMEA_FROM_GPS    iGPS            $GPGGA,182336.000,4144.3558,N,06959.5398,W,2,10,0.83,10.0,M,-34.3,M,0000,0000*68 
265.877         GPS_NMEA_FROM_GPS    iGPS            $GPGGA,182337.000,4144.3560,N,06959.5400,W,2,10,0.83,9.9,M,-34.3,M,0000,0000*55 
266.879         GPS_NMEA_FROM_GPS    iGPS            $GPGGA,182338.000,4144.3561,N,06959.5402,W,2,10,0.83,9.8,M,-34.3,M,0000,0000*58 
267.982         GPS_NMEA_FROM_GPS    iGPS            $GPGGA,182339.000,4144.3563,N,06959.5404,W,2,10,0.84,9.6,M,-34.3,M,0000,0000*54 
268.985         GPS_NMEA_FROM_GPS    iGPS            $GPGGA,182340.000,4144.3564,N,06959.5407,W,2,10,0.83,9.5,M,-34.3,M,0000,0000*5A 
269.988         GPS_NMEA_FROM_GPS    iGPS            $GPGGA,182341.000,4144.3566,N,06959.5408,W,2,10,0.83,9.5,M,-34.3,M,0000,0000*56 
270.990         GPS_NMEA_FROM_GPS    iGPS            $GPGGA,182342.000,4144.3568,N,06959.5410,W,2,10,0.83,9.4,M,-34.3,M,0000,0000*53 
271.993         GPS_NMEA_FROM_GPS    iGPS            $GPRMC,182343.000,A,4144.3569,N,06959.5411,W,0.77,322.90,250321,,,D*75 
272.895         GPS_NMEA_FROM_GPS    iGPS            $GPGGA,182344.000,4144.3571,N,06959.5412,W,2,10,0.83,9.5,M,-34.3,M,0000,0000*5E 
273.898         GPS_NMEA_FROM_GPS    iGPS            $GPGGA,182345.000,4144.3573,N,06959.5413,W,2,10,0.83,9.5,M,-34.3,M,0000,0000*5C 
275.001         GPS_NMEA_FROM_GPS    iGPS            $GPRMC,182346.000,A,4144.3575,N,06959.5414,W,0.74,329.31,250321,,,D*7B 
275.903         GPS_NMEA_FROM_GPS    iGPS            $GPGGA,182347.000,4144.3577,N,06959.5415,W,2,10,0.83,9.4,M,-34.3,M,0000,0000*5D 
277.006         GPS_NMEA_FROM_GPS    iGPS            $GPGGA,182348.000,4144.3578,N,06959.5415,W,2,10,0.83,9.4,M,-34.3,M,0000,0000*5D 
277.908         GPS_NMEA_FROM_GPS    iGPS            $GPGGA,182349.000,4144.3579,N,06959.5416,W,2,10,0.84,9.4,M,-34.3,M,0000,0000*59 
279.011         GPS_NMEA_FROM_GPS    iGPS            $GPRMC,182350.000,A,4144.3581,N,06959.5417,W,0.65,330.95,250321,,,D*72 
280.014         GPS_NMEA_FROM_GPS    iGPS            $GPRMC,182351.000,A,4144.3582,N,06959.5418,W,0.68,331.60,250321,,,D*79 
280.916         GPS_NMEA_FROM_GPS    iGPS            $GPGGA,182352.000,4144.3584,N,06959.5419,W,2,10,0.84,9.4,M,-34.3,M,0000,0000*5E 
282.019         GPS_NMEA_FROM_GPS    iGPS            $GPRMC,182353.000,A,4144.3586,N,06959.5420,W,0.82,334.57,250321,,,D*71 
282.921         GPS_NMEA_FROM_GPS    iGPS            $GPGGA,182354.000,4144.3588,N,06959.5422,W,2,10,0.83,9.5,M,-34.3,M,0000,0000*5A 
283.923         GPS_NMEA_FROM_GPS    iGPS            $GPGGA,182355.000,4144.3590,N,06959.5423,W,2,10,0.83,9.5,M,-34.3,M,0000,0000*53 
284.926         GPS_NMEA_FROM_GPS    iGPS            $GPGGA,182356.000,4144.3592,N,06959.5424,W,2,10,0.83,9.6,M,-34.3,M,0000,0000*56 
286.029         GPS_NMEA_FROM_GPS    iGPS            $GPRMC,182357.000,A,4144.3593,N,06959.5425,W,0.80,336.04,250321,,,D*72 
286.931         GPS_NMEA_FROM_GPS    iGPS            $GPGGA,182358.000,4144.3595,N,06959.5427,W,2,10,0.83,9.7,M,-34.3,M,0000,0000*5D 
287.934         GPS_NMEA_FROM_GPS    iGPS            $GPGGA,182359.000,4144.3597,N,06959.5428,W,2,10,0.83,9.7,M,-34.3,M,0000,0000*51 
288.937         GPS_NMEA_FROM_GPS    iGPS            $GPGGA,182400.000,4144.3598,N,06959.5430,W,2,10,0.84,9.6,M,-34.3,M,0000,0000*5A 
289.939         GPS_NMEA_FROM_GPS    iGPS            $GPGGA,182401.000,4144.3599,N,06959.5432,W,2,10,0.83,9.6,M,-34.3,M,0000,0000*5F 
290.942         GPS_NMEA_FROM_GPS    iGPS            $GPGGA,182402.000,4144.3601,N,06959.5433,W,2,10,0.83,9.6,M,-34.3,M,0000,0000*5F 
291.945         GPS_NMEA_FROM_GPS    iGPS            $GPGGA,182403.000,4144.3602,N,06959.5435,W,2,10,0.84,9.6,M,-34.3,M,0000,0000*5C 
292.947         GPS_NMEA_FROM_GPS    iGPS            $GPGGA,182404.000,4144.3604,N,06959.5437,W,2,10,0.83,9.7,M,-34.3,M,0000,0000*59 
293.950         GPS_NMEA_FROM_GPS    iGPS            $GPRMC,182405.000,A,4144.3606,N,06959.5438,W,0.81,326.69,250321,,,D*7A 
294.952         GPS_NMEA_FROM_GPS    iGPS            $GPGGA,182406.000,4144.3608,N,06959.5440,W,2,10,0.83,9.8,M,-34.3,M,0000,0000*58 
295.955         GPS_NMEA_FROM_GPS    iGPS            $GPGGA,182407.000,4144.3610,N,06959.5442,W,2,10,0.83,9.8,M,-34.3,M,0000,0000*52 
296.958         GPS_NMEA_FROM_GPS    iGPS            $GPGGA,182408.000,4144.3612,N,06959.5443,W,2,10,0.84,9.9,M,-34.3,M,0000,0000*58 
297.960         GPS_NMEA_FROM_GPS    iGPS            $GPRMC,182409.000,A,4144.3615,N,06959.5444,W,0.83,330.26,250321,,,D*71 
298.962         GPS_NMEA_FROM_GPS    iGPS            $GPGGA,182410.000,4144.3617,N,06959.5446,W,2,10,0.84,9.9,M,-34.3,M,0000,0000*51 
299.965         GPS_NMEA_FROM_GPS    iGPS            $GPGGA,182411.000,4144.3618,N,06959.5447,W,2,10,0.84,9.9,M,-34.3,M,0000,0000*5E 
300.968         GPS_NMEA_FROM_GPS    iGPS            $GPGGA,182412.000,4144.3620,N,06959.5448,W,2,10,0.84,9.9,M,-34.3,M,0000,0000*59 
301.970         GPS_NMEA_FROM_GPS    iGPS            $GPGGA,182413.000,4144.3622,N,06959.5449,W,2,10,0.84,9.9,M,-34.3,M,0000,0000*5B 
302.973         GPS_NMEA_FROM_GPS    iGPS            $GPGGA,182414.000,4144.3623,N,06959.5450,W,2,10,0.84,9.8,M,-34.3,M,0000,0000*54 
303.976         GPS_NMEA_FROM_GPS    iGPS            $GPRMC,182415.000,A,4144.3625,N,06959.5451,W,0.76,334.88,250321,,,D*71 
304.979         GPS_NMEA_FROM_GPS    iGPS            $GPRMC,182416.000,A,4144.3627,N,06959.5453,W,0.76,334.30,250321,,,D*71 
305.881         GPS_NMEA_FROM_GPS    iGPS            $GPGGA,182417.000,4144.3628,N,06959.5454,W,2,10,0.84,9.8,M,-34.3,M,0000,0000*58 
306.883         GPS_NMEA_FROM_GPS    iGPS            $GPGGA,182418.000,4144.3630,N,06959.5456,W,2,10,0.84,9.7,M,-34.3,M,0000,0000*53 
307.986         GPS_NMEA_FROM_GPS    iGPS            $GPGGA,182419.000,4144.3631,N,06959.5458,W,2,10,0.84,9.7,M,-34.3,M,0000,0000*5D 
308.989         GPS_NMEA_FROM_GPS    iGPS            $GPRMC,182420.000,A,4144.3633,N,06959.5459,W,0.71,328.30,250321,,,D*71 
309.991         GPS_NMEA_FROM_GPS    iGPS            $GPGGA,182421.000,4144.3635,N,06959.5461,W,2,10,0.83,9.7,M,-34.3,M,0000,0000*5F 
310.994         GPS_NMEA_FROM_GPS    iGPS            $GPGGA,182422.000,4144.3636,N,06959.5463,W,2,10,0.84,9.7,M,-34.3,M,0000,0000*5A 
311.996         GPS_NMEA_FROM_GPS    iGPS            $GPGGA,182423.000,4144.3637,N,06959.5464,W,2,09,0.94,9.6,M,-34.3,M,0000,0000*55 
312.999         GPS_NMEA_FROM_GPS    iGPS            $GPGGA,182424.000,4144.3638,N,06959.5465,W,2,10,0.84,9.6,M,-34.3,M,0000,0000*55 
314.001         GPS_NMEA_FROM_GPS    iGPS            $GPGGA,182425.000,4144.3639,N,06959.5466,W,2,10,0.84,9.8,M,-34.3,M,0000,0000*58 
314.904         GPS_NMEA_FROM_GPS    iGPS            $GPGGA,182426.000,4144.3640,N,06959.5467,W,2,10,0.84,9.8,M,-34.3,M,0000,0000*54 
315.907         GPS_NMEA_FROM_GPS    iGPS            $GPGGA,182427.000,4144.3641,N,06959.5469,W,2,10,0.84,9.8,M,-34.3,M,0000,0000*5A 
316.909         GPS_NMEA_FROM_GPS    iGPS            $GPGGA,182428.000,4144.3641,N,06959.5470,W,2,10,0.84,9.8,M,-34.3,M,0000,0000*5D 
318.012         GPS_NMEA_FROM_GPS    iGPS            $GPRMC,182429.000,A,4144.3641,N,06959.5471,W,0.33,303.04,250321,,,D*7F 
318.915         GPS_NMEA_FROM_GPS    iGPS            $GPGGA,182430.000,4144.3642,N,06959.5472,W,2,10,0.84,9.8,M,-34.3,M,0000,0000*55 
320.018         GPS_NMEA_FROM_GPS    iGPS            $GPRMC,182431.000,A,4144.3642,N,06959.5473,W,0.30,284.89,250321,,,D*7F 
320.920         GPS_NMEA_FROM_GPS    iGPS            $GPGGA,182432.000,4144.3641,N,06959.5474,W,2,10,0.84,9.8,M,-34.3,M,0000,0000*52 
321.923         GPS_NMEA_FROM_GPS    iGPS            $GPGGA,182433.000,4144.3641,N,06959.5475,W,2,10,0.84,9.8,M,-34.3,M,0000,0000*52 
322.926         GPS_NMEA_FROM_GPS    iGPS            $GPGGA,182434.000,4144.3640,N,06959.5476,W,2,09,0.89,9.7,M,-34.3,M,0000,0000*5D 
323.929         GPS_NMEA_FROM_GPS    iGPS            $GPGGA,182435.000,4144.3639,N,06959.5476,W,2,10,0.84,9.7,M,-34.3,M,0000,0000*57 
324.931         GPS_NMEA_FROM_GPS    iGPS            $GPGGA,182436.000,4144.3637,N,06959.5476,W,2,10,0.84,9.7,M,-34.3,M,0000,0000*5A 
325.934         GPS_NMEA_FROM_GPS    iGPS            $GPGGA,182437.000,4144.3636,N,06959.5476,W,2,10,0.84,9.7,M,-34.3,M,0000,0000*5A 
326.937         GPS_NMEA_FROM_GPS    iGPS            $GPRMC,182438.000,A,4144.3634,N,06959.5476,W,0.54,188.08,250321,,,D*76 
327.939         GPS_NMEA_FROM_GPS    iGPS            $GPGGA,182439.000,4144.3633,N,06959.5476,W,2,10,0.84,9.7,M,-34.3,M,0000,0000*51 
328.942         GPS_NMEA_FROM_GPS    iGPS            $GPGGA,182440.000,4144.3631,N,06959.5476,W,2,10,0.84,9.7,M,-34.3,M,0000,0000*5D 
329.944         GPS_NMEA_FROM_GPS    iGPS            $GPGGA,182441.000,4144.3630,N,06959.5476,W,2,10,0.84,9.7,M,-34.3,M,0000,0000*5D 
330.947         GPS_NMEA_FROM_GPS    iGPS            $GPGGA,182442.000,4144.3628,N,06959.5476,W,2,10,0.84,9.7,M,-34.3,M,0000,0000*57 
331.950         GPS_NMEA_FROM_GPS    iGPS            $GPGGA,182443.000,4144.3626,N,06959.5477,W,2,10,0.84,9.7,M,-34.3,M,0000,0000*59 
332.952         GPS_NMEA_FROM_GPS    iGPS            $GPGGA,182444.000,4144.3624,N,06959.5478,W,2,10,0.84,9.7,M,-34.3,M,0000,0000*53 
333.955         GPS_NMEA_FROM_GPS    iGPS            $GPGGA,182445.000,4144.3622,N,06959.5478,W,2,10,0.84,9.7,M,-34.3,M,0000,0000*54 
334.958         GPS_NMEA_FROM_GPS    iGPS            $GPGGA,182446.000,4144.3620,N,06959.5478,W,2,10,0.84,9.7,M,-34.3,M,0000,0000*55 
335.961         GPS_NMEA_FROM_GPS    iGPS            $GPRMC,182447.000,A,4144.3618,N,06959.5478,W,0.54,189.35,250321,,,D*71 
336.963         GPS_NMEA_FROM_GPS    iGPS            $GPRMC,182448.000,A,4144.3616,N,06959.5477,W,0.52,185.62,250321,,,D*77 
337.964         GPS_NMEA_FROM_GPS    iGPS            $GPRMC,182449.000,A,4144.3615,N,06959.5477,W,0.58,180.73,250321,,,D*7A 
338.967         GPS_NMEA_FROM_GPS    iGPS            $GPGGA,182450.000,4144.3613,N,06959.5476,W,2,10,0.84,9.9,M,-34.3,M,0000,0000*52 
339.869         GPS_NMEA_FROM_GPS    iGPS            $GPGGA,182451.000,4144.3611,N,06959.5476,W,2,10,0.84,9.9,M,-34.3,M,0000,0000*51 
340.975         GPS_NMEA_FROM_GPS    iGPS            $GPGGA,182452.000,4144.3609,N,06959.5475,W,2,10,0.83,9.9,M,-34.3,M,0000,0000*5F 
341.977         GPS_NMEA_FROM_GPS    iGPS            $GPGGA,182453.000,4144.3608,N,06959.5474,W,2,10,0.83,9.9,M,-34.3,M,0000,0000*5E 
342.980         GPS_NMEA_FROM_GPS    iGPS            $GPGGA,182454.000,4144.3606,N,06959.5472,W,2,10,0.84,10.0,M,-34.3,M,0000,0000*67 
343.882         GPS_NMEA_FROM_GPS    iGPS            $GPGGA,182455.000,4144.3604,N,06959.5470,W,2,10,0.83,10.0,M,-34.3,M,0000,0000*61 
344.984         GPS_NMEA_FROM_GPS    iGPS            $GPGGA,182456.000,4144.3602,N,06959.5469,W,2,10,0.83,10.0,M,-34.3,M,0000,0000*6C 
345.887         GPS_NMEA_FROM_GPS    iGPS            $GPGGA,182457.000,4144.3601,N,06959.5467,W,2,10,0.84,10.0,M,-34.3,M,0000,0000*67 
346.889         GPS_NMEA_FROM_GPS    iGPS            $GPGGA,182458.000,4144.3600,N,06959.5465,W,2,10,0.84,10.0,M,-34.3,M,0000,0000*6B 
347.892         GPS_NMEA_FROM_GPS    iGPS            $GPGGA,182459.000,4144.3598,N,06959.5463,W,2,10,0.84,10.1,M,-34.3,M,0000,0000*6F 
348.995         GPS_NMEA_FROM_GPS    iGPS            $GPRMC,182500.000,A,4144.3596,N,06959.5462,W,0.72,139.25,250321,,,D*73 
349.999         GPS_NMEA_FROM_GPS    iGPS            $GPGGA,182501.000,4144.3595,N,06959.5459,W,2,10,0.83,10.2,M,-34.3,M,0000,0000*63 
350.901         GPS_NMEA_FROM_GPS    iGPS            $GPGGA,182502.000,4144.3593,N,06959.5457,W,2,10,0.83,10.3,M,-34.3,M,0000,0000*69 
351.904         GPS_NMEA_FROM_GPS    iGPS            $GPGGA,182503.000,4144.3590,N,06959.5456,W,2,10,0.84,10.4,M,-34.3,M,0000,0000*6A 
353.007         GPS_NMEA_FROM_GPS    iGPS            $GPRMC,182504.000,A,4144.3588,N,06959.5454,W,0.77,144.69,250321,,,D*7A 
354.009         GPS_NMEA_FROM_GPS    iGPS            $GPRMC,182505.000,A,4144.3586,N,06959.5453,W,0.67,146.25,250321,,,D*79 
355.012         GPS_NMEA_FROM_GPS    iGPS            $GPRMC,182506.000,A,4144.3584,N,06959.5452,W,0.67,147.89,250321,,,D*7E 
355.914         GPS_NMEA_FROM_GPS    iGPS            $GPGGA,182507.000,4144.3582,N,06959.5450,W,2,10,0.83,10.6,M,-34.3,M,0000,0000*6E 
357.018         GPS_NMEA_FROM_GPS    iGPS            $GPRMC,182508.000,A,4144.3579,N,06959.5449,W,0.64,150.97,250321,,,D*72 
357.920         GPS_NMEA_FROM_GPS    iGPS            $GPGGA,182509.000,4144.3578,N,06959.5448,W,2,10,0.83,10.7,M,-34.3,M,0000,0000*6D 
358.923         GPS_NMEA_FROM_GPS    iGPS            $GPGGA,182510.000,4144.3576,N,06959.5446,W,2,10,0.84,10.7,M,-34.3,M,0000,0000*62 
359.926         GPS_NMEA_FROM_GPS    iGPS            $GPGGA,182511.000,4144.3574,N,06959.5445,W,2,10,0.84,10.8,M,-34.3,M,0000,0000*6D 
360.928         GPS_NMEA_FROM_GPS    iGPS            $GPGGA,182512.000,4144.3572,N,06959.5444,W,2,10,0.83,10.8,M,-34.3,M,0000,0000*6E 
361.931         GPS_NMEA_FROM_GPS    iGPS            $GPGGA,182513.000,4144.3570,N,06959.5442,W,2,10,0.83,10.8,M,-34.3,M,0000,0000*6B 
363.034         GPS_NMEA_FROM_GPS    iGPS            $GPRMC,182514.000,A,4144.3569,N,06959.5441,W,0.71,147.53,250321,,,D*7C 
364.037         GPS_NMEA_FROM_GPS    iGPS            $GPRMC,182515.000,A,4144.3567,N,06959.5439,W,0.78,147.56,250321,,,D*70 
364.939         GPS_NMEA_FROM_GPS    iGPS            $GPGGA,182516.000,4144.3565,N,06959.5438,W,2,10,0.83,10.7,M,-34.3,M,0000,0000*68 
365.941         GPS_NMEA_FROM_GPS    iGPS            $GPGGA,182517.000,4144.3564,N,06959.5437,W,2,10,0.83,10.6,M,-34.3,M,0000,0000*66 
366.944         GPS_NMEA_FROM_GPS    iGPS            $GPGGA,182518.000,4144.3562,N,06959.5436,W,2,10,0.83,10.5,M,-34.3,M,0000,0000*6D 
368.047         GPS_NMEA_FROM_GPS    iGPS            $GPRMC,182519.000,A,4144.3561,N,06959.5434,W,0.75,142.19,250321,,,D*74 
368.949         GPS_NMEA_FROM_GPS    iGPS            $GPGGA,182520.000,4144.3560,N,06959.5433,W,2,10,0.83,10.5,M,-34.3,M,0000,0000*61 
369.952         GPS_NMEA_FROM_GPS    iGPS            $GPGGA,182521.000,4144.3558,N,06959.5431,W,2,10,0.83,10.5,M,-34.3,M,0000,0000*69 
370.955         GPS_NMEA_FROM_GPS    iGPS            $GPGGA,182522.000,4144.3557,N,06959.5429,W,2,10,0.84,10.5,M,-34.3,M,0000,0000*6B 
371.958         GPS_NMEA_FROM_GPS    iGPS            $GPRMC,182523.000,A,4144.3556,N,06959.5427,W,0.72,136.82,250321,,,D*7D 
372.960         GPS_NMEA_FROM_GPS    iGPS            $GPRMC,182524.000,A,4144.3555,N,06959.5426,W,0.72,136.99,250321,,,D*72 
373.964         GPS_NMEA_FROM_GPS    iGPS            $GPGGA,182525.000,4144.3553,N,06959.5424,W,2,10,0.83,10.4,M,-34.3,M,0000,0000*63 
374.966         GPS_NMEA_FROM_GPS    iGPS            $GPGGA,182526.000,4144.3551,N,06959.5422,W,2,10,0.83,10.4,M,-34.3,M,0000,0000*64 
375.969         GPS_NMEA_FROM_GPS    iGPS            $GPGGA,182527.000,4144.3549,N,06959.5420,W,2,10,0.83,10.4,M,-34.3,M,0000,0000*6E 
376.972         GPS_NMEA_FROM_GPS    iGPS            $GPGGA,182528.000,4144.3547,N,06959.5418,W,2,10,0.83,10.4,M,-34.3,M,0000,0000*64 
377.975         GPS_NMEA_FROM_GPS    iGPS            $GPRMC,182529.000,A,4144.3545,N,06959.5416,W,0.73,144.78,250321,,,D*76 
378.977         GPS_NMEA_FROM_GPS    iGPS            $GPRMC,182530.000,A,4144.3543,N,06959.5415,W,0.68,145.93,250321,,,D*75 
379.979         GPS_NMEA_FROM_GPS    iGPS            $GPGGA,182531.000,4144.3541,N,06959.5413,W,2,10,0.83,10.3,M,-34.3,M,0000,0000*66 
380.982         GPS_NMEA_FROM_GPS    iGPS            $GPRMC,182532.000,A,4144.3539,N,06959.5412,W,0.68,148.18,250321,,,D*73 
381.985         GPS_NMEA_FROM_GPS    iGPS            $GPGGA,182533.000,4144.3537,N,06959.5410,W,2,10,0.83,10.3,M,-34.3,M,0000,0000*66 
382.987         GPS_NMEA_FROM_GPS    iGPS            $GPRMC,182534.000,A,4144.3535,N,06959.5409,W,0.66,147.62,250321,,,D*7F 
383.990         GPS_NMEA_FROM_GPS    iGPS            $GPRMC,182535.000,A,4144.3533,N,06959.5407,W,0.70,147.70,250321,,,D*72 
384.992         GPS_NMEA_FROM_GPS    iGPS            $GPGGA,182536.000,4144.3532,N,06959.5406,W,2,10,0.83,10.3,M,-34.3,M,0000,0000*61 
385.995         GPS_NMEA_FROM_GPS    iGPS            $GPGGA,182537.000,4144.3530,N,06959.5404,W,2,10,0.83,10.3,M,-34.3,M,0000,0000*60 
386.897         GPS_NMEA_FROM_GPS    iGPS            $GPGGA,182538.000,4144.3529,N,06959.5402,W,2,10,0.84,10.2,M,-34.3,M,0000,0000*67 
388.000         GPS_NMEA_FROM_GPS    iGPS            $GPRMC,182539.000,A,4144.3527,N,06959.5401,W,0.74,137.65,250321,,,D*7A 
389.003         GPS_NMEA_FROM_GPS    iGPS            $GPGGA,182540.000,4144.3526,N,06959.5400,W,2,10,0.83,10.1,M,-34.3,M,0000,0000*61 
390.006         GPS_NMEA_FROM_GPS    iGPS            $GPRMC,182541.000,A,4144.3524,N,06959.5398,W,0.67,139.95,250321,,,D*72 
391.008         GPS_NMEA_FROM_GPS    iGPS            $GPRMC,182542.000,A,4144.3523,N,06959.5397,W,0.61,140.90,250321,,,D*74 
391.910         GPS_NMEA_FROM_GPS    iGPS            $GPGGA,182543.000,4144.3521,N,06959.5396,W,2,10,0.83,10.1,M,-34.3,M,0000,0000*6D 
393.013         GPS_NMEA_FROM_GPS    iGPS            $GPRMC,182544.000,A,4144.3520,N,06959.5395,W,0.49,146.45,250321,,,D*77 
393.915         GPS_NMEA_FROM_GPS    iGPS            $GPGGA,182545.000,4144.3519,N,06959.5394,W,2,10,0.84,10.1,M,-34.3,M,0000,0000*65 
395.018         GPS_NMEA_FROM_GPS    iGPS            $GPRMC,182546.000,A,4144.3518,N,06959.5394,W,0.46,152.09,250321,,,D*7D 
395.920         GPS_NMEA_FROM_GPS    iGPS            $GPGGA,182547.000,4144.3516,N,06959.5393,W,2,10,0.84,10.0,M,-34.3,M,0000,0000*6E 
397.023         GPS_NMEA_FROM_GPS    iGPS            $GPRMC,182548.000,A,4144.3515,N,06959.5393,W,0.47,160.04,250321,,,D*74 
398.026         GPS_NMEA_FROM_GPS    iGPS            $GPRMC,182549.000,A,4144.3514,N,06959.5393,W,0.41,167.69,250321,,,D*7E 
398.928         GPS_NMEA_FROM_GPS    iGPS            $GPGGA,182550.000,4144.3513,N,06959.5393,W,2,10,0.84,9.9,M,-34.3,M,0000,0000*5C 
399.930         GPS_NMEA_FROM_GPS    iGPS            $GPGGA,182551.000,4144.3512,N,06959.5394,W,2,09,0.97,9.8,M,-34.3,M,0000,0000*50 
400.933         GPS_NMEA_FROM_GPS    iGPS            $GPGGA,182552.000,4144.3511,N,06959.5395,W,2,09,0.97,9.8,M,-34.3,M,0000,0000*51 
402.036         GPS_NMEA_FROM_GPS    iGPS            $GPRMC,182553.000,A,4144.3510,N,06959.5397,W,0.60,214.51,250321,,,D*7A 
402.939         GPS_NMEA_FROM_GPS    iGPS            $GPGGA,182554.000,4144.3510,N,06959.5399,W,2,09,0.97,9.7,M,-34.3,M,0000,0000*55 
403.941         GPS_NMEA_FROM_GPS    iGPS            $GPGGA,182555.000,4144.3510,N,06959.5401,W,2,09,0.97,9.8,M,-34.3,M,0000,0000*5D 
404.944         GPS_NMEA_FROM_GPS    iGPS            $GPGGA,182556.000,4144.3510,N,06959.5403,W,2,09,0.97,9.8,M,-34.3,M,0000,0000*5C 
405.948         GPS_NMEA_FROM_GPS    iGPS            $GPGGA,182557.000,4144.3510,N,06959.5405,W,2,09,0.97,9.8,M,-34.3,M,0000,0000*5B 
406.951         GPS_NMEA_FROM_GPS    iGPS            $GPGGA,182558.000,4144.3509,N,06959.5407,W,2,09,0.97,9.8,M,-34.3,M,0000,0000*5E 
407.954         GPS_NMEA_FROM_GPS    iGPS            $GPGGA,182559.000,4144.3509,N,06959.5410,W,2,10,0.84,9.7,M,-34.3,M,0000,0000*5C 
408.956         GPS_NMEA_FROM_GPS    iGPS            $GPGGA,182600.000,4144.3508,N,06959.5412,W,2,10,0.84,9.6,M,-34.3,M,0000,0000*51 
409.959         GPS_NMEA_FROM_GPS    iGPS            $GPGGA,182601.000,4144.3508,N,06959.5413,W,2,09,0.97,9.6,M,-34.3,M,0000,0000*5B 
410.962         GPS_NMEA_FROM_GPS    iGPS            $GPRMC,182602.000,A,4144.3508,N,06959.5415,W,0.50,248.41,250321,,,D*72 
411.964         GPS_NMEA_FROM_GPS    iGPS            $GPRMC,182603.000,A,4144.3507,N,06959.5417,W,0.56,245.08,250321,,,D*78 
412.966         GPS_NMEA_FROM_GPS    iGPS            $GPRMC,182604.000,A,4144.3506,N,06959.5418,W,0.66,239.66,250321,,,D*71 
413.969         GPS_NMEA_FROM_GPS    iGPS            $GPGGA,182605.000,4144.3505,N,06959.5420,W,2,10,0.83,9.5,M,-34.3,M,0000,0000*5C 
414.972         GPS_NMEA_FROM_GPS    iGPS            $GPGGA,182606.000,4144.3504,N,06959.5422,W,2,10,0.83,9.4,M,-34.3,M,0000,0000*5D 
415.975         GPS_NMEA_FROM_GPS    iGPS            $GPGGA,182607.000,4144.3503,N,06959.5425,W,2,10,0.84,9.4,M,-34.3,M,0000,0000*5B 
416.978         GPS_NMEA_FROM_GPS    iGPS            $GPGGA,182608.000,4144.3501,N,06959.5427,W,2,10,0.83,9.4,M,-34.3,M,0000,0000*53 
417.981         GPS_NMEA_FROM_GPS    iGPS            $GPGGA,182609.000,4144.3500,N,06959.5429,W,2,09,0.97,9.3,M,-34.3,M,0000,0000*57 
418.983         GPS_NMEA_FROM_GPS    iGPS            $GPGGA,182610.000,4144.3499,N,06959.5430,W,2,10,0.84,9.3,M,-34.3,M,0000,0000*5C 
419.986         GPS_NMEA_FROM_GPS    iGPS            $GPGGA,182611.000,4144.3498,N,06959.5433,W,2,10,0.84,9.3,M,-34.3,M,0000,0000*5F 
420.888         GPS_NMEA_FROM_GPS    iGPS            $GPGGA,182612.000,4144.3497,N,06959.5435,W,2,10,0.84,9.3,M,-34.3,M,0000,0000*55 
421.891         GPS_NMEA_FROM_GPS    iGPS            $GPGGA,182613.000,4144.3496,N,06959.5437,W,2,09,0.97,9.4,M,-34.3,M,0000,0000*5A 
422.994         GPS_NMEA_FROM_GPS    iGPS            $GPGGA,182614.000,4144.3495,N,06959.5440,W,2,08,1.07,9.4,M,-34.3,M,0000,0000*57 
423.897         GPS_NMEA_FROM_GPS    iGPS            $GPGGA,182615.000,4144.3494,N,06959.5442,W,2,08,1.07,9.5,M,-34.3,M,0000,0000*54 
425.000         GPS_NMEA_FROM_GPS    iGPS            $GPRMC,182616.000,A,4144.3493,N,06959.5445,W,0.71,240.64,250321,,,D*7D 
425.902         GPS_NMEA_FROM_GPS    iGPS            $GPGGA,182617.000,4144.3493,N,06959.5447,W,2,08,1.04,9.5,M,-34.3,M,0000,0000*57 
427.004         GPS_NMEA_FROM_GPS    iGPS            $GPRMC,182618.000,A,4144.3492,N,06959.5450,W,0.68,245.19,250321,,,D*71 
428.006         GPS_NMEA_FROM_GPS    iGPS            $GPRMC,182619.000,A,4144.3491,N,06959.5452,W,0.71,246.98,250321,,,D*73 
428.908         GPS_NMEA_FROM_GPS    iGPS            $GPGGA,182620.000,4144.3491,N,06959.5454,W,2,09,0.97,9.3,M,-34.3,M,0000,0000*5F 
430.011         GPS_NMEA_FROM_GPS    iGPS            $GPRMC,182621.000,A,4144.3490,N,06959.5457,W,0.71,247.89,250321,,,D*7D 
431.013         GPS_NMEA_FROM_GPS    iGPS            $GPGGA,182622.000,4144.3489,N,06959.5459,W,2,10,0.83,9.3,M,-34.3,M,0000,0000*54 
431.916         GPS_NMEA_FROM_GPS    iGPS            $GPGGA,182623.000,4144.3488,N,06959.5462,W,2,10,0.83,9.4,M,-34.3,M,0000,0000*5B 
432.919         GPS_NMEA_FROM_GPS    iGPS            $GPGGA,182624.000,4144.3488,N,06959.5464,W,2,10,0.84,9.5,M,-34.3,M,0000,0000*5C 
433.922         GPS_NMEA_FROM_GPS    iGPS            $GPGGA,182625.000,4144.3487,N,06959.5467,W,2,09,0.97,9.6,M,-34.3,M,0000,0000*58 
434.926         GPS_NMEA_FROM_GPS    iGPS            $GPGGA,182626.000,4144.3486,N,06959.5470,W,2,09,0.97,9.7,M,-34.3,M,0000,0000*5D 
435.929         GPS_NMEA_FROM_GPS    iGPS            $GPGGA,182627.000,4144.3485,N,06959.5472,W,2,09,0.97,9.8,M,-34.3,M,0000,0000*52 
436.931         GPS_NMEA_FROM_GPS    iGPS            $GPGGA,182628.000,4144.3484,N,06959.5475,W,2,09,0.97,9.8,M,-34.3,M,0000,0000*5B 
438.034         GPS_NMEA_FROM_GPS    iGPS            $GPRMC,182629.000,A,4144.3483,N,06959.5477,W,0.80,237.21,250321,,,D*7E 
438.936         GPS_NMEA_FROM_GPS    iGPS            $GPGGA,182630.000,4144.3482,N,06959.5480,W,2,10,0.83,9.9,M,-34.3,M,0000,0000*52 
440.039         GPS_NMEA_FROM_GPS    iGPS            $GPRMC,182631.000,A,4144.3480,N,06959.5482,W,0.78,235.71,250321,,,D*7E 
440.942         GPS_NMEA_FROM_GPS    iGPS            $GPGGA,182632.000,4144.3479,N,06959.5485,W,2,10,0.83,10.0,M,-34.3,M,0000,0000*60 
441.945         GPS_NMEA_FROM_GPS    iGPS            $GPGGA,182633.000,4144.3478,N,06959.5488,W,2,10,0.83,10.1,M,-34.3,M,0000,0000*6C 
442.947         GPS_NMEA_FROM_GPS    iGPS            $GPGGA,182634.000,4144.3477,N,06959.5490,W,2,08,1.07,10.2,M,-34.3,M,0000,0000*6A 
443.950         GPS_NMEA_FROM_GPS    iGPS            $GPGGA,182635.000,4144.3476,N,06959.5493,W,2,08,1.07,10.3,M,-34.3,M,0000,0000*68 
444.953         GPS_NMEA_FROM_GPS    iGPS            $GPRMC,182636.000,A,4144.3475,N,06959.5495,W,0.75,242.15,250321,,,D*7A 
445.956         GPS_NMEA_FROM_GPS    iGPS            $GPGGA,182637.000,4144.3474,N,06959.5498,W,2,08,1.05,10.6,M,-34.3,M,0000,0000*64 
446.958         GPS_NMEA_FROM_GPS    iGPS            $GPGGA,182638.000,4144.3474,N,06959.5500,W,2,08,1.07,10.7,M,-34.3,M,0000,0000*68 
447.963         GPS_NMEA_FROM_GPS    iGPS            $GPGGA,182639.000,4144.3473,N,06959.5503,W,2,08,1.05,10.7,M,-34.3,M,0000,0000*6F 
448.966         GPS_NMEA_FROM_GPS    iGPS            $GPGGA,182640.000,4144.3472,N,06959.5505,W,2,08,1.04,10.8,M,-34.3,M,0000,0000*68 
449.969         GPS_NMEA_FROM_GPS    iGPS            $GPGGA,182641.000,4144.3471,N,06959.5507,W,2,09,0.97,10.7,M,-34.3,M,0000,0000*6D 
