2.183           GPS_NMEA_FROM_GPS    iGPS            $GPGGA,191649.000,4144.3556,N,06959.5665,W,2,09,1.03,2.2,M,-34.3,M,0000,0000*5E 
3.185           GPS_NMEA_FROM_GPS    iGPS            $GPGGA,191650.000,4144.3555,N,06959.5665,W,2,09,1.03,2.2,M,-34.3,M,0000,0000*55 
3.185           GPS_NMEA_FROM_GPS    iGPS            $GPGGA,191650.000,4144.3555,N,06959.5665,W,2,09,1.03,2.2,M,-34.3,M,0000,0000*55 
4.188           GPS_NMEA_FROM_GPS    iGPS            $GPGGA,191651.000,4144.3555,N,06959.5665,W,2,09,1.02,2.2,M,-34.3,M,0000,0000*55 
5.290           GPS_NMEA_FROM_GPS    iGPS            $GPRMC,191652.000,A,4144.3554,N,06959.5665,W,0.16,168.75,310321,,,D*78 
6.293           GPS_NMEA_FROM_GPS    iGPS            $GPRMC,191653.000,A,4144.3554,N,06959.5664,W,0.12,167.88,310321,,,D*71 
7.195           GPS_NMEA_FROM_GPS    iGPS            $GPGGA,191654.000,4144.3554,N,06959.5664,W,2,09,1.03,2.2,M,-34.3,M,0000,0000*51 
8.197           GPS_NMEA_FROM_GPS    iGPS            $GPGGA,191655.000,4144.3553,N,06959.5664,W,2,10,0.95,2.2,M,-34.3,M,0000,0000*51 
9.200           GPS_NMEA_FROM_GPS    iGPS            $GPGGA,191656.000,4144.3553,N,06959.5664,W,2,10,0.95,2.2,M,-34.3,M,0000,0000*52 
10.202          GPS_NMEA_FROM_GPS    iGPS            $GPGGA,191657.000,4144.3553,N,06959.5664,W,2,09,1.03,2.2,M,-34.3,M,0000,0000*55 
11.205          GPS_NMEA_FROM_GPS    iGPS            $GPGGA,191658.000,4144.3552,N,06959.5664,W,2,09,1.03,2.2,M,-34.3,M,0000,0000*5B 
11.205          GPS_NMEA_FROM_GPS    iGPS            $GPGGA,191658.000,4144.3552,N,06959.5664,W,2,09,1.03,2.2,M,-34.3,M,0000,0000*5B 
12.208          GPS_NMEA_FROM_GPS    iGPS            $GPGGA,191659.000,4144.3552,N,06959.5664,W,2,09,1.03,2.2,M,-34.3,M,0000,0000*5A 
12.208          GPS_NMEA_FROM_GPS    iGPS            $GPGGA,191659.000,4144.3552,N,06959.5664,W,2,09,1.03,2.2,M,-34.3,M,0000,0000*5A 
13.211          GPS_NMEA_FROM_GPS    iGPS            $GPGGA,191700.000,4144.3552,N,06959.5664,W,2,09,1.03,2.2,M,-34.3,M,0000,0000*57 
14.214          GPS_NMEA_FROM_GPS    iGPS            $GPGGA,191701.000,4144.3552,N,06959.5664,W,2,09,1.03,2.2,M,-34.3,M,0000,0000*56 
15.217          GPS_NMEA_FROM_GPS    iGPS            $GPGGA,191702.000,4144.3551,N,06959.5664,W,2,10,0.95,2.2,M,-34.3,M,0000,0000*50 
16.220          GPS_NMEA_FROM_GPS    iGPS            $GPGGA,191703.000,4144.3551,N,06959.5664,W,2,09,1.02,2.2,M,-34.3,M,0000,0000*56 
17.222          GPS_NMEA_FROM_GPS    iGPS            $GPGGA,191704.000,4144.3551,N,06959.5664,W,2,09,1.13,2.2,M,-34.3,M,0000,0000*51 
17.222          GPS_NMEA_FROM_GPS    iGPS            $GPGGA,191704.000,4144.3551,N,06959.5664,W,2,09,1.13,2.2,M,-34.3,M,0000,0000*51 
18.225          GPS_NMEA_FROM_GPS    iGPS            $GPGGA,191705.000,4144.3551,N,06959.5664,W,2,09,1.13,2.2,M,-34.3,M,0000,0000*50 
18.225          GPS_NMEA_FROM_GPS    iGPS            $GPGGA,191705.000,4144.3551,N,06959.5664,W,2,09,1.13,2.2,M,-34.3,M,0000,0000*50 
19.228          GPS_NMEA_FROM_GPS    iGPS            $GPRMC,191706.000,A,4144.3551,N,06959.5664,W,0.06,120.40,310321,,,D*77 
20.231          GPS_NMEA_FROM_GPS    iGPS            $GPRMC,191707.000,A,4144.3551,N,06959.5664,W,0.03,101.27,310321,,,D*71 
21.233          GPS_NMEA_FROM_GPS    iGPS            $GPRMC,191708.000,A,4144.3551,N,06959.5664,W,0.03,111.75,310321,,,D*78 
22.135          GPS_NMEA_FROM_GPS    iGPS            $GPGGA,191709.000,4144.3551,N,06959.5664,W,2,09,1.13,2.2,M,-34.3,M,0000,0000*5C 
23.238          GPS_NMEA_FROM_GPS    iGPS            $GPGGA,191710.000,4144.3551,N,06959.5664,W,2,09,1.03,2.2,M,-34.3,M,0000,0000*55 
24.140          GPS_NMEA_FROM_GPS    iGPS            $GPGGA,191711.000,4144.3551,N,06959.5664,W,2,09,1.03,2.2,M,-34.3,M,0000,0000*54 
25.243          GPS_NMEA_FROM_GPS    iGPS            $GPRMC,191712.000,A,4144.3551,N,06959.5664,W,0.05,194.08,310321,,,D*72 
26.245          GPS_NMEA_FROM_GPS    iGPS            $GPGGA,191713.000,4144.3551,N,06959.5664,W,2,09,1.13,2.2,M,-34.3,M,0000,0000*57 
26.245          GPS_NMEA_FROM_GPS    iGPS            $GPGGA,191713.000,4144.3551,N,06959.5664,W,2,09,1.13,2.2,M,-34.3,M,0000,0000*57 
27.248          GPS_NMEA_FROM_GPS    iGPS            $GPGGA,191714.000,4144.3550,N,06959.5664,W,2,10,0.95,2.2,M,-34.3,M,0000,0000*56 
28.151          GPS_NMEA_FROM_GPS    iGPS            $GPGGA,191715.000,4144.3550,N,06959.5664,W,2,10,0.95,2.2,M,-34.3,M,0000,0000*57 
29.253          GPS_NMEA_FROM_GPS    iGPS            $GPGGA,191716.000,4144.3550,N,06959.5664,W,2,10,0.95,2.2,M,-34.3,M,0000,0000*54 
30.256          GPS_NMEA_FROM_GPS    iGPS            $GPRMC,191717.000,A,4144.3550,N,06959.5664,W,0.01,187.23,310321,,,D*79 
31.259          GPS_NMEA_FROM_GPS    iGPS            $GPGGA,191718.000,4144.3550,N,06959.5664,W,2,10,0.95,2.3,M,-34.3,M,0000,0000*5B 
32.262          GPS_NMEA_FROM_GPS    iGPS            $GPGGA,191719.000,4144.3550,N,06959.5664,W,2,10,0.95,2.3,M,-34.3,M,0000,0000*5A 
33.164          GPS_NMEA_FROM_GPS    iGPS            $GPGGA,191720.000,4144.3550,N,06959.5664,W,2,10,0.95,2.3,M,-34.3,M,0000,0000*50 
34.167          GPS_NMEA_FROM_GPS    iGPS            $GPGGA,191721.000,4144.3550,N,06959.5664,W,2,09,1.03,2.3,M,-34.3,M,0000,0000*57 
35.270          GPS_NMEA_FROM_GPS    iGPS            $GPRMC,191722.000,A,4144.3550,N,06959.5664,W,0.14,191.93,310321,,,D*77 
36.272          GPS_NMEA_FROM_GPS    iGPS            $GPGGA,191723.000,4144.3550,N,06959.5664,W,2,09,1.03,2.3,M,-34.3,M,0000,0000*55 
37.275          GPS_NMEA_FROM_GPS    iGPS            $GPRMC,191724.000,A,4144.3550,N,06959.5664,W,0.16,188.10,310321,,,D*70 
38.277          GPS_NMEA_FROM_GPS    iGPS            $GPGGA,191725.000,4144.3550,N,06959.5664,W,2,09,1.03,2.3,M,-34.3,M,0000,0000*53 
39.280          GPS_NMEA_FROM_GPS    iGPS            $GPRMC,191726.000,A,4144.3550,N,06959.5664,W,0.19,193.69,310321,,,D*79 
40.182          GPS_NMEA_FROM_GPS    iGPS            $GPGGA,191727.000,4144.3550,N,06959.5664,W,2,09,1.03,2.3,M,-34.3,M,0000,0000*51 
41.184          GPS_NMEA_FROM_GPS    iGPS            $GPGGA,191728.000,4144.3550,N,06959.5664,W,2,09,1.03,2.3,M,-34.3,M,0000,0000*5E 
42.187          GPS_NMEA_FROM_GPS    iGPS            $GPGGA,191729.000,4144.3550,N,06959.5664,W,2,08,1.14,2.3,M,-34.3,M,0000,0000*58 
43.189          GPS_NMEA_FROM_GPS    iGPS            $GPGGA,191730.000,4144.3550,N,06959.5664,W,2,08,1.14,2.3,M,-34.3,M,0000,0000*50 
44.292          GPS_NMEA_FROM_GPS    iGPS            $GPRMC,191731.000,A,4144.3549,N,06959.5665,W,0.29,201.32,310321,,,D*73 
45.194          GPS_NMEA_FROM_GPS    iGPS            $GPGGA,191732.000,4144.3548,N,06959.5665,W,2,09,1.03,2.3,M,-34.3,M,0000,0000*5D 
46.196          GPS_NMEA_FROM_GPS    iGPS            $GPGGA,191733.000,4144.3547,N,06959.5666,W,2,10,0.95,2.3,M,-34.3,M,0000,0000*56 
47.198          GPS_NMEA_FROM_GPS    iGPS            $GPGGA,191734.000,4144.3546,N,06959.5666,W,2,09,1.01,2.3,M,-34.3,M,0000,0000*54 
48.200          GPS_NMEA_FROM_GPS    iGPS            $GPGGA,191735.000,4144.3544,N,06959.5667,W,2,09,1.00,2.3,M,-34.3,M,0000,0000*57 
49.203          GPS_NMEA_FROM_GPS    iGPS            $GPGGA,191736.000,4144.3541,N,06959.5667,W,2,09,1.00,2.4,M,-34.3,M,0000,0000*56 
50.306          GPS_NMEA_FROM_GPS    iGPS            $GPRMC,191737.000,A,4144.3538,N,06959.5668,W,0.74,194.10,310321,,,D*79 
51.208          GPS_NMEA_FROM_GPS    iGPS            $GPRMC,191738.000,A,4144.3535,N,06959.5669,W,0.76,195.13,310321,,,D*7A 
52.211          GPS_NMEA_FROM_GPS    iGPS            $GPGGA,191739.000,4144.3533,N,06959.5670,W,2,09,1.01,2.8,M,-34.3,M,0000,0000*57 
53.213          GPS_NMEA_FROM_GPS    iGPS            $GPGGA,191740.000,4144.3531,N,06959.5672,W,2,09,1.00,2.9,M,-34.3,M,0000,0000*59 
54.216          GPS_NMEA_FROM_GPS    iGPS            $GPGGA,191741.000,4144.3529,N,06959.5673,W,2,09,1.00,3.0,M,-34.3,M,0000,0000*58 
55.219          GPS_NMEA_FROM_GPS    iGPS            $GPGGA,191742.000,4144.3527,N,06959.5675,W,2,08,1.21,3.0,M,-34.3,M,0000,0000*51 
56.222          GPS_NMEA_FROM_GPS    iGPS            $GPRMC,191743.000,A,4144.3525,N,06959.5677,W,0.81,212.99,310321,,,D*7E 
57.224          GPS_NMEA_FROM_GPS    iGPS            $GPGGA,191744.000,4144.3523,N,06959.5679,W,2,08,1.21,3.1,M,-34.3,M,0000,0000*5E 
58.227          GPS_NMEA_FROM_GPS    iGPS            $GPGGA,191745.000,4144.3522,N,06959.5681,W,2,09,1.00,3.2,M,-34.3,M,0000,0000*58 
59.229          GPS_NMEA_FROM_GPS    iGPS            $GPGGA,191746.000,4144.3520,N,06959.5683,W,2,10,0.94,3.3,M,-34.3,M,0000,0000*5E 
60.233          GPS_NMEA_FROM_GPS    iGPS            $GPGGA,191747.000,4144.3518,N,06959.5685,W,2,10,0.94,3.4,M,-34.3,M,0000,0000*55 
61.235          GPS_NMEA_FROM_GPS    iGPS            $GPGGA,191748.000,4144.3515,N,06959.5687,W,2,08,1.11,3.5,M,-34.3,M,0000,0000*51 
62.238          GPS_NMEA_FROM_GPS    iGPS            $GPGGA,191749.000,4144.3513,N,06959.5688,W,2,09,1.00,3.6,M,-34.3,M,0000,0000*5B 
63.141          GPS_NMEA_FROM_GPS    iGPS            $GPGGA,191750.000,4144.3510,N,06959.5690,W,2,09,1.00,3.8,M,-34.3,M,0000,0000*57 
64.143          GPS_NMEA_FROM_GPS    iGPS            $GPGGA,191751.000,4144.3508,N,06959.5691,W,2,09,1.00,3.9,M,-34.3,M,0000,0000*5F 
65.146          GPS_NMEA_FROM_GPS    iGPS            $GPGGA,191752.000,4144.3505,N,06959.5693,W,2,09,1.00,4.0,M,-34.3,M,0000,0000*5D 
66.148          GPS_NMEA_FROM_GPS    iGPS            $GPGGA,191753.000,4144.3502,N,06959.5694,W,2,09,1.00,4.0,M,-34.3,M,0000,0000*5C 
67.251          GPS_NMEA_FROM_GPS    iGPS            $GPGGA,191754.000,4144.3500,N,06959.5696,W,2,09,1.00,4.1,M,-34.3,M,0000,0000*5A 
68.254          GPS_NMEA_FROM_GPS    iGPS            $GPGGA,191755.000,4144.3497,N,06959.5697,W,2,09,1.00,4.1,M,-34.3,M,0000,0000*55 
69.257          GPS_NMEA_FROM_GPS    iGPS            $GPGGA,191756.000,4144.3495,N,06959.5698,W,2,09,1.00,4.1,M,-34.3,M,0000,0000*5B 
70.160          GPS_NMEA_FROM_GPS    iGPS            $GPGGA,191757.000,4144.3492,N,06959.5700,W,2,08,1.11,4.2,M,-34.3,M,0000,0000*5F 
71.263          GPS_NMEA_FROM_GPS    iGPS            $GPGGA,191758.000,4144.3489,N,06959.5701,W,2,09,1.00,4.2,M,-34.3,M,0000,0000*5A 
72.166          GPS_NMEA_FROM_GPS    iGPS            $GPGGA,191759.000,4144.3487,N,06959.5702,W,2,09,1.00,4.3,M,-34.3,M,0000,0000*57 
73.268          GPS_NMEA_FROM_GPS    iGPS            $GPGGA,191800.000,4144.3484,N,06959.5704,W,2,09,1.00,4.4,M,-34.3,M,0000,0000*56 
74.271          GPS_NMEA_FROM_GPS    iGPS            $GPGGA,191801.000,4144.3482,N,06959.5705,W,2,09,1.00,4.5,M,-34.3,M,0000,0000*51 
75.173          GPS_NMEA_FROM_GPS    iGPS            $GPGGA,191802.000,4144.3480,N,06959.5706,W,2,09,1.00,4.6,M,-34.3,M,0000,0000*50 
76.276          GPS_NMEA_FROM_GPS    iGPS            $GPRMC,191803.000,A,4144.3478,N,06959.5708,W,0.81,208.30,310321,,,D*7D 
77.178          GPS_NMEA_FROM_GPS    iGPS            $GPGGA,191804.000,4144.3476,N,06959.5709,W,2,09,1.00,4.7,M,-34.3,M,0000,0000*51 
78.181          GPS_NMEA_FROM_GPS    iGPS            $GPGGA,191805.000,4144.3474,N,06959.5710,W,2,09,1.00,4.7,M,-34.3,M,0000,0000*5A 
79.183          GPS_NMEA_FROM_GPS    iGPS            $GPGGA,191806.000,4144.3472,N,06959.5712,W,2,09,1.00,4.7,M,-34.3,M,0000,0000*5D 
80.286          GPS_NMEA_FROM_GPS    iGPS            $GPRMC,191807.000,A,4144.3471,N,06959.5713,W,0.75,212.33,310321,,,D*79 
81.188          GPS_NMEA_FROM_GPS    iGPS            $GPGGA,191808.000,4144.3469,N,06959.5714,W,2,09,1.00,4.8,M,-34.3,M,0000,0000*50 
82.191          GPS_NMEA_FROM_GPS    iGPS            $GPGGA,191809.000,4144.3467,N,06959.5716,W,2,09,1.00,4.9,M,-34.3,M,0000,0000*5C 
83.194          GPS_NMEA_FROM_GPS    iGPS            $GPGGA,191810.000,4144.3465,N,06959.5717,W,2,09,1.00,5.0,M,-34.3,M,0000,0000*5F 
84.197          GPS_NMEA_FROM_GPS    iGPS            $GPGGA,191811.000,4144.3463,N,06959.5719,W,2,09,1.00,5.1,M,-34.3,M,0000,0000*57 
85.199          GPS_NMEA_FROM_GPS    iGPS            $GPGGA,191812.000,4144.3461,N,06959.5720,W,2,08,1.11,5.1,M,-34.3,M,0000,0000*5D 
86.202          GPS_NMEA_FROM_GPS    iGPS            $GPGGA,191813.000,4144.3459,N,06959.5722,W,2,09,1.00,5.2,M,-34.3,M,0000,0000*57 
87.204          GPS_NMEA_FROM_GPS    iGPS            $GPGGA,191814.000,4144.3457,N,06959.5723,W,2,09,1.00,5.2,M,-34.3,M,0000,0000*5F 
88.207          GPS_NMEA_FROM_GPS    iGPS            $GPRMC,191815.000,A,4144.3455,N,06959.5725,W,0.67,211.71,310321,,,D*7F 
89.209          GPS_NMEA_FROM_GPS    iGPS            $GPGGA,191816.000,4144.3452,N,06959.5726,W,2,09,1.00,5.3,M,-34.3,M,0000,0000*5C 
90.212          GPS_NMEA_FROM_GPS    iGPS            $GPGGA,191817.000,4144.3450,N,06959.5728,W,2,09,1.00,5.4,M,-34.3,M,0000,0000*56 
91.215          GPS_NMEA_FROM_GPS    iGPS            $GPGGA,191818.000,4144.3448,N,06959.5729,W,2,09,1.00,5.4,M,-34.3,M,0000,0000*51 
92.218          GPS_NMEA_FROM_GPS    iGPS            $GPGGA,191819.000,4144.3447,N,06959.5729,W,2,09,1.03,5.5,M,-34.3,M,0000,0000*5D 
93.120          GPS_NMEA_FROM_GPS    iGPS            $GPGGA,191820.000,4144.3445,N,06959.5729,W,2,09,1.03,5.4,M,-34.3,M,0000,0000*54 
94.223          GPS_NMEA_FROM_GPS    iGPS            $GPGGA,191821.000,4144.3443,N,06959.5729,W,2,10,0.94,5.4,M,-34.3,M,0000,0000*54 
95.226          GPS_NMEA_FROM_GPS    iGPS            $GPGGA,191822.000,4144.3442,N,06959.5729,W,2,10,0.95,5.3,M,-34.3,M,0000,0000*50 
96.228          GPS_NMEA_FROM_GPS    iGPS            $GPRMC,191823.000,A,4144.3440,N,06959.5729,W,0.53,181.81,310321,,,D*70 
97.231          GPS_NMEA_FROM_GPS    iGPS            $GPGGA,191824.000,4144.3439,N,06959.5728,W,2,10,0.94,5.3,M,-34.3,M,0000,0000*5A 
98.234          GPS_NMEA_FROM_GPS    iGPS            $GPRMC,191825.000,A,4144.3436,N,06959.5727,W,0.60,166.31,310321,,,D*7B 
99.236          GPS_NMEA_FROM_GPS    iGPS            $GPGGA,191826.000,4144.3434,N,06959.5726,W,2,10,0.95,5.4,M,-34.3,M,0000,0000*5D 
100.238         GPS_NMEA_FROM_GPS    iGPS            $GPGGA,191827.000,4144.3433,N,06959.5725,W,2,10,0.94,5.4,M,-34.3,M,0000,0000*59 
101.241         GPS_NMEA_FROM_GPS    iGPS            $GPGGA,191828.000,4144.3431,N,06959.5723,W,2,10,0.94,5.4,M,-34.3,M,0000,0000*52 
102.244         GPS_NMEA_FROM_GPS    iGPS            $GPGGA,191829.000,4144.3429,N,06959.5721,W,2,10,0.95,5.2,M,-34.3,M,0000,0000*5F 
103.247         GPS_NMEA_FROM_GPS    iGPS            $GPGGA,191830.000,4144.3428,N,06959.5719,W,2,10,0.94,5.2,M,-34.3,M,0000,0000*5C 
104.249         GPS_NMEA_FROM_GPS    iGPS            $GPRMC,191831.000,A,4144.3426,N,06959.5717,W,0.61,129.78,310321,,,D*7B 
105.151         GPS_NMEA_FROM_GPS    iGPS            $GPGGA,191832.000,4144.3425,N,06959.5715,W,2,10,0.94,5.1,M,-34.3,M,0000,0000*5C 
106.154         GPS_NMEA_FROM_GPS    iGPS            $GPGGA,191833.000,4144.3423,N,06959.5714,W,2,10,0.94,5.1,M,-34.3,M,0000,0000*5A 
107.157         GPS_NMEA_FROM_GPS    iGPS            $GPGGA,191834.000,4144.3421,N,06959.5712,W,2,10,0.94,5.0,M,-34.3,M,0000,0000*58 
108.159         GPS_NMEA_FROM_GPS    iGPS            $GPGGA,191835.000,4144.3420,N,06959.5710,W,2,10,0.94,5.0,M,-34.3,M,0000,0000*5A 
109.162         GPS_NMEA_FROM_GPS    iGPS            $GPGGA,191836.000,4144.3418,N,06959.5709,W,2,09,1.00,5.1,M,-34.3,M,0000,0000*5F 
110.265         GPS_NMEA_FROM_GPS    iGPS            $GPGGA,191837.000,4144.3416,N,06959.5707,W,2,09,1.00,5.1,M,-34.3,M,0000,0000*5E 
111.167         GPS_NMEA_FROM_GPS    iGPS            $GPGGA,191838.000,4144.3415,N,06959.5706,W,2,10,0.94,5.3,M,-34.3,M,0000,0000*55 
112.170         GPS_NMEA_FROM_GPS    iGPS            $GPGGA,191839.000,4144.3413,N,06959.5704,W,2,10,0.94,5.3,M,-34.3,M,0000,0000*50 
113.273         GPS_NMEA_FROM_GPS    iGPS            $GPRMC,191840.000,A,4144.3412,N,06959.5702,W,0.61,130.70,310321,,,D*7E 
114.275         GPS_NMEA_FROM_GPS    iGPS            $GPRMC,191841.000,A,4144.3410,N,06959.5699,W,0.57,127.38,310321,,,D*71 
115.277         GPS_NMEA_FROM_GPS    iGPS            $GPRMC,191842.000,A,4144.3410,N,06959.5697,W,0.64,124.27,310321,,,D*71 
116.280         GPS_NMEA_FROM_GPS    iGPS            $GPGGA,191843.000,4144.3409,N,06959.5695,W,2,09,1.03,4.7,M,-34.3,M,0000,0000*5D 
117.182         GPS_NMEA_FROM_GPS    iGPS            $GPGGA,191844.000,4144.3408,N,06959.5692,W,2,09,1.00,4.5,M,-34.3,M,0000,0000*5D 
118.285         GPS_NMEA_FROM_GPS    iGPS            $GPRMC,191845.000,A,4144.3407,N,06959.5689,W,0.70,117.99,310321,,,D*7F 
119.288         GPS_NMEA_FROM_GPS    iGPS            $GPRMC,191846.000,A,4144.3406,N,06959.5687,W,0.68,117.53,310321,,,D*7C 
120.190         GPS_NMEA_FROM_GPS    iGPS            $GPGGA,191847.000,4144.3405,N,06959.5685,W,2,09,1.00,4.3,M,-34.3,M,0000,0000*53 
121.192         GPS_NMEA_FROM_GPS    iGPS            $GPGGA,191848.000,4144.3404,N,06959.5682,W,2,09,1.00,4.3,M,-34.3,M,0000,0000*5A 
122.295         GPS_NMEA_FROM_GPS    iGPS            $GPRMC,191849.000,A,4144.3403,N,06959.5680,W,0.79,116.80,310321,,,D*7E 
123.197         GPS_NMEA_FROM_GPS    iGPS            $GPGGA,191850.000,4144.3402,N,06959.5677,W,2,09,1.00,4.3,M,-34.3,M,0000,0000*5F 
124.200         GPS_NMEA_FROM_GPS    iGPS            $GPGGA,191851.000,4144.3401,N,06959.5674,W,2,09,1.00,4.3,M,-34.3,M,0000,0000*5E 
125.202         GPS_NMEA_FROM_GPS    iGPS            $GPGGA,191852.000,4144.3401,N,06959.5672,W,2,09,1.00,4.4,M,-34.3,M,0000,0000*5C 
126.205         GPS_NMEA_FROM_GPS    iGPS            $GPGGA,191853.000,4144.3400,N,06959.5669,W,2,09,1.00,4.4,M,-34.3,M,0000,0000*56 
127.207         GPS_NMEA_FROM_GPS    iGPS            $GPGGA,191854.000,4144.3399,N,06959.5667,W,2,09,1.00,4.4,M,-34.3,M,0000,0000*58 
128.210         GPS_NMEA_FROM_GPS    iGPS            $GPGGA,191855.000,4144.3398,N,06959.5665,W,2,09,1.03,4.4,M,-34.3,M,0000,0000*59 
129.213         GPS_NMEA_FROM_GPS    iGPS            $GPGGA,191856.000,4144.3397,N,06959.5663,W,2,10,0.94,4.4,M,-34.3,M,0000,0000*54 
130.215         GPS_NMEA_FROM_GPS    iGPS            $GPRMC,191857.000,A,4144.3396,N,06959.5661,W,0.74,116.18,310321,,,D*79 
131.218         GPS_NMEA_FROM_GPS    iGPS            $GPRMC,191858.000,A,4144.3395,N,06959.5658,W,0.69,116.76,310321,,,D*7B 
132.220         GPS_NMEA_FROM_GPS    iGPS            $GPGGA,191859.000,4144.3393,N,06959.5656,W,2,10,0.94,4.2,M,-34.3,M,0000,0000*5F 
133.222         GPS_NMEA_FROM_GPS    iGPS            $GPGGA,191900.000,4144.3392,N,06959.5653,W,2,10,0.94,4.1,M,-34.3,M,0000,0000*55 
134.225         GPS_NMEA_FROM_GPS    iGPS            $GPGGA,191901.000,4144.3391,N,06959.5651,W,2,10,0.94,4.0,M,-34.3,M,0000,0000*54 
135.227         GPS_NMEA_FROM_GPS    iGPS            $GPGGA,191902.000,4144.3390,N,06959.5648,W,2,10,0.94,3.9,M,-34.3,M,0000,0000*50 
136.230         GPS_NMEA_FROM_GPS    iGPS            $GPGGA,191903.000,4144.3389,N,06959.5646,W,2,10,0.94,3.9,M,-34.3,M,0000,0000*57 
137.132         GPS_NMEA_FROM_GPS    iGPS            $GPGGA,191904.000,4144.3388,N,06959.5643,W,2,10,0.94,3.9,M,-34.3,M,0000,0000*54 
138.235         GPS_NMEA_FROM_GPS    iGPS            $GPGGA,191905.000,4144.3387,N,06959.5641,W,2,10,0.94,3.9,M,-34.3,M,0000,0000*58 
139.238         GPS_NMEA_FROM_GPS    iGPS            $GPRMC,191906.000,A,4144.3387,N,06959.5638,W,0.67,111.32,310321,,,D*7D 
140.240         GPS_NMEA_FROM_GPS    iGPS            $GPGGA,191907.000,4144.3386,N,06959.5636,W,2,10,0.94,3.8,M,-34.3,M,0000,0000*5A 
141.143         GPS_NMEA_FROM_GPS    iGPS            $GPGGA,191908.000,4144.3386,N,06959.5634,W,2,10,0.94,3.8,M,-34.3,M,0000,0000*57 
142.246         GPS_NMEA_FROM_GPS    iGPS            $GPGGA,191909.000,4144.3385,N,06959.5631,W,2,10,0.94,3.8,M,-34.3,M,0000,0000*50 
143.248         GPS_NMEA_FROM_GPS    iGPS            $GPGGA,191910.000,4144.3384,N,06959.5629,W,2,10,0.94,3.8,M,-34.3,M,0000,0000*50 
144.251         GPS_NMEA_FROM_GPS    iGPS            $GPGGA,191911.000,4144.3383,N,06959.5626,W,2,10,0.94,3.8,M,-34.3,M,0000,0000*59 
145.253         GPS_NMEA_FROM_GPS    iGPS            $GPGGA,191912.000,4144.3382,N,06959.5624,W,2,10,0.94,3.9,M,-34.3,M,0000,0000*58 
146.256         GPS_NMEA_FROM_GPS    iGPS            $GPRMC,191913.000,A,4144.3381,N,06959.5622,W,0.73,115.28,310321,,,D*7E 
147.258         GPS_NMEA_FROM_GPS    iGPS            $GPGGA,191914.000,4144.3380,N,06959.5620,W,2,10,0.94,4.1,M,-34.3,M,0000,0000*57 
148.261         GPS_NMEA_FROM_GPS    iGPS            $GPGGA,191915.000,4144.3379,N,06959.5617,W,2,10,0.94,4.2,M,-34.3,M,0000,0000*57 
149.163         GPS_NMEA_FROM_GPS    iGPS            $GPGGA,191916.000,4144.3378,N,06959.5615,W,2,09,1.00,4.3,M,-34.3,M,0000,0000*52 
150.266         GPS_NMEA_FROM_GPS    iGPS            $GPRMC,191917.000,A,4144.3378,N,06959.5613,W,0.69,109.90,310321,,,D*7B 
151.168         GPS_NMEA_FROM_GPS    iGPS            $GPGGA,191918.000,4144.3378,N,06959.5610,W,2,10,0.94,4.4,M,-34.3,M,0000,0000*5A 
152.171         GPS_NMEA_FROM_GPS    iGPS            $GPGGA,191919.000,4144.3377,N,06959.5607,W,2,09,1.00,4.5,M,-34.3,M,0000,0000*57 
153.174         GPS_NMEA_FROM_GPS    iGPS            $GPGGA,191920.000,4144.3377,N,06959.5604,W,2,10,0.94,4.6,M,-34.3,M,0000,0000*59 
154.176         GPS_NMEA_FROM_GPS    iGPS            $GPGGA,191921.000,4144.3377,N,06959.5601,W,2,09,1.00,4.7,M,-34.3,M,0000,0000*58 
155.179         GPS_NMEA_FROM_GPS    iGPS            $GPGGA,191922.000,4144.3377,N,06959.5598,W,2,09,1.00,4.7,M,-34.3,M,0000,0000*58 
156.182         GPS_NMEA_FROM_GPS    iGPS            $GPGGA,191923.000,4144.3376,N,06959.5596,W,2,09,1.00,4.8,M,-34.3,M,0000,0000*59 
157.185         GPS_NMEA_FROM_GPS    iGPS            $GPGGA,191924.000,4144.3376,N,06959.5593,W,2,09,1.00,4.9,M,-34.3,M,0000,0000*5A 
158.288         GPS_NMEA_FROM_GPS    iGPS            $GPRMC,191925.000,A,4144.3376,N,06959.5590,W,0.76,95.77,310321,,,D*4F 
159.190         GPS_NMEA_FROM_GPS    iGPS            $GPGGA,191926.000,4144.3375,N,06959.5587,W,2,09,1.00,4.9,M,-34.3,M,0000,0000*5E 
160.193         GPS_NMEA_FROM_GPS    iGPS            $GPGGA,191927.000,4144.3375,N,06959.5584,W,2,09,1.00,4.9,M,-34.3,M,0000,0000*5C 
161.195         GPS_NMEA_FROM_GPS    iGPS            $GPGGA,191928.000,4144.3374,N,06959.5580,W,2,09,1.00,4.9,M,-34.3,M,0000,0000*56 
162.198         GPS_NMEA_FROM_GPS    iGPS            $GPGGA,191929.000,4144.3374,N,06959.5577,W,2,10,0.94,5.0,M,-34.3,M,0000,0000*53 
163.200         GPS_NMEA_FROM_GPS    iGPS            $GPGGA,191930.000,4144.3374,N,06959.5574,W,2,10,0.94,5.1,M,-34.3,M,0000,0000*59 
164.203         GPS_NMEA_FROM_GPS    iGPS            $GPGGA,191931.000,4144.3374,N,06959.5571,W,2,10,0.94,5.1,M,-34.3,M,0000,0000*5D 
165.205         GPS_NMEA_FROM_GPS    iGPS            $GPGGA,191932.000,4144.3373,N,06959.5568,W,2,10,0.94,5.2,M,-34.3,M,0000,0000*52 
166.208         GPS_NMEA_FROM_GPS    iGPS            $GPGGA,191933.000,4144.3373,N,06959.5565,W,2,10,0.94,5.2,M,-34.3,M,0000,0000*5E 
167.211         GPS_NMEA_FROM_GPS    iGPS            $GPRMC,191934.000,A,4144.3373,N,06959.5562,W,0.72,96.61,310321,,,D*47 
168.213         GPS_NMEA_FROM_GPS    iGPS            $GPGGA,191935.000,4144.3372,N,06959.5559,W,2,10,0.94,5.4,M,-34.3,M,0000,0000*50 
169.215         GPS_NMEA_FROM_GPS    iGPS            $GPGGA,191936.000,4144.3372,N,06959.5556,W,2,10,0.94,5.4,M,-34.3,M,0000,0000*5C 
170.218         GPS_NMEA_FROM_GPS    iGPS            $GPGGA,191937.000,4144.3372,N,06959.5554,W,2,10,0.94,5.5,M,-34.3,M,0000,0000*5E 
171.121         GPS_NMEA_FROM_GPS    iGPS            $GPGGA,191938.000,4144.3372,N,06959.5551,W,2,09,1.00,5.5,M,-34.3,M,0000,0000*50 
172.223         GPS_NMEA_FROM_GPS    iGPS            $GPRMC,191939.000,A,4144.3372,N,06959.5548,W,0.77,93.35,310321,,,D*42 
173.226         GPS_NMEA_FROM_GPS    iGPS            $GPRMC,191940.000,A,4144.3372,N,06959.5545,W,0.77,92.42,310321,,,D*40 
174.228         GPS_NMEA_FROM_GPS    iGPS            $GPRMC,191941.000,A,4144.3372,N,06959.5542,W,0.77,91.44,310321,,,D*43 
175.130         GPS_NMEA_FROM_GPS    iGPS            $GPGGA,191942.000,4144.3372,N,06959.5539,W,2,10,0.94,5.7,M,-34.3,M,0000,0000*55 
176.233         GPS_NMEA_FROM_GPS    iGPS            $GPGGA,191943.000,4144.3372,N,06959.5536,W,2,10,0.94,5.8,M,-34.3,M,0000,0000*54 
177.235         GPS_NMEA_FROM_GPS    iGPS            $GPGGA,191944.000,4144.3372,N,06959.5533,W,2,10,0.94,5.8,M,-34.3,M,0000,0000*56 
178.238         GPS_NMEA_FROM_GPS    iGPS            $GPRMC,191945.000,A,4144.3372,N,06959.5530,W,0.79,89.82,310321,,,D*4F 
179.241         GPS_NMEA_FROM_GPS    iGPS            $GPRMC,191946.000,A,4144.3372,N,06959.5526,W,0.79,90.17,310321,,,D*4F 
180.243         GPS_NMEA_FROM_GPS    iGPS            $GPRMC,191947.000,A,4144.3372,N,06959.5523,W,0.77,90.40,310321,,,D*47 
181.146         GPS_NMEA_FROM_GPS    iGPS            $GPGGA,191948.000,4144.3371,N,06959.5521,W,2,09,1.00,6.1,M,-34.3,M,0000,0000*54 
182.250         GPS_NMEA_FROM_GPS    iGPS            $GPRMC,191949.000,A,4144.3371,N,06959.5518,W,0.73,91.24,310321,,,D*45 
183.152         GPS_NMEA_FROM_GPS    iGPS            $GPGGA,191950.000,4144.3371,N,06959.5516,W,2,09,1.00,6.2,M,-34.3,M,0000,0000*5A 
184.255         GPS_NMEA_FROM_GPS    iGPS            $GPRMC,191951.000,A,4144.3371,N,06959.5513,W,0.72,92.53,310321,,,D*45 
185.257         GPS_NMEA_FROM_GPS    iGPS            $GPGGA,191952.000,4144.3371,N,06959.5511,W,2,09,1.00,6.3,M,-34.3,M,0000,0000*5E 
186.260         GPS_NMEA_FROM_GPS    iGPS            $GPGGA,191953.000,4144.3371,N,06959.5508,W,2,09,1.00,6.3,M,-34.3,M,0000,0000*57 
187.263         GPS_NMEA_FROM_GPS    iGPS            $GPRMC,191954.000,A,4144.3371,N,06959.5505,W,0.72,93.38,310321,,,D*4B 
188.165         GPS_NMEA_FROM_GPS    iGPS            $GPGGA,191955.000,4144.3370,N,06959.5503,W,2,09,1.00,6.4,M,-34.3,M,0000,0000*5C 
189.268         GPS_NMEA_FROM_GPS    iGPS            $GPRMC,191956.000,A,4144.3370,N,06959.5500,W,0.72,93.29,310321,,,D*4D 
190.271         GPS_NMEA_FROM_GPS    iGPS            $GPRMC,191957.000,A,4144.3370,N,06959.5498,W,0.70,93.06,310321,,,D*43 
191.273         GPS_NMEA_FROM_GPS    iGPS            $GPRMC,191958.000,A,4144.3370,N,06959.5495,W,0.72,92.41,310321,,,D*41 
192.175         GPS_NMEA_FROM_GPS    iGPS            $GPGGA,191959.000,4144.3370,N,06959.5492,W,2,10,0.94,6.6,M,-34.3,M,0000,0000*5F 
193.177         GPS_NMEA_FROM_GPS    iGPS            $GPGGA,192000.000,4144.3370,N,06959.5489,W,2,10,0.94,6.7,M,-34.3,M,0000,0000*52 
194.180         GPS_NMEA_FROM_GPS    iGPS            $GPGGA,192001.000,4144.3370,N,06959.5486,W,2,10,0.94,6.8,M,-34.3,M,0000,0000*53 
195.182         GPS_NMEA_FROM_GPS    iGPS            $GPGGA,192002.000,4144.3370,N,06959.5483,W,2,10,0.94,6.8,M,-34.3,M,0000,0000*55 
196.185         GPS_NMEA_FROM_GPS    iGPS            $GPGGA,192003.000,4144.3370,N,06959.5481,W,2,10,0.94,6.9,M,-34.3,M,0000,0000*57 
197.187         GPS_NMEA_FROM_GPS    iGPS            $GPGGA,192004.000,4144.3370,N,06959.5478,W,2,10,0.94,6.9,M,-34.3,M,0000,0000*56 
198.190         GPS_NMEA_FROM_GPS    iGPS            $GPGGA,192005.000,4144.3371,N,06959.5475,W,2,10,0.94,6.9,M,-34.3,M,0000,0000*5B 
199.192         GPS_NMEA_FROM_GPS    iGPS            $GPGGA,192006.000,4144.3371,N,06959.5472,W,2,10,0.94,6.9,M,-34.3,M,0000,0000*5F 
200.195         GPS_NMEA_FROM_GPS    iGPS            $GPGGA,192007.000,4144.3371,N,06959.5469,W,2,09,1.00,7.0,M,-34.3,M,0000,0000*58 
201.198         GPS_NMEA_FROM_GPS    iGPS            $GPGGA,192008.000,4144.3371,N,06959.5466,W,2,09,1.00,7.0,M,-34.3,M,0000,0000*58 
202.200         GPS_NMEA_FROM_GPS    iGPS            $GPGGA,192009.000,4144.3371,N,06959.5463,W,2,09,1.00,7.1,M,-34.3,M,0000,0000*5D 
203.203         GPS_NMEA_FROM_GPS    iGPS            $GPGGA,192010.000,4144.3371,N,06959.5461,W,2,09,1.00,7.1,M,-34.3,M,0000,0000*57 
204.205         GPS_NMEA_FROM_GPS    iGPS            $GPRMC,192011.000,A,4144.3371,N,06959.5458,W,0.77,89.38,310321,,,D*47 
205.208         GPS_NMEA_FROM_GPS    iGPS            $GPGGA,192012.000,4144.3371,N,06959.5455,W,2,09,1.00,7.1,M,-34.3,M,0000,0000*52 
206.210         GPS_NMEA_FROM_GPS    iGPS            $GPGGA,192013.000,4144.3371,N,06959.5452,W,2,09,1.00,7.1,M,-34.3,M,0000,0000*54 
207.213         GPS_NMEA_FROM_GPS    iGPS            $GPGGA,192014.000,4144.3371,N,06959.5450,W,2,09,1.00,7.2,M,-34.3,M,0000,0000*52 
208.215         GPS_NMEA_FROM_GPS    iGPS            $GPGGA,192015.000,4144.3371,N,06959.5447,W,2,10,0.94,7.2,M,-34.3,M,0000,0000*51 
209.218         GPS_NMEA_FROM_GPS    iGPS            $GPRMC,192016.000,A,4144.3371,N,06959.5444,W,0.73,91.58,310321,,,D*46 
210.220         GPS_NMEA_FROM_GPS    iGPS            $GPGGA,192017.000,4144.3371,N,06959.5441,W,2,09,1.00,7.3,M,-34.3,M,0000,0000*50 
211.123         GPS_NMEA_FROM_GPS    iGPS            $GPGGA,192018.000,4144.3371,N,06959.5439,W,2,09,1.00,7.4,M,-34.3,M,0000,0000*57 
212.225         GPS_NMEA_FROM_GPS    iGPS            $GPGGA,192019.000,4144.3371,N,06959.5436,W,2,09,1.00,7.4,M,-34.3,M,0000,0000*59 
213.127         GPS_NMEA_FROM_GPS    iGPS            $GPGGA,192020.000,4144.3371,N,06959.5434,W,2,09,1.00,7.4,M,-34.3,M,0000,0000*51 
214.130         GPS_NMEA_FROM_GPS    iGPS            $GPGGA,192021.000,4144.3370,N,06959.5430,W,2,09,1.00,7.5,M,-34.3,M,0000,0000*54 
215.132         GPS_NMEA_FROM_GPS    iGPS            $GPGGA,192022.000,4144.3370,N,06959.5428,W,2,09,1.00,7.5,M,-34.3,M,0000,0000*5E 
216.235         GPS_NMEA_FROM_GPS    iGPS            $GPGGA,192023.000,4144.3370,N,06959.5425,W,2,10,0.94,7.5,M,-34.3,M,0000,0000*56 
217.137         GPS_NMEA_FROM_GPS    iGPS            $GPGGA,192024.000,4144.3370,N,06959.5422,W,2,10,0.94,7.6,M,-34.3,M,0000,0000*55 
218.240         GPS_NMEA_FROM_GPS    iGPS            $GPGGA,192025.000,4144.3370,N,06959.5419,W,2,10,0.94,7.6,M,-34.3,M,0000,0000*5C 
219.243         GPS_NMEA_FROM_GPS    iGPS            $GPRMC,192026.000,A,4144.3371,N,06959.5416,W,0.74,90.12,310321,,,D*4A 
220.245         GPS_NMEA_FROM_GPS    iGPS            $GPGGA,192027.000,4144.3371,N,06959.5413,W,2,10,0.94,7.7,M,-34.3,M,0000,0000*54 
221.248         GPS_NMEA_FROM_GPS    iGPS            $GPGGA,192028.000,4144.3371,N,06959.5410,W,2,10,0.94,7.8,M,-34.3,M,0000,0000*57 
222.251         GPS_NMEA_FROM_GPS    iGPS            $GPGGA,192029.000,4144.3371,N,06959.5407,W,2,10,0.94,7.8,M,-34.3,M,0000,0000*50 
223.254         GPS_NMEA_FROM_GPS    iGPS            $GPGGA,192030.000,4144.3371,N,06959.5404,W,2,10,0.94,7.9,M,-34.3,M,0000,0000*5A 
224.257         GPS_NMEA_FROM_GPS    iGPS            $GPGGA,192031.000,4144.3371,N,06959.5401,W,2,10,0.94,7.9,M,-34.3,M,0000,0000*5E 
225.259         GPS_NMEA_FROM_GPS    iGPS            $GPGGA,192032.000,4144.3371,N,06959.5398,W,2,10,0.94,8.0,M,-34.3,M,0000,0000*5C 
226.262         GPS_NMEA_FROM_GPS    iGPS            $GPGGA,192033.000,4144.3371,N,06959.5395,W,2,09,1.00,8.0,M,-34.3,M,0000,0000*54 
227.265         GPS_NMEA_FROM_GPS    iGPS            $GPRMC,192034.000,A,4144.3371,N,06959.5392,W,0.75,88.86,310321,,,D*47 
228.267         GPS_NMEA_FROM_GPS    iGPS            $GPRMC,192035.000,A,4144.3371,N,06959.5389,W,0.77,89.20,310321,,,D*43 
229.270         GPS_NMEA_FROM_GPS    iGPS            $GPRMC,192036.000,A,4144.3371,N,06959.5386,W,0.76,89.36,310321,,,D*49 
230.272         GPS_NMEA_FROM_GPS    iGPS            $GPRMC,192037.000,A,4144.3371,N,06959.5383,W,0.75,89.36,310321,,,D*4E 
231.274         GPS_NMEA_FROM_GPS    iGPS            $GPRMC,192038.000,A,4144.3371,N,06959.5380,W,0.74,89.31,310321,,,D*44 
232.176         GPS_NMEA_FROM_GPS    iGPS            $GPGGA,192039.000,4144.3371,N,06959.5377,W,2,10,0.94,8.3,M,-34.3,M,0000,0000*55 
233.279         GPS_NMEA_FROM_GPS    iGPS            $GPRMC,192040.000,A,4144.3371,N,06959.5374,W,0.74,89.01,310321,,,D*43 
234.182         GPS_NMEA_FROM_GPS    iGPS            $GPRMC,192041.000,A,4144.3372,N,06959.5371,W,0.72,88.47,310321,,,D*41 
235.184         GPS_NMEA_FROM_GPS    iGPS            $GPGGA,192042.000,4144.3372,N,06959.5367,W,2,10,0.94,8.5,M,-34.3,M,0000,0000*5D 
236.187         GPS_NMEA_FROM_GPS    iGPS            $GPRMC,192043.000,A,4144.3372,N,06959.5364,W,0.76,86.91,310321,,,D*46 
237.189         GPS_NMEA_FROM_GPS    iGPS            $GPRMC,192044.000,A,4144.3372,N,06959.5361,W,0.69,85.29,310321,,,D*4A 
238.192         GPS_NMEA_FROM_GPS    iGPS            $GPRMC,192045.000,A,4144.3372,N,06959.5358,W,0.69,84.59,310321,,,D*47 
239.194         GPS_NMEA_FROM_GPS    iGPS            $GPGGA,192046.000,4144.3373,N,06959.5355,W,2,10,0.94,8.7,M,-34.3,M,0000,0000*5B 
240.197         GPS_NMEA_FROM_GPS    iGPS            $GPGGA,192047.000,4144.3373,N,06959.5352,W,2,10,0.94,8.7,M,-34.3,M,0000,0000*5D 
241.199         GPS_NMEA_FROM_GPS    iGPS            $GPGGA,192048.000,4144.3374,N,06959.5349,W,2,10,0.94,8.7,M,-34.3,M,0000,0000*5F 
242.302         GPS_NMEA_FROM_GPS    iGPS            $GPRMC,192049.000,A,4144.3375,N,06959.5346,W,0.75,78.47,310321,,,D*42 
243.204         GPS_NMEA_FROM_GPS    iGPS            $GPGGA,192050.000,4144.3376,N,06959.5343,W,2,10,0.94,8.6,M,-34.3,M,0000,0000*5F 
244.207         GPS_NMEA_FROM_GPS    iGPS            $GPGGA,192051.000,4144.3377,N,06959.5340,W,2,10,0.94,8.5,M,-34.3,M,0000,0000*5F 
245.209         GPS_NMEA_FROM_GPS    iGPS            $GPGGA,192052.000,4144.3377,N,06959.5338,W,2,10,0.94,8.4,M,-34.3,M,0000,0000*52 
246.213         GPS_NMEA_FROM_GPS    iGPS            $GPGGA,192053.000,4144.3378,N,06959.5335,W,2,10,0.94,8.3,M,-34.3,M,0000,0000*56 
247.215         GPS_NMEA_FROM_GPS    iGPS            $GPGGA,192054.000,4144.3379,N,06959.5332,W,2,10,0.94,8.3,M,-34.3,M,0000,0000*57 
248.217         GPS_NMEA_FROM_GPS    iGPS            $GPGGA,192055.000,4144.3379,N,06959.5329,W,2,10,0.94,8.2,M,-34.3,M,0000,0000*5D 
249.220         GPS_NMEA_FROM_GPS    iGPS            $GPGGA,192056.000,4144.3380,N,06959.5326,W,2,10,0.94,8.2,M,-34.3,M,0000,0000*57 
250.223         GPS_NMEA_FROM_GPS    iGPS            $GPGGA,192057.000,4144.3380,N,06959.5323,W,2,10,0.94,8.1,M,-34.3,M,0000,0000*50 
251.226         GPS_NMEA_FROM_GPS    iGPS            $GPGGA,192058.000,4144.3381,N,06959.5321,W,2,10,0.94,8.1,M,-34.3,M,0000,0000*5C 
252.228         GPS_NMEA_FROM_GPS    iGPS            $GPGGA,192059.000,4144.3382,N,06959.5318,W,2,10,0.94,8.2,M,-34.3,M,0000,0000*57 
253.230         GPS_NMEA_FROM_GPS    iGPS            $GPRMC,192100.000,A,4144.3382,N,06959.5316,W,0.76,76.72,310321,,,D*48 
254.233         GPS_NMEA_FROM_GPS    iGPS            $GPGGA,192101.000,4144.3383,N,06959.5313,W,2,10,0.94,8.2,M,-34.3,M,0000,0000*51 
255.235         GPS_NMEA_FROM_GPS    iGPS            $GPRMC,192102.000,A,4144.3383,N,06959.5310,W,0.75,77.52,310321,,,D*4D 
256.237         GPS_NMEA_FROM_GPS    iGPS            $GPGGA,192103.000,4144.3384,N,06959.5307,W,2,10,0.94,8.1,M,-34.3,M,0000,0000*52 
257.140         GPS_NMEA_FROM_GPS    iGPS            $GPGGA,192104.000,4144.3384,N,06959.5304,W,2,10,0.94,8.1,M,-34.3,M,0000,0000*56 
258.143         GPS_NMEA_FROM_GPS    iGPS            $GPGGA,192105.000,4144.3384,N,06959.5301,W,2,10,0.94,8.0,M,-34.3,M,0000,0000*53 
259.246         GPS_NMEA_FROM_GPS    iGPS            $GPGGA,192106.000,4144.3385,N,06959.5298,W,2,10,0.94,8.0,M,-34.3,M,0000,0000*50 
260.249         GPS_NMEA_FROM_GPS    iGPS            $GPRMC,192107.000,A,4144.3386,N,06959.5296,W,0.71,76.88,310321,,,D*40 
261.251         GPS_NMEA_FROM_GPS    iGPS            $GPGGA,192108.000,4144.3386,N,06959.5293,W,2,10,0.94,7.9,M,-34.3,M,0000,0000*50 
262.253         GPS_NMEA_FROM_GPS    iGPS            $GPGGA,192109.000,4144.3387,N,06959.5290,W,2,10,0.94,7.8,M,-34.3,M,0000,0000*52 
263.256         GPS_NMEA_FROM_GPS    iGPS            $GPRMC,192110.000,A,4144.3388,N,06959.5288,W,0.71,72.98,310321,,,D*42 
264.158         GPS_NMEA_FROM_GPS    iGPS            $GPGGA,192111.000,4144.3389,N,06959.5285,W,2,10,0.94,7.7,M,-34.3,M,0000,0000*5E 
265.261         GPS_NMEA_FROM_GPS    iGPS            $GPRMC,192112.000,A,4144.3390,N,06959.5282,W,0.76,70.69,310321,,,D*48 
266.163         GPS_NMEA_FROM_GPS    iGPS            $GPGGA,192113.000,4144.3391,N,06959.5279,W,2,10,0.94,7.7,M,-34.3,M,0000,0000*56 
267.266         GPS_NMEA_FROM_GPS    iGPS            $GPRMC,192114.000,A,4144.3392,N,06959.5277,W,0.76,69.47,310321,,,D*42 
268.269         GPS_NMEA_FROM_GPS    iGPS            $GPRMC,192115.000,A,4144.3393,N,06959.5274,W,0.75,69.60,310321,,,D*47 
269.271         GPS_NMEA_FROM_GPS    iGPS            $GPRMC,192116.000,A,4144.3394,N,06959.5271,W,0.75,70.41,310321,,,D*4D 
270.273         GPS_NMEA_FROM_GPS    iGPS            $GPRMC,192117.000,A,4144.3395,N,06959.5268,W,0.78,71.09,310321,,,D*45 
271.175         GPS_NMEA_FROM_GPS    iGPS            $GPGGA,192118.000,4144.3395,N,06959.5265,W,2,10,0.94,7.5,M,-34.3,M,0000,0000*56 
272.278         GPS_NMEA_FROM_GPS    iGPS            $GPGGA,192119.000,4144.3396,N,06959.5262,W,2,10,0.94,7.4,M,-34.3,M,0000,0000*52 
273.281         GPS_NMEA_FROM_GPS    iGPS            $GPRMC,192120.000,A,4144.3397,N,06959.5259,W,0.72,73.87,310321,,,D*4F 
274.183         GPS_NMEA_FROM_GPS    iGPS            $GPGGA,192121.000,4144.3397,N,06959.5256,W,2,10,0.94,7.4,M,-34.3,M,0000,0000*5F 
275.185         GPS_NMEA_FROM_GPS    iGPS            $GPGGA,192122.000,4144.3398,N,06959.5253,W,2,10,0.94,7.3,M,-34.3,M,0000,0000*51 
276.188         GPS_NMEA_FROM_GPS    iGPS            $GPGGA,192123.000,4144.3398,N,06959.5251,W,2,10,0.94,7.3,M,-34.3,M,0000,0000*52 
277.190         GPS_NMEA_FROM_GPS    iGPS            $GPGGA,192124.000,4144.3399,N,06959.5248,W,2,10,0.94,7.2,M,-34.3,M,0000,0000*5D 
278.193         GPS_NMEA_FROM_GPS    iGPS            $GPGGA,192125.000,4144.3400,N,06959.5245,W,2,10,0.94,7.2,M,-34.3,M,0000,0000*56 
279.195         GPS_NMEA_FROM_GPS    iGPS            $GPGGA,192126.000,4144.3401,N,06959.5242,W,2,10,0.94,7.2,M,-34.3,M,0000,0000*53 
280.198         GPS_NMEA_FROM_GPS    iGPS            $GPGGA,192127.000,4144.3402,N,06959.5239,W,2,10,0.94,7.2,M,-34.3,M,0000,0000*5D 
281.200         GPS_NMEA_FROM_GPS    iGPS            $GPGGA,192128.000,4144.3403,N,06959.5236,W,2,10,0.94,7.2,M,-34.3,M,0000,0000*5C 
282.203         GPS_NMEA_FROM_GPS    iGPS            $GPGGA,192129.000,4144.3405,N,06959.5234,W,2,10,0.94,7.1,M,-34.3,M,0000,0000*5A 
283.206         GPS_NMEA_FROM_GPS    iGPS            $GPGGA,192130.000,4144.3406,N,06959.5231,W,2,10,0.94,7.1,M,-34.3,M,0000,0000*54 
284.208         GPS_NMEA_FROM_GPS    iGPS            $GPGGA,192131.000,4144.3407,N,06959.5229,W,2,10,0.94,7.0,M,-34.3,M,0000,0000*5C 
285.211         GPS_NMEA_FROM_GPS    iGPS            $GPGGA,192132.000,4144.3408,N,06959.5226,W,2,10,0.94,7.0,M,-34.3,M,0000,0000*5F 
286.213         GPS_NMEA_FROM_GPS    iGPS            $GPGGA,192133.000,4144.3410,N,06959.5224,W,2,10,0.94,7.0,M,-34.3,M,0000,0000*55 
287.216         GPS_NMEA_FROM_GPS    iGPS            $GPRMC,192134.000,A,4144.3411,N,06959.5221,W,0.74,64.51,310321,,,D*47 
288.218         GPS_NMEA_FROM_GPS    iGPS            $GPGGA,192135.000,4144.3412,N,06959.5219,W,2,10,0.94,6.9,M,-34.3,M,0000,0000*57 
289.221         GPS_NMEA_FROM_GPS    iGPS            $GPGGA,192136.000,4144.3412,N,06959.5216,W,2,10,0.94,6.9,M,-34.3,M,0000,0000*5B 
290.224         GPS_NMEA_FROM_GPS    iGPS            $GPGGA,192137.000,4144.3413,N,06959.5214,W,2,10,0.94,6.9,M,-34.3,M,0000,0000*59 
291.226         GPS_NMEA_FROM_GPS    iGPS            $GPGGA,192138.000,4144.3413,N,06959.5211,W,2,10,0.94,7.0,M,-34.3,M,0000,0000*5B 
292.229         GPS_NMEA_FROM_GPS    iGPS            $GPRMC,192139.000,A,4144.3414,N,06959.5208,W,0.73,72.01,310321,,,D*41 
293.231         GPS_NMEA_FROM_GPS    iGPS            $GPGGA,192140.000,4144.3414,N,06959.5206,W,2,10,0.94,7.1,M,-34.3,M,0000,0000*54 
294.234         GPS_NMEA_FROM_GPS    iGPS            $GPGGA,192141.000,4144.3414,N,06959.5203,W,2,10,0.94,7.1,M,-34.3,M,0000,0000*50 
295.236         GPS_NMEA_FROM_GPS    iGPS            $GPGGA,192142.000,4144.3415,N,06959.5201,W,2,10,0.94,7.1,M,-34.3,M,0000,0000*50 
296.239         GPS_NMEA_FROM_GPS    iGPS            $GPGGA,192143.000,4144.3415,N,06959.5198,W,2,10,0.94,7.1,M,-34.3,M,0000,0000*52 
297.141         GPS_NMEA_FROM_GPS    iGPS            $GPGGA,192144.000,4144.3416,N,06959.5196,W,2,10,0.94,7.1,M,-34.3,M,0000,0000*58 
298.244         GPS_NMEA_FROM_GPS    iGPS            $GPGGA,192145.000,4144.3416,N,06959.5193,W,2,10,0.94,7.0,M,-34.3,M,0000,0000*5D 
299.247         GPS_NMEA_FROM_GPS    iGPS            $GPRMC,192146.000,A,4144.3417,N,06959.5191,W,0.69,75.10,310321,,,D*45 
300.149         GPS_NMEA_FROM_GPS    iGPS            $GPGGA,192147.000,4144.3418,N,06959.5189,W,2,10,0.94,6.9,M,-34.3,M,0000,0000*52 
301.151         GPS_NMEA_FROM_GPS    iGPS            $GPGGA,192148.000,4144.3418,N,06959.5186,W,2,10,0.94,6.8,M,-34.3,M,0000,0000*53 
302.254         GPS_NMEA_FROM_GPS    iGPS            $GPRMC,192149.000,A,4144.3419,N,06959.5184,W,0.73,71.99,310321,,,D*4E 
303.157         GPS_NMEA_FROM_GPS    iGPS            $GPGGA,192150.000,4144.3420,N,06959.5181,W,2,10,0.94,6.7,M,-34.3,M,0000,0000*59 
304.259         GPS_NMEA_FROM_GPS    iGPS            $GPGGA,192151.000,4144.3421,N,06959.5179,W,2,10,0.94,6.7,M,-34.3,M,0000,0000*5E 
305.162         GPS_NMEA_FROM_GPS    iGPS            $GPGGA,192152.000,4144.3422,N,06959.5176,W,2,10,0.94,6.7,M,-34.3,M,0000,0000*51 
306.264         GPS_NMEA_FROM_GPS    iGPS            $GPGGA,192153.000,4144.3423,N,06959.5174,W,2,09,1.00,6.6,M,-34.3,M,0000,0000*56 
307.267         GPS_NMEA_FROM_GPS    iGPS            $GPRMC,192154.000,A,4144.3425,N,06959.5171,W,0.68,65.32,310321,,,D*49 
308.269         GPS_NMEA_FROM_GPS    iGPS            $GPGGA,192155.000,4144.3426,N,06959.5169,W,2,09,1.00,6.7,M,-34.3,M,0000,0000*58 
309.272         GPS_NMEA_FROM_GPS    iGPS            $GPRMC,192156.000,A,4144.3428,N,06959.5166,W,0.71,60.26,310321,,,D*48 
310.275         GPS_NMEA_FROM_GPS    iGPS            $GPRMC,192157.000,A,4144.3429,N,06959.5164,W,0.69,57.27,310321,,,D*46 
311.278         GPS_NMEA_FROM_GPS    iGPS            $GPRMC,192158.000,A,4144.3431,N,06959.5162,W,0.70,55.16,310321,,,D*4E 
312.180         GPS_NMEA_FROM_GPS    iGPS            $GPGGA,192159.000,4144.3432,N,06959.5159,W,2,09,1.00,6.6,M,-34.3,M,0000,0000*53 
313.182         GPS_NMEA_FROM_GPS    iGPS            $GPGGA,192200.000,4144.3434,N,06959.5157,W,2,09,1.00,6.5,M,-34.3,M,0000,0000*57 
314.285         GPS_NMEA_FROM_GPS    iGPS            $GPRMC,192201.000,A,4144.3435,N,06959.5155,W,0.67,49.31,310321,,,D*4F 
315.187         GPS_NMEA_FROM_GPS    iGPS            $GPGGA,192202.000,4144.3437,N,06959.5153,W,2,09,1.00,6.4,M,-34.3,M,0000,0000*53 
316.290         GPS_NMEA_FROM_GPS    iGPS            $GPRMC,192203.000,A,4144.3439,N,06959.5150,W,0.73,46.44,310321,,,D*4C 
317.192         GPS_NMEA_FROM_GPS    iGPS            $GPGGA,192204.000,4144.3440,N,06959.5149,W,2,09,1.00,6.4,M,-34.3,M,0000,0000*5E 
318.195         GPS_NMEA_FROM_GPS    iGPS            $GPRMC,192205.000,A,4144.3442,N,06959.5146,W,0.78,44.55,310321,,,D*48 
319.197         GPS_NMEA_FROM_GPS    iGPS            $GPGGA,192206.000,4144.3444,N,06959.5144,W,2,09,1.00,6.3,M,-34.3,M,0000,0000*52 
320.200         GPS_NMEA_FROM_GPS    iGPS            $GPGGA,192207.000,4144.3445,N,06959.5143,W,2,09,1.00,6.3,M,-34.3,M,0000,0000*55 
321.202         GPS_NMEA_FROM_GPS    iGPS            $GPGGA,192208.000,4144.3447,N,06959.5141,W,2,09,1.00,6.2,M,-34.3,M,0000,0000*5B 
322.205         GPS_NMEA_FROM_GPS    iGPS            $GPGGA,192209.000,4144.3449,N,06959.5139,W,2,09,1.00,6.2,M,-34.3,M,0000,0000*5B 
323.208         GPS_NMEA_FROM_GPS    iGPS            $GPGGA,192210.000,4144.3451,N,06959.5137,W,2,09,1.00,6.2,M,-34.3,M,0000,0000*54 
324.210         GPS_NMEA_FROM_GPS    iGPS            $GPGGA,192211.000,4144.3453,N,06959.5135,W,2,09,1.00,6.2,M,-34.3,M,0000,0000*55 
325.213         GPS_NMEA_FROM_GPS    iGPS            $GPGGA,192212.000,4144.3455,N,06959.5133,W,2,09,1.00,6.2,M,-34.3,M,0000,0000*56 
326.216         GPS_NMEA_FROM_GPS    iGPS            $GPGGA,192213.000,4144.3456,N,06959.5131,W,2,09,1.00,6.2,M,-34.3,M,0000,0000*56 
327.218         GPS_NMEA_FROM_GPS    iGPS            $GPGGA,192214.000,4144.3458,N,06959.5130,W,2,09,1.00,6.1,M,-34.3,M,0000,0000*5D 
328.221         GPS_NMEA_FROM_GPS    iGPS            $GPGGA,192215.000,4144.3460,N,06959.5128,W,2,09,1.00,6.1,M,-34.3,M,0000,0000*5E 
329.224         GPS_NMEA_FROM_GPS    iGPS            $GPGGA,192216.000,4144.3462,N,06959.5126,W,2,09,1.00,6.0,M,-34.3,M,0000,0000*50 
330.227         GPS_NMEA_FROM_GPS    iGPS            $GPGGA,192217.000,4144.3464,N,06959.5125,W,2,09,1.00,6.1,M,-34.3,M,0000,0000*55 
331.230         GPS_NMEA_FROM_GPS    iGPS            $GPGGA,192218.000,4144.3465,N,06959.5123,W,2,09,1.00,6.0,M,-34.3,M,0000,0000*5C 
332.233         GPS_NMEA_FROM_GPS    iGPS            $GPRMC,192219.000,A,4144.3467,N,06959.5122,W,0.78,37.05,310321,,,D*41 
333.235         GPS_NMEA_FROM_GPS    iGPS            $GPGGA,192220.000,4144.3469,N,06959.5121,W,2,09,1.00,6.0,M,-34.3,M,0000,0000*59 
334.238         GPS_NMEA_FROM_GPS    iGPS            $GPGGA,192221.000,4144.3470,N,06959.5119,W,2,09,1.00,5.9,M,-34.3,M,0000,0000*51 
335.240         GPS_NMEA_FROM_GPS    iGPS            $GPGGA,192222.000,4144.3472,N,06959.5118,W,2,09,1.00,5.9,M,-34.3,M,0000,0000*51 
336.243         GPS_NMEA_FROM_GPS    iGPS            $GPGGA,192223.000,4144.3474,N,06959.5117,W,2,09,1.00,5.9,M,-34.3,M,0000,0000*59 
337.246         GPS_NMEA_FROM_GPS    iGPS            $GPGGA,192224.000,4144.3475,N,06959.5116,W,2,09,1.00,5.9,M,-34.3,M,0000,0000*5E 
338.248         GPS_NMEA_FROM_GPS    iGPS            $GPGGA,192225.000,4144.3477,N,06959.5114,W,2,09,1.00,5.9,M,-34.3,M,0000,0000*5F 
339.251         GPS_NMEA_FROM_GPS    iGPS            $GPGGA,192226.000,4144.3479,N,06959.5113,W,2,09,1.00,5.9,M,-34.3,M,0000,0000*55 
340.253         GPS_NMEA_FROM_GPS    iGPS            $GPGGA,192227.000,4144.3481,N,06959.5111,W,2,09,1.00,5.9,M,-34.3,M,0000,0000*51 
341.156         GPS_NMEA_FROM_GPS    iGPS            $GPGGA,192228.000,4144.3483,N,06959.5109,W,2,09,1.00,5.8,M,-34.3,M,0000,0000*54 
342.158         GPS_NMEA_FROM_GPS    iGPS            $GPGGA,192229.000,4144.3485,N,06959.5108,W,2,09,1.00,5.8,M,-34.3,M,0000,0000*52 
343.161         GPS_NMEA_FROM_GPS    iGPS            $GPGGA,192230.000,4144.3486,N,06959.5106,W,2,09,1.00,5.8,M,-34.3,M,0000,0000*57 
344.164         GPS_NMEA_FROM_GPS    iGPS            $GPGGA,192231.000,4144.3488,N,06959.5105,W,2,09,1.00,5.8,M,-34.3,M,0000,0000*5B 
345.166         GPS_NMEA_FROM_GPS    iGPS            $GPGGA,192232.000,4144.3490,N,06959.5103,W,2,09,1.00,5.7,M,-34.3,M,0000,0000*58 
346.169         GPS_NMEA_FROM_GPS    iGPS            $GPGGA,192233.000,4144.3491,N,06959.5102,W,2,09,1.00,5.7,M,-34.3,M,0000,0000*59 
347.271         GPS_NMEA_FROM_GPS    iGPS            $GPRMC,192234.000,A,4144.3493,N,06959.5101,W,0.77,33.84,310321,,,D*46 
348.273         GPS_NMEA_FROM_GPS    iGPS            $GPGGA,192235.000,4144.3494,N,06959.5099,W,2,10,0.94,5.7,M,-34.3,M,0000,0000*5D 
349.176         GPS_NMEA_FROM_GPS    iGPS            $GPGGA,192236.000,4144.3496,N,06959.5097,W,2,10,0.94,5.7,M,-34.3,M,0000,0000*52 
350.278         GPS_NMEA_FROM_GPS    iGPS            $GPGGA,192237.000,4144.3498,N,06959.5096,W,2,10,0.94,5.7,M,-34.3,M,0000,0000*5C 
351.181         GPS_NMEA_FROM_GPS    iGPS            $GPGGA,192238.000,4144.3499,N,06959.5095,W,2,10,0.94,5.7,M,-34.3,M,0000,0000*51 
352.283         GPS_NMEA_FROM_GPS    iGPS            $GPRMC,192239.000,A,4144.3501,N,06959.5093,W,0.77,32.76,310321,,,D*47 
353.185         GPS_NMEA_FROM_GPS    iGPS            $GPGGA,192240.000,4144.3503,N,06959.5092,W,2,10,0.94,5.6,M,-34.3,M,0000,0000*5A 
354.288         GPS_NMEA_FROM_GPS    iGPS            $GPRMC,192241.000,A,4144.3504,N,06959.5091,W,0.75,32.50,310321,,,D*49 
355.291         GPS_NMEA_FROM_GPS    iGPS            $GPRMC,192242.000,A,4144.3506,N,06959.5089,W,0.76,32.70,310321,,,D*40 
356.193         GPS_NMEA_FROM_GPS    iGPS            $GPGGA,192243.000,4144.3507,N,06959.5088,W,2,09,1.00,5.6,M,-34.3,M,0000,0000*52 
357.195         GPS_NMEA_FROM_GPS    iGPS            $GPGGA,192244.000,4144.3509,N,06959.5087,W,2,10,0.94,5.5,M,-34.3,M,0000,0000*53 
358.198         GPS_NMEA_FROM_GPS    iGPS            $GPGGA,192245.000,4144.3511,N,06959.5085,W,2,10,0.94,5.6,M,-34.3,M,0000,0000*5A 
359.201         GPS_NMEA_FROM_GPS    iGPS            $GPGGA,192246.000,4144.3512,N,06959.5084,W,2,10,0.94,5.6,M,-34.3,M,0000,0000*5B 
360.203         GPS_NMEA_FROM_GPS    iGPS            $GPGGA,192247.000,4144.3514,N,06959.5082,W,2,10,0.94,5.5,M,-34.3,M,0000,0000*59 
361.207         GPS_NMEA_FROM_GPS    iGPS            $GPGGA,192248.000,4144.3516,N,06959.5081,W,2,10,0.94,5.5,M,-34.3,M,0000,0000*57 
362.208         GPS_NMEA_FROM_GPS    iGPS            $GPGGA,192249.000,4144.3518,N,06959.5080,W,2,09,1.00,5.5,M,-34.3,M,0000,0000*5D 
363.211         GPS_NMEA_FROM_GPS    iGPS            $GPGGA,192250.000,4144.3520,N,06959.5079,W,2,10,0.94,5.5,M,-34.3,M,0000,0000*5C 
364.214         GPS_NMEA_FROM_GPS    iGPS            $GPRMC,192251.000,A,4144.3521,N,06959.5077,W,0.78,31.90,310321,,,D*45 
365.216         GPS_NMEA_FROM_GPS    iGPS            $GPGGA,192252.000,4144.3523,N,06959.5076,W,2,09,1.00,5.5,M,-34.3,M,0000,0000*56 
366.219         GPS_NMEA_FROM_GPS    iGPS            $GPRMC,192253.000,A,4144.3525,N,06959.5075,W,0.74,30.91,310321,,,D*4D 
367.221         GPS_NMEA_FROM_GPS    iGPS            $GPRMC,192254.000,A,4144.3527,N,06959.5073,W,0.78,30.40,310321,,,D*4E 
368.223         GPS_NMEA_FROM_GPS    iGPS            $GPGGA,192255.000,4144.3529,N,06959.5072,W,2,09,1.00,5.5,M,-34.3,M,0000,0000*5F 
369.226         GPS_NMEA_FROM_GPS    iGPS            $GPGGA,192256.000,4144.3530,N,06959.5071,W,2,09,1.00,5.5,M,-34.3,M,0000,0000*57 
370.128         GPS_NMEA_FROM_GPS    iGPS            $GPGGA,192257.000,4144.3532,N,06959.5070,W,2,09,1.00,5.5,M,-34.3,M,0000,0000*55 
371.231         GPS_NMEA_FROM_GPS    iGPS            $GPGGA,192258.000,4144.3534,N,06959.5069,W,2,09,1.00,5.5,M,-34.3,M,0000,0000*54 
372.234         GPS_NMEA_FROM_GPS    iGPS            $GPRMC,192259.000,A,4144.3535,N,06959.5067,W,0.76,29.63,310321,,,D*42 
373.235         GPS_NMEA_FROM_GPS    iGPS            $GPGGA,192300.000,4144.3537,N,06959.5066,W,2,09,1.00,5.5,M,-34.3,M,0000,0000*54 
374.238         GPS_NMEA_FROM_GPS    iGPS            $GPRMC,192301.000,A,4144.3539,N,06959.5065,W,0.72,30.17,310321,,,D*4F 
375.241         GPS_NMEA_FROM_GPS    iGPS            $GPGGA,192302.000,4144.3541,N,06959.5063,W,2,09,1.00,5.5,M,-34.3,M,0000,0000*52 
376.243         GPS_NMEA_FROM_GPS    iGPS            $GPGGA,192303.000,4144.3542,N,06959.5062,W,2,09,1.00,5.5,M,-34.3,M,0000,0000*51 
377.246         GPS_NMEA_FROM_GPS    iGPS            $GPGGA,192304.000,4144.3544,N,06959.5061,W,2,09,1.00,5.4,M,-34.3,M,0000,0000*52 
378.248         GPS_NMEA_FROM_GPS    iGPS            $GPGGA,192305.000,4144.3546,N,06959.5060,W,2,10,0.94,5.4,M,-34.3,M,0000,0000*54 
379.151         GPS_NMEA_FROM_GPS    iGPS            $GPGGA,192306.000,4144.3547,N,06959.5059,W,2,10,0.94,5.4,M,-34.3,M,0000,0000*5C 
380.254         GPS_NMEA_FROM_GPS    iGPS            $GPGGA,192307.000,4144.3549,N,06959.5057,W,2,10,0.94,5.4,M,-34.3,M,0000,0000*5D 
381.256         GPS_NMEA_FROM_GPS    iGPS            $GPGGA,192308.000,4144.3551,N,06959.5056,W,2,09,1.00,5.4,M,-34.3,M,0000,0000*5E 
382.259         GPS_NMEA_FROM_GPS    iGPS            $GPRMC,192309.000,A,4144.3552,N,06959.5055,W,0.63,27.36,310321,,,D*4C 
383.161         GPS_NMEA_FROM_GPS    iGPS            $GPGGA,192310.000,4144.3554,N,06959.5054,W,2,09,1.00,5.4,M,-34.3,M,0000,0000*50 
384.163         GPS_NMEA_FROM_GPS    iGPS            $GPGGA,192311.000,4144.3556,N,06959.5053,W,2,09,1.00,5.5,M,-34.3,M,0000,0000*55 
385.166         GPS_NMEA_FROM_GPS    iGPS            $GPGGA,192312.000,4144.3558,N,06959.5053,W,2,09,1.03,5.5,M,-34.3,M,0000,0000*5B 
386.168         GPS_NMEA_FROM_GPS    iGPS            $GPGGA,192313.000,4144.3560,N,06959.5052,W,2,09,1.03,5.6,M,-34.3,M,0000,0000*53 
387.171         GPS_NMEA_FROM_GPS    iGPS            $GPGGA,192314.000,4144.3562,N,06959.5052,W,2,09,1.03,5.6,M,-34.3,M,0000,0000*56 
388.174         GPS_NMEA_FROM_GPS    iGPS            $GPRMC,192315.000,A,4144.3564,N,06959.5053,W,0.71,5.10,310321,,,D*75 
389.176         GPS_NMEA_FROM_GPS    iGPS            $GPGGA,192316.000,4144.3566,N,06959.5054,W,2,09,1.03,5.8,M,-34.3,M,0000,0000*58 
390.178         GPS_NMEA_FROM_GPS    iGPS            $GPGGA,192317.000,4144.3568,N,06959.5054,W,2,09,1.03,5.8,M,-34.3,M,0000,0000*57 
391.181         GPS_NMEA_FROM_GPS    iGPS            $GPGGA,192318.000,4144.3570,N,06959.5054,W,2,09,1.03,5.8,M,-34.3,M,0000,0000*51 
392.183         GPS_NMEA_FROM_GPS    iGPS            $GPGGA,192319.000,4144.3572,N,06959.5055,W,2,09,1.03,5.8,M,-34.3,M,0000,0000*53 
393.186         GPS_NMEA_FROM_GPS    iGPS            $GPRMC,192320.000,A,4144.3574,N,06959.5055,W,0.68,351.61,310321,,,D*78 
394.188         GPS_NMEA_FROM_GPS    iGPS            $GPGGA,192321.000,4144.3575,N,06959.5056,W,2,09,1.03,5.9,M,-34.3,M,0000,0000*5D 
395.191         GPS_NMEA_FROM_GPS    iGPS            $GPGGA,192322.000,4144.3577,N,06959.5057,W,2,09,1.00,6.0,M,-34.3,M,0000,0000*54 
396.193         GPS_NMEA_FROM_GPS    iGPS            $GPGGA,192323.000,4144.3579,N,06959.5057,W,2,09,1.00,6.0,M,-34.3,M,0000,0000*5B 
397.196         GPS_NMEA_FROM_GPS    iGPS            $GPGGA,192324.000,4144.3581,N,06959.5058,W,2,09,1.00,6.0,M,-34.3,M,0000,0000*54 
398.198         GPS_NMEA_FROM_GPS    iGPS            $GPGGA,192325.000,4144.3583,N,06959.5059,W,2,09,1.00,6.0,M,-34.3,M,0000,0000*56 
399.201         GPS_NMEA_FROM_GPS    iGPS            $GPGGA,192326.000,4144.3585,N,06959.5060,W,2,09,1.00,6.0,M,-34.3,M,0000,0000*59 
400.204         GPS_NMEA_FROM_GPS    iGPS            $GPGGA,192327.000,4144.3587,N,06959.5061,W,2,09,1.00,6.0,M,-34.3,M,0000,0000*5B 
401.206         GPS_NMEA_FROM_GPS    iGPS            $GPGGA,192328.000,4144.3589,N,06959.5062,W,2,09,1.00,6.0,M,-34.3,M,0000,0000*59 
402.209         GPS_NMEA_FROM_GPS    iGPS            $GPGGA,192329.000,4144.3591,N,06959.5062,W,2,09,1.00,6.0,M,-34.3,M,0000,0000*51 
403.211         GPS_NMEA_FROM_GPS    iGPS            $GPGGA,192330.000,4144.3593,N,06959.5063,W,2,09,1.00,5.9,M,-34.3,M,0000,0000*50 
404.214         GPS_NMEA_FROM_GPS    iGPS            $GPGGA,192331.000,4144.3595,N,06959.5064,W,2,09,1.00,6.0,M,-34.3,M,0000,0000*5A 
405.217         GPS_NMEA_FROM_GPS    iGPS            $GPGGA,192332.000,4144.3597,N,06959.5065,W,2,09,1.00,6.0,M,-34.3,M,0000,0000*5A 
406.220         GPS_NMEA_FROM_GPS    iGPS            $GPRMC,192333.000,A,4144.3599,N,06959.5066,W,0.75,337.63,310321,,,D*77 
407.122         GPS_NMEA_FROM_GPS    iGPS            $GPGGA,192334.000,4144.3601,N,06959.5067,W,2,09,1.00,5.9,M,-34.3,M,0000,0000*58 
408.124         GPS_NMEA_FROM_GPS    iGPS            $GPGGA,192335.000,4144.3603,N,06959.5068,W,2,09,1.00,5.9,M,-34.3,M,0000,0000*54 
409.127         GPS_NMEA_FROM_GPS    iGPS            $GPGGA,192336.000,4144.3605,N,06959.5069,W,2,09,1.00,5.9,M,-34.3,M,0000,0000*50 
410.230         GPS_NMEA_FROM_GPS    iGPS            $GPGGA,192337.000,4144.3607,N,06959.5071,W,2,09,1.00,5.9,M,-34.3,M,0000,0000*5A 
411.233         GPS_NMEA_FROM_GPS    iGPS            $GPRMC,192338.000,A,4144.3609,N,06959.5072,W,0.71,334.86,310321,,,D*7F 
412.235         GPS_NMEA_FROM_GPS    iGPS            $GPGGA,192339.000,4144.3610,N,06959.5073,W,2,09,1.00,5.9,M,-34.3,M,0000,0000*50 
413.238         GPS_NMEA_FROM_GPS    iGPS            $GPGGA,192340.000,4144.3612,N,06959.5075,W,2,09,1.00,5.9,M,-34.3,M,0000,0000*5A 
414.241         GPS_NMEA_FROM_GPS    iGPS            $GPRMC,192341.000,A,4144.3614,N,06959.5076,W,0.73,331.64,310321,,,D*72 
415.243         GPS_NMEA_FROM_GPS    iGPS            $GPGGA,192342.000,4144.3616,N,06959.5078,W,2,09,1.00,5.9,M,-34.3,M,0000,0000*51 
416.146         GPS_NMEA_FROM_GPS    iGPS            $GPGGA,192343.000,4144.3618,N,06959.5079,W,2,09,1.00,5.9,M,-34.3,M,0000,0000*5F 
417.248         GPS_NMEA_FROM_GPS    iGPS            $GPGGA,192344.000,4144.3619,N,06959.5081,W,2,09,1.00,6.0,M,-34.3,M,0000,0000*54 
418.251         GPS_NMEA_FROM_GPS    iGPS            $GPGGA,192345.000,4144.3621,N,06959.5082,W,2,09,1.00,5.9,M,-34.3,M,0000,0000*57 
419.253         GPS_NMEA_FROM_GPS    iGPS            $GPGGA,192346.000,4144.3624,N,06959.5083,W,2,09,1.00,5.9,M,-34.3,M,0000,0000*50 
420.256         GPS_NMEA_FROM_GPS    iGPS            $GPGGA,192347.000,4144.3625,N,06959.5084,W,2,09,1.00,5.8,M,-34.3,M,0000,0000*56 
421.158         GPS_NMEA_FROM_GPS    iGPS            $GPGGA,192348.000,4144.3627,N,06959.5085,W,2,09,1.00,5.8,M,-34.3,M,0000,0000*5A 
422.161         GPS_NMEA_FROM_GPS    iGPS            $GPGGA,192349.000,4144.3628,N,06959.5086,W,2,09,1.00,5.8,M,-34.3,M,0000,0000*57 
423.264         GPS_NMEA_FROM_GPS    iGPS            $GPRMC,192350.000,A,4144.3630,N,06959.5087,W,0.71,329.98,310321,,,D*72 
424.266         GPS_NMEA_FROM_GPS    iGPS            $GPRMC,192351.000,A,4144.3632,N,06959.5089,W,0.68,328.61,310321,,,D*70 
425.268         GPS_NMEA_FROM_GPS    iGPS            $GPGGA,192352.000,4144.3634,N,06959.5090,W,2,09,1.00,5.7,M,-34.3,M,0000,0000*58 
426.271         GPS_NMEA_FROM_GPS    iGPS            $GPGGA,192353.000,4144.3636,N,06959.5091,W,2,09,1.00,5.7,M,-34.3,M,0000,0000*5A 
427.173         GPS_NMEA_FROM_GPS    iGPS            $GPGGA,192354.000,4144.3637,N,06959.5092,W,2,09,1.00,5.6,M,-34.3,M,0000,0000*5E 
428.276         GPS_NMEA_FROM_GPS    iGPS            $GPGGA,192355.000,4144.3639,N,06959.5094,W,2,09,1.00,5.6,M,-34.3,M,0000,0000*57 
429.178         GPS_NMEA_FROM_GPS    iGPS            $GPGGA,192356.000,4144.3640,N,06959.5095,W,2,09,1.00,5.6,M,-34.3,M,0000,0000*5B 
430.181         GPS_NMEA_FROM_GPS    iGPS            $GPGGA,192357.000,4144.3641,N,06959.5097,W,2,09,1.00,5.5,M,-34.3,M,0000,0000*5A 
431.285         GPS_NMEA_FROM_GPS    iGPS            $GPRMC,192358.000,A,4144.3642,N,06959.5099,W,0.65,312.93,310321,,,D*76 
432.287         GPS_NMEA_FROM_GPS    iGPS            $GPRMC,192359.000,A,4144.3643,N,06959.5101,W,0.69,308.79,310321,,,D*75 
433.289         GPS_NMEA_FROM_GPS    iGPS            $GPRMC,192400.000,A,4144.3645,N,06959.5103,W,0.68,305.48,310321,,,D*74 
434.291         GPS_NMEA_FROM_GPS    iGPS            $GPRMC,192401.000,A,4144.3646,N,06959.5105,W,0.66,302.43,310321,,,D*72 
435.295         GPS_NMEA_FROM_GPS    iGPS            $GPRMC,192402.000,A,4144.3646,N,06959.5108,W,0.64,301.03,310321,,,D*79 
436.196         GPS_NMEA_FROM_GPS    iGPS            $GPGGA,192403.000,4144.3647,N,06959.5110,W,2,09,1.00,5.1,M,-34.3,M,0000,0000*50 
437.199         GPS_NMEA_FROM_GPS    iGPS            $GPGGA,192404.000,4144.3648,N,06959.5113,W,2,09,1.00,5.2,M,-34.3,M,0000,0000*58 
438.201         GPS_NMEA_FROM_GPS    iGPS            $GPGGA,192405.000,4144.3649,N,06959.5115,W,2,09,1.00,5.1,M,-34.3,M,0000,0000*5D 
439.204         GPS_NMEA_FROM_GPS    iGPS            $GPGGA,192406.000,4144.3650,N,06959.5118,W,2,09,1.00,5.1,M,-34.3,M,0000,0000*5B 
440.206         GPS_NMEA_FROM_GPS    iGPS            $GPGGA,192407.000,4144.3651,N,06959.5120,W,2,09,1.00,5.0,M,-34.3,M,0000,0000*51 
441.209         GPS_NMEA_FROM_GPS    iGPS            $GPGGA,192408.000,4144.3652,N,06959.5122,W,2,09,1.00,4.9,M,-34.3,M,0000,0000*57 
442.212         GPS_NMEA_FROM_GPS    iGPS            $GPGGA,192409.000,4144.3653,N,06959.5124,W,2,09,1.00,4.8,M,-34.3,M,0000,0000*50 
443.214         GPS_NMEA_FROM_GPS    iGPS            $GPGGA,192410.000,4144.3654,N,06959.5126,W,2,09,1.00,4.7,M,-34.3,M,0000,0000*52 
444.217         GPS_NMEA_FROM_GPS    iGPS            $GPGGA,192411.000,4144.3654,N,06959.5128,W,2,09,1.00,4.7,M,-34.3,M,0000,0000*5D 
445.220         GPS_NMEA_FROM_GPS    iGPS            $GPGGA,192412.000,4144.3655,N,06959.5131,W,2,09,1.03,4.6,M,-34.3,M,0000,0000*55 
446.223         GPS_NMEA_FROM_GPS    iGPS            $GPGGA,192413.000,4144.3655,N,06959.5134,W,2,09,1.00,4.6,M,-34.3,M,0000,0000*52 
447.225         GPS_NMEA_FROM_GPS    iGPS            $GPGGA,192414.000,4144.3656,N,06959.5137,W,2,09,1.00,4.6,M,-34.3,M,0000,0000*55 
448.228         GPS_NMEA_FROM_GPS    iGPS            $GPRMC,192415.000,A,4144.3657,N,06959.5139,W,0.72,287.25,310321,,,D*71 
449.231         GPS_NMEA_FROM_GPS    iGPS            $GPRMC,192416.000,A,4144.3657,N,06959.5142,W,0.78,287.72,310321,,,D*76 
450.233         GPS_NMEA_FROM_GPS    iGPS            $GPRMC,192417.000,A,4144.3658,N,06959.5144,W,0.74,289.96,310321,,,D*76 
