2.174           GPS_NMEA_FROM_GPS    iGPS            $GPGGA,175429.000,4144.3495,N,06959.5171,W,2,08,0.99,7.4,M,-34.3,M,0000,0000*5C 
3.176           GPS_NMEA_FROM_GPS    iGPS            $GPGGA,175430.000,4144.3495,N,06959.5171,W,2,08,0.99,7.4,M,-34.3,M,0000,0000*54 
4.179           GPS_NMEA_FROM_GPS    iGPS            $GPGGA,175431.000,4144.3494,N,06959.5172,W,2,08,0.99,7.3,M,-34.3,M,0000,0000*50 
5.181           GPS_NMEA_FROM_GPS    iGPS            $GPGGA,175432.000,4144.3494,N,06959.5172,W,2,08,0.99,7.2,M,-34.3,M,0000,0000*52 
6.284           GPS_NMEA_FROM_GPS    iGPS            $GPRMC,175433.000,A,4144.3494,N,06959.5172,W,0.01,144.88,220321,,,D*73 
7.287           GPS_NMEA_FROM_GPS    iGPS            $GPRMC,175434.000,A,4144.3494,N,06959.5172,W,0.01,238.16,220321,,,D*7B 
8.190           GPS_NMEA_FROM_GPS    iGPS            $GPGGA,175435.000,4144.3494,N,06959.5173,W,2,08,0.99,7.1,M,-34.3,M,0000,0000*57 
9.292           GPS_NMEA_FROM_GPS    iGPS            $GPRMC,175436.000,A,4144.3494,N,06959.5173,W,0.01,293.61,220321,,,D*79 
10.294          GPS_NMEA_FROM_GPS    iGPS            $GPRMC,175437.000,A,4144.3494,N,06959.5172,W,0.01,96.20,220321,,,D*4B 
11.196          GPS_NMEA_FROM_GPS    iGPS            $GPGGA,175438.000,4144.3495,N,06959.5173,W,2,07,1.05,6.7,M,-34.3,M,0000,0000*57 
11.196          GPS_NMEA_FROM_GPS    iGPS            $GPGGA,175438.000,4144.3495,N,06959.5173,W,2,07,1.05,6.7,M,-34.3,M,0000,0000*57 
12.199          GPS_NMEA_FROM_GPS    iGPS            $GPGGA,175439.000,4144.3495,N,06959.5174,W,2,07,1.05,6.6,M,-34.3,M,0000,0000*50 
12.199          GPS_NMEA_FROM_GPS    iGPS            $GPGGA,175439.000,4144.3495,N,06959.5174,W,2,07,1.05,6.6,M,-34.3,M,0000,0000*50 
13.103          GPS_NMEA_FROM_GPS    iGPS            $GPGGA,175440.000,4144.3495,N,06959.5175,W,2,07,1.05,6.4,M,-34.3,M,0000,0000*5D 
14.207          GPS_NMEA_FROM_GPS    iGPS            $GPGGA,175441.000,4144.3495,N,06959.5175,W,2,07,1.05,6.4,M,-34.3,M,0000,0000*5C 
15.109          GPS_NMEA_FROM_GPS    iGPS            $GPGGA,175442.000,4144.3495,N,06959.5175,W,2,07,1.05,6.4,M,-34.3,M,0000,0000*5F 
16.112          GPS_NMEA_FROM_GPS    iGPS            $GPGGA,175443.000,4144.3495,N,06959.5175,W,2,07,1.05,6.4,M,-34.3,M,0000,0000*5E 
17.115          GPS_NMEA_FROM_GPS    iGPS            $GPGGA,175444.000,4144.3495,N,06959.5175,W,2,07,1.05,6.4,M,-34.3,M,0000,0000*59 
18.117          GPS_NMEA_FROM_GPS    iGPS            $GPGGA,175445.000,4144.3495,N,06959.5175,W,2,07,1.05,6.4,M,-34.3,M,0000,0000*58 
19.120          GPS_NMEA_FROM_GPS    iGPS            $GPGGA,175446.000,4144.3495,N,06959.5175,W,2,07,1.05,6.4,M,-34.3,M,0000,0000*5B 
20.222          GPS_NMEA_FROM_GPS    iGPS            $GPRMC,175447.000,A,4144.3495,N,06959.5175,W,0.02,304.03,220321,,,D*70 
21.225          GPS_NMEA_FROM_GPS    iGPS            $GPRMC,175448.000,A,4144.3495,N,06959.5175,W,0.02,288.73,220321,,,D*7D 
22.227          GPS_NMEA_FROM_GPS    iGPS            $GPRMC,175449.000,A,4144.3495,N,06959.5175,W,0.02,179.80,220321,,,D*7D 
23.129          GPS_NMEA_FROM_GPS    iGPS            $GPGGA,175450.000,4144.3495,N,06959.5175,W,2,07,1.05,6.4,M,-34.3,M,0000,0000*5C 
23.129          GPS_NMEA_FROM_GPS    iGPS            $GPGGA,175450.000,4144.3495,N,06959.5175,W,2,07,1.05,6.4,M,-34.3,M,0000,0000*5C 
24.132          GPS_NMEA_FROM_GPS    iGPS            $GPGGA,175451.000,4144.3495,N,06959.5175,W,2,07,1.05,6.4,M,-34.3,M,0000,0000*5D 
25.134          GPS_NMEA_FROM_GPS    iGPS            $GPGGA,175452.000,4144.3495,N,06959.5175,W,2,07,1.05,6.4,M,-34.3,M,0000,0000*5E 
26.137          GPS_NMEA_FROM_GPS    iGPS            $GPGGA,175453.000,4144.3495,N,06959.5175,W,2,07,1.05,6.4,M,-34.3,M,0000,0000*5F 
27.139          GPS_NMEA_FROM_GPS    iGPS            $GPGGA,175454.000,4144.3495,N,06959.5175,W,2,07,1.05,6.4,M,-34.3,M,0000,0000*58 
28.242          GPS_NMEA_FROM_GPS    iGPS            $GPRMC,175455.000,A,4144.3495,N,06959.5175,W,0.05,259.78,220321,,,D*71 
28.242          GPS_NMEA_FROM_GPS    iGPS            $GPRMC,175455.000,A,4144.3495,N,06959.5175,W,0.05,259.78,220321,,,D*71 
29.145          GPS_NMEA_FROM_GPS    iGPS            $GPGGA,175456.000,4144.3495,N,06959.5175,W,2,07,1.05,6.4,M,-34.3,M,0000,0000*5A 
30.148          GPS_NMEA_FROM_GPS    iGPS            $GPGGA,175457.000,4144.3495,N,06959.5176,W,2,07,1.05,6.4,M,-34.3,M,0000,0000*58 
31.150          GPS_NMEA_FROM_GPS    iGPS            $GPGGA,175458.000,4144.3495,N,06959.5176,W,2,07,1.05,6.4,M,-34.3,M,0000,0000*57 
32.053          GPS_NMEA_FROM_GPS    iGPS            $GPGGA,175459.000,4144.3495,N,06959.5176,W,2,07,1.05,6.4,M,-34.3,M,0000,0000*56 
33.055          GPS_NMEA_FROM_GPS    iGPS            $GPGGA,175500.000,4144.3495,N,06959.5176,W,2,07,1.05,6.3,M,-34.3,M,0000,0000*5C 
34.058          GPS_NMEA_FROM_GPS    iGPS            $GPGGA,175501.000,4144.3495,N,06959.5176,W,2,07,1.05,6.4,M,-34.3,M,0000,0000*5A 
35.060          GPS_NMEA_FROM_GPS    iGPS            $GPGGA,175502.000,4144.3495,N,06959.5176,W,2,07,1.05,6.4,M,-34.3,M,0000,0000*59 
36.063          GPS_NMEA_FROM_GPS    iGPS            $GPRMC,175503.000,A,4144.3495,N,06959.5176,W,0.11,215.69,220321,,,D*7D 
36.966          GPS_NMEA_FROM_GPS    iGPS            $GPGGA,175504.000,4144.3495,N,06959.5176,W,2,07,1.05,6.3,M,-34.3,M,0000,0000*58 
38.170          GPS_NMEA_FROM_GPS    iGPS            $GPGGA,175505.000,4144.3495,N,06959.5176,W,2,07,1.05,6.3,M,-34.3,M,0000,0000*59 
39.172          GPS_NMEA_FROM_GPS    iGPS            $GPGGA,175506.000,4144.3495,N,06959.5176,W,2,07,1.05,6.3,M,-34.3,M,0000,0000*5A 
39.974          GPS_NMEA_FROM_GPS    iGPS            $GPGGA,175507.000,4144.3495,N,06959.5176,W,2,07,1.05,6.3,M,-34.3,M,0000,0000*5B 
41.078          GPS_NMEA_FROM_GPS    iGPS            $GPRMC,175508.000,A,4144.3495,N,06959.5176,W,0.08,215.51,220321,,,D*75 
42.080          GPS_NMEA_FROM_GPS    iGPS            $GPGGA,175509.000,4144.3495,N,06959.5176,W,2,07,1.05,6.3,M,-34.3,M,0000,0000*55 
43.083          GPS_NMEA_FROM_GPS    iGPS            $GPGGA,175510.000,4144.3495,N,06959.5176,W,2,07,1.05,6.3,M,-34.3,M,0000,0000*5D 
44.085          GPS_NMEA_FROM_GPS    iGPS            $GPGGA,175511.000,4144.3495,N,06959.5176,W,2,07,1.05,6.3,M,-34.3,M,0000,0000*5C 
45.088          GPS_NMEA_FROM_GPS    iGPS            $GPRMC,175512.000,A,4144.3495,N,06959.5176,W,0.03,270.58,220321,,,D*7F 
46.091          GPS_NMEA_FROM_GPS    iGPS            $GPRMC,175513.000,A,4144.3495,N,06959.5176,W,0.04,269.46,220321,,,D*7E 
47.093          GPS_NMEA_FROM_GPS    iGPS            $GPGGA,175514.000,4144.3495,N,06959.5176,W,2,07,1.05,6.3,M,-34.3,M,0000,0000*59 
48.097          GPS_NMEA_FROM_GPS    iGPS            $GPGGA,175515.000,4144.3495,N,06959.5176,W,2,07,1.05,6.3,M,-34.3,M,0000,0000*58 
49.100          GPS_NMEA_FROM_GPS    iGPS            $GPGGA,175516.000,4144.3495,N,06959.5176,W,2,07,1.05,6.3,M,-34.3,M,0000,0000*5B 
50.103          GPS_NMEA_FROM_GPS    iGPS            $GPGGA,175517.000,4144.3495,N,06959.5176,W,2,07,1.05,6.3,M,-34.3,M,0000,0000*5A 
51.005          GPS_NMEA_FROM_GPS    iGPS            $GPGGA,175518.000,4144.3494,N,06959.5176,W,2,07,1.05,6.3,M,-34.3,M,0000,0000*54 
52.108          GPS_NMEA_FROM_GPS    iGPS            $GPRMC,175519.000,A,4144.3494,N,06959.5176,W,0.27,220.57,220321,,,D*79 
53.011          GPS_NMEA_FROM_GPS    iGPS            $GPGGA,175520.000,4144.3494,N,06959.5176,W,2,07,1.06,6.3,M,-34.3,M,0000,0000*5C 
54.113          GPS_NMEA_FROM_GPS    iGPS            $GPGGA,175521.000,4144.3494,N,06959.5177,W,2,07,1.05,6.3,M,-34.3,M,0000,0000*5F 
55.016          GPS_NMEA_FROM_GPS    iGPS            $GPGGA,175522.000,4144.3493,N,06959.5178,W,2,07,1.06,6.3,M,-34.3,M,0000,0000*57 
56.119          GPS_NMEA_FROM_GPS    iGPS            $GPRMC,175523.000,A,4144.3492,N,06959.5179,W,0.42,218.83,220321,,,D*78 
57.020          GPS_NMEA_FROM_GPS    iGPS            $GPGGA,175524.000,4144.3491,N,06959.5180,W,2,07,1.05,6.3,M,-34.3,M,0000,0000*57 
58.023          GPS_NMEA_FROM_GPS    iGPS            $GPGGA,175525.000,4144.3490,N,06959.5181,W,2,07,1.04,6.3,M,-34.3,M,0000,0000*57 
59.027          GPS_NMEA_FROM_GPS    iGPS            $GPGGA,175526.000,4144.3488,N,06959.5183,W,2,07,1.04,6.2,M,-34.3,M,0000,0000*5E 
60.029          GPS_NMEA_FROM_GPS    iGPS            $GPGGA,175527.000,4144.3485,N,06959.5184,W,2,07,1.04,6.2,M,-34.3,M,0000,0000*55 
61.032          GPS_NMEA_FROM_GPS    iGPS            $GPGGA,175528.000,4144.3483,N,06959.5186,W,2,07,1.06,6.3,M,-34.3,M,0000,0000*5D 
62.035          GPS_NMEA_FROM_GPS    iGPS            $GPGGA,175529.000,4144.3480,N,06959.5187,W,2,07,1.05,6.4,M,-34.3,M,0000,0000*5A 
63.037          GPS_NMEA_FROM_GPS    iGPS            $GPGGA,175530.000,4144.3478,N,06959.5187,W,2,07,1.04,6.4,M,-34.3,M,0000,0000*54 
64.040          GPS_NMEA_FROM_GPS    iGPS            $GPGGA,175531.000,4144.3476,N,06959.5188,W,2,07,1.04,6.6,M,-34.3,M,0000,0000*56 
65.042          GPS_NMEA_FROM_GPS    iGPS            $GPGGA,175532.000,4144.3474,N,06959.5189,W,2,07,1.06,6.7,M,-34.3,M,0000,0000*55 
66.146          GPS_NMEA_FROM_GPS    iGPS            $GPRMC,175533.000,A,4144.3472,N,06959.5189,W,0.59,163.75,220321,,,D*74 
67.048          GPS_NMEA_FROM_GPS    iGPS            $GPGGA,175534.000,4144.3470,N,06959.5188,W,2,07,1.06,6.8,M,-34.3,M,0000,0000*59 
68.051          GPS_NMEA_FROM_GPS    iGPS            $GPGGA,175535.000,4144.3469,N,06959.5187,W,2,07,1.06,6.7,M,-34.3,M,0000,0000*50 
69.054          GPS_NMEA_FROM_GPS    iGPS            $GPGGA,175536.000,4144.3468,N,06959.5187,W,2,07,1.04,6.8,M,-34.3,M,0000,0000*5F 
70.056          GPS_NMEA_FROM_GPS    iGPS            $GPGGA,175537.000,4144.3466,N,06959.5186,W,2,07,1.04,6.8,M,-34.3,M,0000,0000*51 
71.059          GPS_NMEA_FROM_GPS    iGPS            $GPGGA,175538.000,4144.3465,N,06959.5184,W,2,07,1.05,6.8,M,-34.3,M,0000,0000*5E 
72.062          GPS_NMEA_FROM_GPS    iGPS            $GPGGA,175539.000,4144.3465,N,06959.5182,W,2,07,1.06,6.9,M,-34.3,M,0000,0000*5B 
73.064          GPS_NMEA_FROM_GPS    iGPS            $GPGGA,175540.000,4144.3465,N,06959.5180,W,2,07,1.06,7.0,M,-34.3,M,0000,0000*5F 
74.067          GPS_NMEA_FROM_GPS    iGPS            $GPRMC,175541.000,A,4144.3465,N,06959.5178,W,0.60,111.33,220321,,,D*74 
75.069          GPS_NMEA_FROM_GPS    iGPS            $GPGGA,175542.000,4144.3465,N,06959.5176,W,2,07,1.06,7.0,M,-34.3,M,0000,0000*54 
76.073          GPS_NMEA_FROM_GPS    iGPS            $GPRMC,175543.000,A,4144.3465,N,06959.5174,W,0.56,101.86,220321,,,D*70 
77.075          GPS_NMEA_FROM_GPS    iGPS            $GPRMC,175544.000,A,4144.3465,N,06959.5171,W,0.59,98.58,220321,,,D*4F 
78.078          GPS_NMEA_FROM_GPS    iGPS            $GPGGA,175545.000,4144.3465,N,06959.5169,W,2,07,1.06,7.3,M,-34.3,M,0000,0000*5E 
79.080          GPS_NMEA_FROM_GPS    iGPS            $GPRMC,175546.000,A,4144.3466,N,06959.5167,W,0.62,90.12,220321,,,D*47 
80.083          GPS_NMEA_FROM_GPS    iGPS            $GPRMC,175547.000,A,4144.3466,N,06959.5167,W,0.50,86.91,220321,,,D*4B 
81.085          GPS_NMEA_FROM_GPS    iGPS            $GPGGA,175548.000,4144.3466,N,06959.5166,W,2,07,1.06,7.3,M,-34.3,M,0000,0000*5F 
81.988          GPS_NMEA_FROM_GPS    iGPS            $GPGGA,175549.000,4144.3467,N,06959.5165,W,2,07,1.06,7.3,M,-34.3,M,0000,0000*5C 
83.091          GPS_NMEA_FROM_GPS    iGPS            $GPGGA,175550.000,4144.3467,N,06959.5165,W,2,07,1.06,7.6,M,-34.3,M,0000,0000*51 
83.993          GPS_NMEA_FROM_GPS    iGPS            $GPGGA,175551.000,4144.3468,N,06959.5164,W,2,07,1.06,7.6,M,-34.3,M,0000,0000*5E 
85.096          GPS_NMEA_FROM_GPS    iGPS            $GPGGA,175552.000,4144.3469,N,06959.5164,W,2,07,1.06,7.6,M,-34.3,M,0000,0000*5C 
86.100          GPS_NMEA_FROM_GPS    iGPS            $GPRMC,175553.000,A,4144.3470,N,06959.5163,W,0.43,37.83,220321,,,D*46 
87.103          GPS_NMEA_FROM_GPS    iGPS            $GPRMC,175554.000,A,4144.3472,N,06959.5163,W,0.41,29.22,220321,,,D*45 
88.006          GPS_NMEA_FROM_GPS    iGPS            $GPGGA,175555.000,4144.3473,N,06959.5163,W,2,07,1.06,7.7,M,-34.3,M,0000,0000*56 
89.109          GPS_NMEA_FROM_GPS    iGPS            $GPGGA,175556.000,4144.3474,N,06959.5163,W,2,07,1.06,7.8,M,-34.3,M,0000,0000*5D 
90.012          GPS_NMEA_FROM_GPS    iGPS            $GPGGA,175557.000,4144.3475,N,06959.5164,W,2,07,1.06,7.8,M,-34.3,M,0000,0000*5A 
91.115          GPS_NMEA_FROM_GPS    iGPS            $GPGGA,175558.000,4144.3476,N,06959.5165,W,2,07,1.06,7.8,M,-34.3,M,0000,0000*57 
92.117          GPS_NMEA_FROM_GPS    iGPS            $GPGGA,175559.000,4144.3477,N,06959.5166,W,2,07,1.06,7.9,M,-34.3,M,0000,0000*55 
93.120          GPS_NMEA_FROM_GPS    iGPS            $GPRMC,175600.000,A,4144.3478,N,06959.5167,W,0.62,330.81,220321,,,D*7A 
94.123          GPS_NMEA_FROM_GPS    iGPS            $GPRMC,175601.000,A,4144.3479,N,06959.5168,W,0.52,326.19,220321,,,D*70 
95.025          GPS_NMEA_FROM_GPS    iGPS            $GPGGA,175602.000,4144.3481,N,06959.5170,W,2,07,1.06,8.2,M,-34.3,M,0000,0000*52 
96.128          GPS_NMEA_FROM_GPS    iGPS            $GPRMC,175603.000,A,4144.3482,N,06959.5172,W,0.53,307.19,220321,,,D*7F 
97.030          GPS_NMEA_FROM_GPS    iGPS            $GPGGA,175604.000,4144.3483,N,06959.5174,W,2,07,1.06,8.2,M,-34.3,M,0000,0000*52 
98.033          GPS_NMEA_FROM_GPS    iGPS            $GPGGA,175605.000,4144.3484,N,06959.5176,W,2,07,1.06,8.3,M,-34.3,M,0000,0000*57 
99.135          GPS_NMEA_FROM_GPS    iGPS            $GPRMC,175606.000,A,4144.3485,N,06959.5178,W,0.50,306.32,220321,,,D*7C 
100.038         GPS_NMEA_FROM_GPS    iGPS            $GPGGA,175607.000,4144.3485,N,06959.5180,W,2,07,1.06,8.4,M,-34.3,M,0000,0000*5A 
101.040         GPS_NMEA_FROM_GPS    iGPS            $GPGGA,175608.000,4144.3486,N,06959.5181,W,2,07,1.06,8.4,M,-34.3,M,0000,0000*57 
102.043         GPS_NMEA_FROM_GPS    iGPS            $GPGGA,175609.000,4144.3485,N,06959.5183,W,2,07,1.06,8.4,M,-34.3,M,0000,0000*57 
103.046         GPS_NMEA_FROM_GPS    iGPS            $GPRMC,175610.000,A,4144.3485,N,06959.5185,W,0.52,274.03,220321,,,D*7D 
104.048         GPS_NMEA_FROM_GPS    iGPS            $GPGGA,175611.000,4144.3485,N,06959.5187,W,2,07,1.06,8.5,M,-34.3,M,0000,0000*5B 
105.051         GPS_NMEA_FROM_GPS    iGPS            $GPGGA,175612.000,4144.3484,N,06959.5188,W,2,07,1.06,8.5,M,-34.3,M,0000,0000*56 
106.054         GPS_NMEA_FROM_GPS    iGPS            $GPGGA,175613.000,4144.3483,N,06959.5190,W,2,07,1.06,8.6,M,-34.3,M,0000,0000*5A 
107.056         GPS_NMEA_FROM_GPS    iGPS            $GPGGA,175614.000,4144.3482,N,06959.5190,W,2,07,1.06,8.6,M,-34.3,M,0000,0000*5C 
108.058         GPS_NMEA_FROM_GPS    iGPS            $GPGGA,175615.000,4144.3481,N,06959.5191,W,2,07,1.06,8.6,M,-34.3,M,0000,0000*5F 
109.061         GPS_NMEA_FROM_GPS    iGPS            $GPGGA,175616.000,4144.3480,N,06959.5191,W,2,07,1.06,8.7,M,-34.3,M,0000,0000*5C 
110.164         GPS_NMEA_FROM_GPS    iGPS            $GPGGA,175617.000,4144.3478,N,06959.5187,W,2,08,0.99,8.2,M,-34.3,M,0000,0000*50 
111.167         GPS_NMEA_FROM_GPS    iGPS            $GPGGA,175618.000,4144.3477,N,06959.5186,W,2,08,0.98,8.1,M,-34.3,M,0000,0000*53 
112.270         GPS_NMEA_FROM_GPS    iGPS            $GPRMC,175619.000,A,4144.3475,N,06959.5185,W,0.56,146.06,220321,,,D*78 
113.172         GPS_NMEA_FROM_GPS    iGPS            $GPGGA,175620.000,4144.3474,N,06959.5183,W,2,08,0.98,8.0,M,-34.3,M,0000,0000*5F 
114.074         GPS_NMEA_FROM_GPS    iGPS            $GPGGA,175621.000,4144.3473,N,06959.5181,W,2,07,1.04,7.8,M,-34.3,M,0000,0000*57 
115.077         GPS_NMEA_FROM_GPS    iGPS            $GPGGA,175622.000,4144.3473,N,06959.5179,W,2,07,1.04,7.8,M,-34.3,M,0000,0000*53 
116.079         GPS_NMEA_FROM_GPS    iGPS            $GPGGA,175623.000,4144.3473,N,06959.5177,W,2,07,1.04,7.7,M,-34.3,M,0000,0000*53 
117.082         GPS_NMEA_FROM_GPS    iGPS            $GPRMC,175624.000,A,4144.3473,N,06959.5175,W,0.64,88.49,220321,,,D*46 
118.084         GPS_NMEA_FROM_GPS    iGPS            $GPGGA,175625.000,4144.3474,N,06959.5173,W,2,07,1.04,7.6,M,-34.3,M,0000,0000*57 
119.187         GPS_NMEA_FROM_GPS    iGPS            $GPRMC,175626.000,A,4144.3474,N,06959.5171,W,0.68,73.14,220321,,,D*47 
120.190         GPS_NMEA_FROM_GPS    iGPS            $GPGGA,175627.000,4144.3474,N,06959.5169,W,2,07,1.04,7.6,M,-34.3,M,0000,0000*5E 
120.992         GPS_NMEA_FROM_GPS    iGPS            $GPGGA,175628.000,4144.3475,N,06959.5167,W,2,07,1.04,7.6,M,-34.3,M,0000,0000*5E 
121.994         GPS_NMEA_FROM_GPS    iGPS            $GPGGA,175629.000,4144.3476,N,06959.5166,W,2,07,1.04,7.6,M,-34.3,M,0000,0000*5D 
123.098         GPS_NMEA_FROM_GPS    iGPS            $GPRMC,175630.000,A,4144.3478,N,06959.5164,W,0.66,48.00,220321,,,D*4B 
124.001         GPS_NMEA_FROM_GPS    iGPS            $GPGGA,175631.000,4144.3479,N,06959.5163,W,2,07,1.06,7.7,M,-34.3,M,0000,0000*5D 
125.005         GPS_NMEA_FROM_GPS    iGPS            $GPGGA,175632.000,4144.3480,N,06959.5162,W,2,07,1.06,7.8,M,-34.3,M,0000,0000*56 
126.108         GPS_NMEA_FROM_GPS    iGPS            $GPGGA,175633.000,4144.3481,N,06959.5161,W,2,07,1.06,7.9,M,-34.3,M,0000,0000*54 
127.011         GPS_NMEA_FROM_GPS    iGPS            $GPGGA,175634.000,4144.3482,N,06959.5160,W,2,07,1.04,8.0,M,-34.3,M,0000,0000*55 
128.014         GPS_NMEA_FROM_GPS    iGPS            $GPGGA,175635.000,4144.3483,N,06959.5160,W,2,07,1.06,8.1,M,-34.3,M,0000,0000*56 
129.117         GPS_NMEA_FROM_GPS    iGPS            $GPGGA,175636.000,4144.3485,N,06959.5160,W,2,07,1.06,8.1,M,-34.3,M,0000,0000*53 
130.119         GPS_NMEA_FROM_GPS    iGPS            $GPGGA,175637.000,4144.3486,N,06959.5160,W,2,07,1.06,8.2,M,-34.3,M,0000,0000*52 
131.122         GPS_NMEA_FROM_GPS    iGPS            $GPGGA,175638.000,4144.3488,N,06959.5161,W,2,07,1.06,8.2,M,-34.3,M,0000,0000*52 
132.025         GPS_NMEA_FROM_GPS    iGPS            $GPGGA,175639.000,4144.3490,N,06959.5162,W,2,07,1.06,8.3,M,-34.3,M,0000,0000*58 
133.028         GPS_NMEA_FROM_GPS    iGPS            $GPGGA,175640.000,4144.3492,N,06959.5162,W,2,07,1.06,8.3,M,-34.3,M,0000,0000*54 
134.031         GPS_NMEA_FROM_GPS    iGPS            $GPGGA,175641.000,4144.3494,N,06959.5164,W,2,07,1.06,8.4,M,-34.3,M,0000,0000*52 
135.034         GPS_NMEA_FROM_GPS    iGPS            $GPGGA,175642.000,4144.3496,N,06959.5165,W,2,07,1.06,8.4,M,-34.3,M,0000,0000*52 
136.036         GPS_NMEA_FROM_GPS    iGPS            $GPGGA,175643.000,4144.3497,N,06959.5167,W,2,07,1.06,8.5,M,-34.3,M,0000,0000*51 
137.139         GPS_NMEA_FROM_GPS    iGPS            $GPGGA,175644.000,4144.3499,N,06959.5169,W,2,07,1.06,8.7,M,-34.3,M,0000,0000*54 
138.142         GPS_NMEA_FROM_GPS    iGPS            $GPGGA,175645.000,4144.3499,N,06959.5171,W,2,07,1.06,8.7,M,-34.3,M,0000,0000*5C 
139.144         GPS_NMEA_FROM_GPS    iGPS            $GPGGA,175646.000,4144.3501,N,06959.5172,W,2,07,1.06,8.8,M,-34.3,M,0000,0000*53 
140.047         GPS_NMEA_FROM_GPS    iGPS            $GPGGA,175647.000,4144.3501,N,06959.5174,W,2,07,1.06,8.8,M,-34.3,M,0000,0000*54 
141.150         GPS_NMEA_FROM_GPS    iGPS            $GPGGA,175648.000,4144.3502,N,06959.5176,W,2,07,1.06,8.7,M,-34.3,M,0000,0000*55 
142.052         GPS_NMEA_FROM_GPS    iGPS            $GPGGA,175649.000,4144.3502,N,06959.5178,W,2,07,1.06,8.7,M,-34.3,M,0000,0000*5A 
143.155         GPS_NMEA_FROM_GPS    iGPS            $GPGGA,175650.000,4144.3503,N,06959.5179,W,2,07,1.06,8.7,M,-34.3,M,0000,0000*52 
144.157         GPS_NMEA_FROM_GPS    iGPS            $GPGGA,175651.000,4144.3503,N,06959.5181,W,2,07,1.06,8.7,M,-34.3,M,0000,0000*54 
145.161         GPS_NMEA_FROM_GPS    iGPS            $GPRMC,175652.000,A,4144.3503,N,06959.5183,W,0.46,284.32,220321,,,D*7A 
146.162         GPS_NMEA_FROM_GPS    iGPS            $GPGGA,175653.000,4144.3502,N,06959.5185,W,2,07,1.04,8.7,M,-34.3,M,0000,0000*51 
147.165         GPS_NMEA_FROM_GPS    iGPS            $GPGGA,175654.000,4144.3502,N,06959.5186,W,2,07,1.06,8.8,M,-34.3,M,0000,0000*58 
148.067         GPS_NMEA_FROM_GPS    iGPS            $GPGGA,175655.000,4144.3501,N,06959.5188,W,2,07,1.06,8.8,M,-34.3,M,0000,0000*54 
149.170         GPS_NMEA_FROM_GPS    iGPS            $GPGGA,175656.000,4144.3501,N,06959.5190,W,2,07,1.06,8.8,M,-34.3,M,0000,0000*5E 
150.073         GPS_NMEA_FROM_GPS    iGPS            $GPGGA,175657.000,4144.3500,N,06959.5191,W,2,07,1.06,8.8,M,-34.3,M,0000,0000*5F 
151.075         GPS_NMEA_FROM_GPS    iGPS            $GPGGA,175658.000,4144.3498,N,06959.5191,W,2,07,1.06,8.8,M,-34.3,M,0000,0000*50 
152.178         GPS_NMEA_FROM_GPS    iGPS            $GPRMC,175659.000,A,4144.3497,N,06959.5192,W,0.40,216.97,220321,,,D*7F 
153.281         GPS_NMEA_FROM_GPS    iGPS            $GPRMC,175700.000,A,4144.3496,N,06959.5192,W,0.49,195.82,220321,,,D*76 
154.183         GPS_NMEA_FROM_GPS    iGPS            $GPGGA,175701.000,4144.3495,N,06959.5191,W,2,07,1.06,8.9,M,-34.3,M,0000,0000*51 
155.186         GPS_NMEA_FROM_GPS    iGPS            $GPGGA,175702.000,4144.3494,N,06959.5189,W,2,07,1.06,8.8,M,-34.3,M,0000,0000*5B 
156.189         GPS_NMEA_FROM_GPS    iGPS            $GPGGA,175703.000,4144.3493,N,06959.5188,W,2,07,1.06,8.8,M,-34.3,M,0000,0000*5C 
157.291         GPS_NMEA_FROM_GPS    iGPS            $GPRMC,175704.000,A,4144.3493,N,06959.5186,W,0.63,131.00,220321,,,D*7E 
158.194         GPS_NMEA_FROM_GPS    iGPS            $GPRMC,175705.000,A,4144.3492,N,06959.5182,W,0.69,120.94,220321,,,D*7D 
159.096         GPS_NMEA_FROM_GPS    iGPS            $GPRMC,175706.000,A,4144.3491,N,06959.5179,W,0.69,113.70,220321,,,D*73 
160.199         GPS_NMEA_FROM_GPS    iGPS            $GPRMC,175707.000,A,4144.3491,N,06959.5175,W,0.74,106.31,220321,,,D*73 
161.101         GPS_NMEA_FROM_GPS    iGPS            $GPGGA,175708.000,4144.3491,N,06959.5172,W,2,07,1.06,9.0,M,-34.3,M,0000,0000*59 
162.204         GPS_NMEA_FROM_GPS    iGPS            $GPGGA,175709.000,4144.3491,N,06959.5169,W,2,07,1.06,9.1,M,-34.3,M,0000,0000*53 
163.207         GPS_NMEA_FROM_GPS    iGPS            $GPRMC,175710.000,A,4144.3491,N,06959.5166,W,0.66,92.50,220321,,,D*4F 
164.109         GPS_NMEA_FROM_GPS    iGPS            $GPGGA,175711.000,4144.3492,N,06959.5164,W,2,07,1.06,9.0,M,-34.3,M,0000,0000*55 
165.111         GPS_NMEA_FROM_GPS    iGPS            $GPGGA,175712.000,4144.3492,N,06959.5162,W,2,07,1.06,9.1,M,-34.3,M,0000,0000*51 
166.114         GPS_NMEA_FROM_GPS    iGPS            $GPGGA,175713.000,4144.3492,N,06959.5160,W,2,07,1.06,9.1,M,-34.3,M,0000,0000*52 
167.217         GPS_NMEA_FROM_GPS    iGPS            $GPRMC,175714.000,A,4144.3491,N,06959.5158,W,0.44,77.46,220321,,,D*4A 
168.119         GPS_NMEA_FROM_GPS    iGPS            $GPGGA,175715.000,4144.3493,N,06959.5157,W,2,07,1.06,9.5,M,-34.3,M,0000,0000*55 
169.122         GPS_NMEA_FROM_GPS    iGPS            $GPRMC,175716.000,A,4144.3493,N,06959.5155,W,0.47,66.99,220321,,,D*46 
170.124         GPS_NMEA_FROM_GPS    iGPS            $GPGGA,175717.000,4144.3494,N,06959.5154,W,2,07,1.06,9.6,M,-34.3,M,0000,0000*50 
171.128         GPS_NMEA_FROM_GPS    iGPS            $GPGGA,175718.000,4144.3495,N,06959.5153,W,2,07,1.06,9.6,M,-34.3,M,0000,0000*59 
172.231         GPS_NMEA_FROM_GPS    iGPS            $GPGGA,175719.000,4144.3497,N,06959.5152,W,2,07,1.06,9.7,M,-34.3,M,0000,0000*5A 
173.233         GPS_NMEA_FROM_GPS    iGPS            $GPRMC,175720.000,A,4144.3498,N,06959.5152,W,0.46,31.62,220321,,,D*48 
174.136         GPS_NMEA_FROM_GPS    iGPS            $GPGGA,175721.000,4144.3499,N,06959.5152,W,2,07,1.06,9.7,M,-34.3,M,0000,0000*5F 
175.138         GPS_NMEA_FROM_GPS    iGPS            $GPGGA,175722.000,4144.3501,N,06959.5152,W,2,07,1.04,9.8,M,-34.3,M,0000,0000*51 
176.141         GPS_NMEA_FROM_GPS    iGPS            $GPGGA,175723.000,4144.3504,N,06959.5152,W,2,07,1.06,9.9,M,-34.3,M,0000,0000*56 
177.144         GPS_NMEA_FROM_GPS    iGPS            $GPGGA,175724.000,4144.3508,N,06959.5153,W,2,07,1.06,10.0,M,-34.3,M,0000,0000*6D 
178.147         GPS_NMEA_FROM_GPS    iGPS            $GPGGA,175725.000,4144.3510,N,06959.5154,W,2,07,1.06,10.2,M,-34.3,M,0000,0000*60 
179.150         GPS_NMEA_FROM_GPS    iGPS            $GPGGA,175726.000,4144.3512,N,06959.5155,W,2,07,1.06,10.3,M,-34.3,M,0000,0000*61 
180.253         GPS_NMEA_FROM_GPS    iGPS            $GPGGA,175727.000,4144.3513,N,06959.5156,W,2,08,0.99,10.4,M,-34.3,M,0000,0000*6D 
181.257         GPS_NMEA_FROM_GPS    iGPS            $GPRMC,175728.000,A,4144.3515,N,06959.5157,W,0.55,333.27,220321,,,D*73 
182.158         GPS_NMEA_FROM_GPS    iGPS            $GPGGA,175729.000,4144.3517,N,06959.5160,W,2,08,0.99,10.5,M,-34.3,M,0000,0000*63 
183.161         GPS_NMEA_FROM_GPS    iGPS            $GPRMC,175730.000,A,4144.3519,N,06959.5162,W,0.59,324.34,220321,,,D*78 
184.164         GPS_NMEA_FROM_GPS    iGPS            $GPGGA,175731.000,4144.3520,N,06959.5164,W,2,08,0.99,10.5,M,-34.3,M,0000,0000*6A 
185.069         GPS_NMEA_FROM_GPS    iGPS            $GPGGA,175732.000,4144.3518,N,06959.5166,W,2,08,0.99,10.4,M,-34.3,M,0000,0000*61 
186.171         GPS_NMEA_FROM_GPS    iGPS            $GPGGA,175733.000,4144.3516,N,06959.5167,W,2,08,0.99,10.3,M,-34.3,M,0000,0000*68 
187.274         GPS_NMEA_FROM_GPS    iGPS            $GPGGA,175734.000,4144.3515,N,06959.5170,W,2,08,0.99,10.2,M,-34.3,M,0000,0000*6B 
188.177         GPS_NMEA_FROM_GPS    iGPS            $GPRMC,175735.000,A,4144.3515,N,06959.5171,W,0.32,283.56,220321,,,D*76 
189.179         GPS_NMEA_FROM_GPS    iGPS            $GPRMC,175736.000,A,4144.3514,N,06959.5172,W,0.31,273.37,220321,,,D*7C 
190.081         GPS_NMEA_FROM_GPS    iGPS            $GPGGA,175737.000,4144.3513,N,06959.5175,W,2,07,1.06,10.0,M,-34.3,M,0000,0000*61 
191.084         GPS_NMEA_FROM_GPS    iGPS            $GPGGA,175738.000,4144.3511,N,06959.5175,W,2,07,1.06,9.9,M,-34.3,M,0000,0000*5D 
192.187         GPS_NMEA_FROM_GPS    iGPS            $GPGGA,175739.000,4144.3509,N,06959.5176,W,2,07,1.06,9.8,M,-34.3,M,0000,0000*57 
193.189         GPS_NMEA_FROM_GPS    iGPS            $GPRMC,175740.000,A,4144.3508,N,06959.5176,W,0.24,228.22,220321,,,D*7A 
194.191         GPS_NMEA_FROM_GPS    iGPS            $GPGGA,175741.000,4144.3508,N,06959.5176,W,2,07,1.06,9.9,M,-34.3,M,0000,0000*58 
195.294         GPS_NMEA_FROM_GPS    iGPS            $GPRMC,175742.000,A,4144.3506,N,06959.5175,W,0.37,183.76,220321,,,D*74 
196.196         GPS_NMEA_FROM_GPS    iGPS            $GPGGA,175743.000,4144.3505,N,06959.5174,W,2,07,1.06,9.8,M,-34.3,M,0000,0000*54 
197.199         GPS_NMEA_FROM_GPS    iGPS            $GPGGA,175744.000,4144.3503,N,06959.5173,W,2,07,1.06,9.7,M,-34.3,M,0000,0000*5D 
198.202         GPS_NMEA_FROM_GPS    iGPS            $GPGGA,175745.000,4144.3502,N,06959.5172,W,2,07,1.06,9.7,M,-34.3,M,0000,0000*5C 
199.204         GPS_NMEA_FROM_GPS    iGPS            $GPGGA,175746.000,4144.3501,N,06959.5170,W,2,07,1.06,9.7,M,-34.3,M,0000,0000*5E 
200.207         GPS_NMEA_FROM_GPS    iGPS            $GPGGA,175747.000,4144.3501,N,06959.5169,W,2,07,1.06,9.7,M,-34.3,M,0000,0000*57 
201.210         GPS_NMEA_FROM_GPS    iGPS            $GPGGA,175748.000,4144.3501,N,06959.5167,W,2,07,1.06,9.7,M,-34.3,M,0000,0000*56 
202.212         GPS_NMEA_FROM_GPS    iGPS            $GPGGA,175749.000,4144.3501,N,06959.5165,W,2,07,1.06,9.8,M,-34.3,M,0000,0000*5A 
203.215         GPS_NMEA_FROM_GPS    iGPS            $GPRMC,175750.000,A,4144.3501,N,06959.5162,W,0.64,96.19,220321,,,D*4C 
204.218         GPS_NMEA_FROM_GPS    iGPS            $GPRMC,175751.000,A,4144.3501,N,06959.5160,W,0.64,90.51,220321,,,D*45 
205.220         GPS_NMEA_FROM_GPS    iGPS            $GPGGA,175752.000,4144.3502,N,06959.5157,W,2,07,1.06,9.6,M,-34.3,M,0000,0000*5C 
206.223         GPS_NMEA_FROM_GPS    iGPS            $GPRMC,175753.000,A,4144.3503,N,06959.5156,W,0.63,79.60,220321,,,D*42 
207.225         GPS_NMEA_FROM_GPS    iGPS            $GPGGA,175754.000,4144.3503,N,06959.5153,W,2,07,1.06,9.5,M,-34.3,M,0000,0000*5C 
208.128         GPS_NMEA_FROM_GPS    iGPS            $GPGGA,175755.000,4144.3505,N,06959.5151,W,2,07,1.06,9.5,M,-34.3,M,0000,0000*59 
209.130         GPS_NMEA_FROM_GPS    iGPS            $GPRMC,175756.000,A,4144.3506,N,06959.5150,W,0.62,66.39,220321,,,D*47 
210.234         GPS_NMEA_FROM_GPS    iGPS            $GPGGA,175757.000,4144.3507,N,06959.5149,W,2,07,1.06,9.5,M,-34.3,M,0000,0000*50 
211.136         GPS_NMEA_FROM_GPS    iGPS            $GPGGA,175758.000,4144.3508,N,06959.5146,W,2,07,1.06,9.6,M,-34.3,M,0000,0000*5C 
212.139         GPS_NMEA_FROM_GPS    iGPS            $GPGGA,175759.000,4144.3510,N,06959.5147,W,2,07,1.06,9.5,M,-34.3,M,0000,0000*56 
213.141         GPS_NMEA_FROM_GPS    iGPS            $GPGGA,175800.000,4144.3510,N,06959.5144,W,2,07,1.06,9.7,M,-34.3,M,0000,0000*54 
214.145         GPS_NMEA_FROM_GPS    iGPS            $GPGGA,175801.000,4144.3512,N,06959.5143,W,2,07,1.06,9.8,M,-34.3,M,0000,0000*5F 
215.147         GPS_NMEA_FROM_GPS    iGPS            $GPGGA,175802.000,4144.3513,N,06959.5143,W,2,07,1.06,10.0,M,-34.3,M,0000,0000*6D 
216.149         GPS_NMEA_FROM_GPS    iGPS            $GPGGA,175803.000,4144.3515,N,06959.5143,W,2,07,1.06,10.0,M,-34.3,M,0000,0000*6A 
