1.663           GPS_NMEA_FROM_GPS    iGPS            $GPRMC,203744.000,A,4144.3382,N,06959.5651,W,0.02,224.23,230321,,,D*72 
2.364           GPS_NMEA_FROM_GPS    iGPS            $GPGGA,203745.000,4144.3382,N,06959.5651,W,2,11,1.02,2.0,M,-34.3,M,0000,0000*59 
2.364           GPS_NMEA_FROM_GPS    iGPS            $GPGGA,203745.000,4144.3382,N,06959.5651,W,2,11,1.02,2.0,M,-34.3,M,0000,0000*59 
3.366           GPS_NMEA_FROM_GPS    iGPS            $GPRMC,203746.000,A,4144.3382,N,06959.5651,W,0.03,205.28,230321,,,D*79 
3.366           GPS_NMEA_FROM_GPS    iGPS            $GPRMC,203746.000,A,4144.3382,N,06959.5651,W,0.03,205.28,230321,,,D*79 
4.368           GPS_NMEA_FROM_GPS    iGPS            $GPGGA,203747.000,4144.3382,N,06959.5651,W,2,11,1.02,2.0,M,-34.3,M,0000,0000*5B 
5.371           GPS_NMEA_FROM_GPS    iGPS            $GPGGA,203748.000,4144.3382,N,06959.5651,W,2,11,1.02,2.0,M,-34.3,M,0000,0000*54 
6.373           GPS_NMEA_FROM_GPS    iGPS            $GPGGA,203749.000,4144.3382,N,06959.5651,W,2,11,1.02,2.0,M,-34.3,M,0000,0000*55 
7.376           GPS_NMEA_FROM_GPS    iGPS            $GPGGA,203750.000,4144.3382,N,06959.5651,W,2,11,1.02,2.0,M,-34.3,M,0000,0000*5D 
8.378           GPS_NMEA_FROM_GPS    iGPS            $GPRMC,203751.000,A,4144.3382,N,06959.5652,W,0.02,234.59,230321,,,D*79 
9.380           GPS_NMEA_FROM_GPS    iGPS            $GPGGA,203752.000,4144.3382,N,06959.5652,W,2,11,1.02,2.0,M,-34.3,M,0000,0000*5C 
10.383          GPS_NMEA_FROM_GPS    iGPS            $GPGGA,203753.000,4144.3382,N,06959.5652,W,2,11,1.02,2.0,M,-34.3,M,0000,0000*5D 
11.285          GPS_NMEA_FROM_GPS    iGPS            $GPGGA,203754.000,4144.3382,N,06959.5652,W,2,11,1.02,2.0,M,-34.3,M,0000,0000*5A 
11.285          GPS_NMEA_FROM_GPS    iGPS            $GPGGA,203754.000,4144.3382,N,06959.5652,W,2,11,1.02,2.0,M,-34.3,M,0000,0000*5A 
12.288          GPS_NMEA_FROM_GPS    iGPS            $GPGGA,203755.000,4144.3382,N,06959.5652,W,2,11,1.02,2.0,M,-34.3,M,0000,0000*5B 
12.288          GPS_NMEA_FROM_GPS    iGPS            $GPGGA,203755.000,4144.3382,N,06959.5652,W,2,11,1.02,2.0,M,-34.3,M,0000,0000*5B 
13.392          GPS_NMEA_FROM_GPS    iGPS            $GPGGA,203756.000,4144.3382,N,06959.5652,W,2,11,1.02,2.0,M,-34.3,M,0000,0000*58 
14.395          GPS_NMEA_FROM_GPS    iGPS            $GPGGA,203757.000,4144.3382,N,06959.5652,W,2,11,1.02,2.0,M,-34.3,M,0000,0000*59 
15.297          GPS_NMEA_FROM_GPS    iGPS            $GPGGA,203758.000,4144.3382,N,06959.5652,W,2,11,1.02,2.0,M,-34.3,M,0000,0000*56 
16.300          GPS_NMEA_FROM_GPS    iGPS            $GPGGA,203759.000,4144.3382,N,06959.5652,W,2,11,1.02,2.0,M,-34.3,M,0000,0000*57 
17.403          GPS_NMEA_FROM_GPS    iGPS            $GPGGA,203800.000,4144.3382,N,06959.5652,W,2,11,1.02,2.0,M,-34.3,M,0000,0000*54 
18.405          GPS_NMEA_FROM_GPS    iGPS            $GPRMC,203801.000,A,4144.3382,N,06959.5652,W,0.04,203.06,230321,,,D*7B 
19.308          GPS_NMEA_FROM_GPS    iGPS            $GPGGA,203802.000,4144.3382,N,06959.5652,W,2,11,1.02,2.0,M,-34.3,M,0000,0000*56 
20.411          GPS_NMEA_FROM_GPS    iGPS            $GPRMC,203803.000,A,4144.3382,N,06959.5652,W,0.02,268.19,230321,,,D*7C 
21.413          GPS_NMEA_FROM_GPS    iGPS            $GPRMC,203804.000,A,4144.3382,N,06959.5652,W,0.02,277.56,230321,,,D*7E 
22.315          GPS_NMEA_FROM_GPS    iGPS            $GPGGA,203805.000,4144.3382,N,06959.5652,W,2,11,1.02,2.0,M,-34.3,M,0000,0000*51 
23.319          GPS_NMEA_FROM_GPS    iGPS            $GPGGA,203806.000,4144.3382,N,06959.5652,W,2,11,1.02,2.0,M,-34.3,M,0000,0000*52 
24.321          GPS_NMEA_FROM_GPS    iGPS            $GPGGA,203807.000,4144.3382,N,06959.5652,W,2,11,1.02,2.0,M,-34.3,M,0000,0000*53 
25.424          GPS_NMEA_FROM_GPS    iGPS            $GPRMC,203808.000,A,4144.3382,N,06959.5652,W,0.02,241.95,230321,,,D*78 
25.424          GPS_NMEA_FROM_GPS    iGPS            $GPRMC,203808.000,A,4144.3382,N,06959.5652,W,0.02,241.95,230321,,,D*78 
26.427          GPS_NMEA_FROM_GPS    iGPS            $GPRMC,203809.000,A,4144.3382,N,06959.5652,W,0.02,226.48,230321,,,D*78 
27.329          GPS_NMEA_FROM_GPS    iGPS            $GPGGA,203810.000,4144.3382,N,06959.5652,W,2,11,1.02,2.0,M,-34.3,M,0000,0000*55 
27.329          GPS_NMEA_FROM_GPS    iGPS            $GPGGA,203810.000,4144.3382,N,06959.5652,W,2,11,1.02,2.0,M,-34.3,M,0000,0000*55 
28.332          GPS_NMEA_FROM_GPS    iGPS            $GPGGA,203811.000,4144.3382,N,06959.5652,W,2,11,1.02,2.0,M,-34.3,M,0000,0000*54 
28.332          GPS_NMEA_FROM_GPS    iGPS            $GPGGA,203811.000,4144.3382,N,06959.5652,W,2,11,1.02,2.0,M,-34.3,M,0000,0000*54 
29.335          GPS_NMEA_FROM_GPS    iGPS            $GPGGA,203812.000,4144.3382,N,06959.5652,W,2,11,1.02,2.0,M,-34.3,M,0000,0000*57 
30.337          GPS_NMEA_FROM_GPS    iGPS            $GPGGA,203813.000,4144.3382,N,06959.5652,W,2,11,1.02,2.0,M,-34.3,M,0000,0000*56 
31.340          GPS_NMEA_FROM_GPS    iGPS            $GPGGA,203814.000,4144.3382,N,06959.5652,W,2,11,1.02,2.0,M,-34.3,M,0000,0000*51 
32.343          GPS_NMEA_FROM_GPS    iGPS            $GPGGA,203815.000,4144.3382,N,06959.5652,W,2,11,1.02,2.0,M,-34.3,M,0000,0000*50 
33.345          GPS_NMEA_FROM_GPS    iGPS            $GPGGA,203816.000,4144.3382,N,06959.5652,W,2,11,1.02,2.0,M,-34.3,M,0000,0000*53 
34.348          GPS_NMEA_FROM_GPS    iGPS            $GPGGA,203817.000,4144.3382,N,06959.5652,W,2,11,1.02,2.0,M,-34.3,M,0000,0000*52 
35.350          GPS_NMEA_FROM_GPS    iGPS            $GPGGA,203818.000,4144.3382,N,06959.5652,W,2,11,1.02,2.0,M,-34.3,M,0000,0000*5D 
36.353          GPS_NMEA_FROM_GPS    iGPS            $GPGGA,203819.000,4144.3382,N,06959.5652,W,2,11,1.02,2.0,M,-34.3,M,0000,0000*5C 
37.356          GPS_NMEA_FROM_GPS    iGPS            $GPRMC,203820.000,A,4144.3382,N,06959.5652,W,0.13,283.65,230321,,,D*73 
38.358          GPS_NMEA_FROM_GPS    iGPS            $GPGGA,203821.000,4144.3382,N,06959.5652,W,2,11,1.02,2.0,M,-34.3,M,0000,0000*57 
39.361          GPS_NMEA_FROM_GPS    iGPS            $GPGGA,203822.000,4144.3382,N,06959.5652,W,2,11,1.02,2.0,M,-34.3,M,0000,0000*54 
40.363          GPS_NMEA_FROM_GPS    iGPS            $GPRMC,203823.000,A,4144.3382,N,06959.5652,W,0.05,332.56,230321,,,D*7C 
41.366          GPS_NMEA_FROM_GPS    iGPS            $GPGGA,203824.000,4144.3382,N,06959.5652,W,2,11,1.02,2.0,M,-34.3,M,0000,0000*52 
42.368          GPS_NMEA_FROM_GPS    iGPS            $GPGGA,203825.000,4144.3382,N,06959.5652,W,2,11,1.02,2.0,M,-34.3,M,0000,0000*53 
43.271          GPS_NMEA_FROM_GPS    iGPS            $GPGGA,203826.000,4144.3382,N,06959.5652,W,2,11,1.02,2.0,M,-34.3,M,0000,0000*50 
44.374          GPS_NMEA_FROM_GPS    iGPS            $GPRMC,203827.000,A,4144.3382,N,06959.5652,W,0.14,5.32,230321,,,D*7D 
45.276          GPS_NMEA_FROM_GPS    iGPS            $GPGGA,203828.000,4144.3382,N,06959.5652,W,2,11,1.02,2.0,M,-34.3,M,0000,0000*5E 
46.379          GPS_NMEA_FROM_GPS    iGPS            $GPGGA,203829.000,4144.3382,N,06959.5652,W,2,11,1.02,2.0,M,-34.3,M,0000,0000*5F 
47.382          GPS_NMEA_FROM_GPS    iGPS            $GPGGA,203830.000,4144.3382,N,06959.5652,W,2,11,1.02,2.0,M,-34.3,M,0000,0000*57 
48.384          GPS_NMEA_FROM_GPS    iGPS            $GPGGA,203831.000,4144.3383,N,06959.5652,W,2,11,1.02,2.0,M,-34.3,M,0000,0000*57 
49.287          GPS_NMEA_FROM_GPS    iGPS            $GPGGA,203832.000,4144.3384,N,06959.5652,W,2,11,1.02,2.0,M,-34.3,M,0000,0000*53 
50.289          GPS_NMEA_FROM_GPS    iGPS            $GPGGA,203833.000,4144.3385,N,06959.5651,W,2,11,0.90,2.0,M,-34.3,M,0000,0000*5A 
51.392          GPS_NMEA_FROM_GPS    iGPS            $GPRMC,203834.000,A,4144.3386,N,06959.5651,W,0.63,12.22,230321,,,D*4F 
52.295          GPS_NMEA_FROM_GPS    iGPS            $GPGGA,203835.000,4144.3388,N,06959.5651,W,2,11,1.02,2.0,M,-34.3,M,0000,0000*5B 
53.398          GPS_NMEA_FROM_GPS    iGPS            $GPRMC,203836.000,A,4144.3389,N,06959.5651,W,0.69,8.03,230321,,,D*70 
54.300          GPS_NMEA_FROM_GPS    iGPS            $GPGGA,203837.000,4144.3391,N,06959.5651,W,2,11,1.02,2.1,M,-34.3,M,0000,0000*50 
55.302          GPS_NMEA_FROM_GPS    iGPS            $GPGGA,203838.000,4144.3393,N,06959.5651,W,2,11,1.02,2.1,M,-34.3,M,0000,0000*5D 
56.305          GPS_NMEA_FROM_GPS    iGPS            $GPGGA,203839.000,4144.3395,N,06959.5651,W,2,11,1.02,2.2,M,-34.3,M,0000,0000*59 
57.307          GPS_NMEA_FROM_GPS    iGPS            $GPGGA,203840.000,4144.3397,N,06959.5651,W,2,11,1.02,2.2,M,-34.3,M,0000,0000*55 
58.310          GPS_NMEA_FROM_GPS    iGPS            $GPGGA,203841.000,4144.3399,N,06959.5651,W,2,11,1.02,2.2,M,-34.3,M,0000,0000*5A 
59.312          GPS_NMEA_FROM_GPS    iGPS            $GPGGA,203842.000,4144.3401,N,06959.5651,W,2,11,1.02,2.3,M,-34.3,M,0000,0000*5E 
60.315          GPS_NMEA_FROM_GPS    iGPS            $GPGGA,203843.000,4144.3403,N,06959.5652,W,2,11,1.02,2.3,M,-34.3,M,0000,0000*5E 
61.318          GPS_NMEA_FROM_GPS    iGPS            $GPGGA,203844.000,4144.3405,N,06959.5652,W,2,11,1.02,2.3,M,-34.3,M,0000,0000*5F 
62.421          GPS_NMEA_FROM_GPS    iGPS            $GPRMC,203845.000,A,4144.3407,N,06959.5652,W,0.77,2.08,230321,,,D*78 
63.323          GPS_NMEA_FROM_GPS    iGPS            $GPGGA,203846.000,4144.3409,N,06959.5652,W,2,11,1.02,2.3,M,-34.3,M,0000,0000*51 
64.325          GPS_NMEA_FROM_GPS    iGPS            $GPGGA,203847.000,4144.3412,N,06959.5652,W,2,11,1.02,2.3,M,-34.3,M,0000,0000*5A 
65.328          GPS_NMEA_FROM_GPS    iGPS            $GPRMC,203848.000,A,4144.3414,N,06959.5653,W,0.85,1.80,230321,,,D*78 
66.331          GPS_NMEA_FROM_GPS    iGPS            $GPGGA,203849.000,4144.3417,N,06959.5653,W,2,11,1.02,2.2,M,-34.3,M,0000,0000*51 
67.333          GPS_NMEA_FROM_GPS    iGPS            $GPGGA,203850.000,4144.3419,N,06959.5653,W,2,11,1.02,2.2,M,-34.3,M,0000,0000*57 
68.336          GPS_NMEA_FROM_GPS    iGPS            $GPGGA,203851.000,4144.3422,N,06959.5653,W,2,11,1.02,2.3,M,-34.3,M,0000,0000*5F 
69.338          GPS_NMEA_FROM_GPS    iGPS            $GPGGA,203852.000,4144.3424,N,06959.5653,W,2,11,1.02,2.3,M,-34.3,M,0000,0000*5A 
70.341          GPS_NMEA_FROM_GPS    iGPS            $GPGGA,203853.000,4144.3426,N,06959.5654,W,2,11,1.02,2.3,M,-34.3,M,0000,0000*5E 
71.343          GPS_NMEA_FROM_GPS    iGPS            $GPGGA,203854.000,4144.3428,N,06959.5654,W,2,11,1.02,2.4,M,-34.3,M,0000,0000*50 
72.346          GPS_NMEA_FROM_GPS    iGPS            $GPGGA,203855.000,4144.3430,N,06959.5654,W,2,11,1.02,2.5,M,-34.3,M,0000,0000*59 
73.349          GPS_NMEA_FROM_GPS    iGPS            $GPRMC,203856.000,A,4144.3433,N,06959.5654,W,0.74,5.95,230321,,,D*7B 
74.351          GPS_NMEA_FROM_GPS    iGPS            $GPRMC,203857.000,A,4144.3435,N,06959.5654,W,0.75,6.26,230321,,,D*76 
75.354          GPS_NMEA_FROM_GPS    iGPS            $GPGGA,203858.000,4144.3437,N,06959.5654,W,2,11,1.02,2.8,M,-34.3,M,0000,0000*5E 
76.356          GPS_NMEA_FROM_GPS    iGPS            $GPGGA,203859.000,4144.3439,N,06959.5654,W,2,11,1.02,2.8,M,-34.3,M,0000,0000*51 
77.359          GPS_NMEA_FROM_GPS    iGPS            $GPGGA,203900.000,4144.3441,N,06959.5654,W,2,11,1.02,2.7,M,-34.3,M,0000,0000*5C 
78.362          GPS_NMEA_FROM_GPS    iGPS            $GPGGA,203901.000,4144.3443,N,06959.5654,W,2,11,1.02,2.7,M,-34.3,M,0000,0000*5F 
79.365          GPS_NMEA_FROM_GPS    iGPS            $GPGGA,203902.000,4144.3446,N,06959.5654,W,2,11,1.02,2.7,M,-34.3,M,0000,0000*59 
80.268          GPS_NMEA_FROM_GPS    iGPS            $GPGGA,203903.000,4144.3448,N,06959.5654,W,2,11,1.02,2.7,M,-34.3,M,0000,0000*56 
81.371          GPS_NMEA_FROM_GPS    iGPS            $GPRMC,203904.000,A,4144.3450,N,06959.5653,W,0.83,7.00,230321,,,D*79 
82.273          GPS_NMEA_FROM_GPS    iGPS            $GPGGA,203905.000,4144.3452,N,06959.5653,W,2,11,1.02,2.8,M,-34.3,M,0000,0000*53 
83.376          GPS_NMEA_FROM_GPS    iGPS            $GPGGA,203906.000,4144.3454,N,06959.5653,W,2,11,1.02,2.8,M,-34.3,M,0000,0000*56 
84.379          GPS_NMEA_FROM_GPS    iGPS            $GPRMC,203907.000,A,4144.3456,N,06959.5652,W,0.73,8.01,230321,,,D*7C 
85.382          GPS_NMEA_FROM_GPS    iGPS            $GPRMC,203908.000,A,4144.3458,N,06959.5652,W,0.69,6.99,230321,,,D*79 
86.384          GPS_NMEA_FROM_GPS    iGPS            $GPRMC,203909.000,A,4144.3460,N,06959.5652,W,0.66,6.26,230321,,,D*78 
87.387          GPS_NMEA_FROM_GPS    iGPS            $GPGGA,203910.000,4144.3462,N,06959.5652,W,2,11,1.02,3.3,M,-34.3,M,0000,0000*5F 
88.390          GPS_NMEA_FROM_GPS    iGPS            $GPRMC,203911.000,A,4144.3464,N,06959.5651,W,0.68,4.70,230321,,,D*79 
89.392          GPS_NMEA_FROM_GPS    iGPS            $GPRMC,203912.000,A,4144.3466,N,06959.5651,W,0.70,3.60,230321,,,D*77 
90.395          GPS_NMEA_FROM_GPS    iGPS            $GPGGA,203913.000,4144.3468,N,06959.5651,W,2,11,1.02,3.7,M,-34.3,M,0000,0000*51 
91.297          GPS_NMEA_FROM_GPS    iGPS            $GPGGA,203914.000,4144.3470,N,06959.5650,W,2,11,1.02,3.8,M,-34.3,M,0000,0000*51 
92.299          GPS_NMEA_FROM_GPS    iGPS            $GPGGA,203915.000,4144.3472,N,06959.5650,W,2,11,1.02,3.9,M,-34.3,M,0000,0000*53 
93.301          GPS_NMEA_FROM_GPS    iGPS            $GPGGA,203916.000,4144.3474,N,06959.5650,W,2,11,1.02,4.0,M,-34.3,M,0000,0000*58 
94.304          GPS_NMEA_FROM_GPS    iGPS            $GPGGA,203917.000,4144.3476,N,06959.5650,W,2,11,1.02,4.1,M,-34.3,M,0000,0000*5A 
95.306          GPS_NMEA_FROM_GPS    iGPS            $GPGGA,203918.000,4144.3478,N,06959.5650,W,2,11,1.02,4.1,M,-34.3,M,0000,0000*5B 
96.309          GPS_NMEA_FROM_GPS    iGPS            $GPGGA,203919.000,4144.3481,N,06959.5650,W,2,11,1.02,4.1,M,-34.3,M,0000,0000*5C 
97.312          GPS_NMEA_FROM_GPS    iGPS            $GPGGA,203920.000,4144.3483,N,06959.5650,W,2,11,1.02,4.2,M,-34.3,M,0000,0000*57 
98.415          GPS_NMEA_FROM_GPS    iGPS            $GPRMC,203921.000,A,4144.3485,N,06959.5650,W,0.78,356.30,230321,,,D*75 
99.317          GPS_NMEA_FROM_GPS    iGPS            $GPGGA,203922.000,4144.3488,N,06959.5650,W,2,11,1.02,4.3,M,-34.3,M,0000,0000*5F 
100.320         GPS_NMEA_FROM_GPS    iGPS            $GPGGA,203923.000,4144.3491,N,06959.5650,W,2,11,1.02,4.3,M,-34.3,M,0000,0000*56 
101.323         GPS_NMEA_FROM_GPS    iGPS            $GPGGA,203924.000,4144.3493,N,06959.5651,W,2,11,1.02,4.4,M,-34.3,M,0000,0000*55 
102.325         GPS_NMEA_FROM_GPS    iGPS            $GPGGA,203925.000,4144.3495,N,06959.5651,W,2,11,1.02,4.4,M,-34.3,M,0000,0000*52 
103.328         GPS_NMEA_FROM_GPS    iGPS            $GPGGA,203926.000,4144.3497,N,06959.5652,W,2,11,0.90,4.5,M,-34.3,M,0000,0000*5B 
104.330         GPS_NMEA_FROM_GPS    iGPS            $GPGGA,203927.000,4144.3499,N,06959.5652,W,2,11,0.90,4.5,M,-34.3,M,0000,0000*54 
105.333         GPS_NMEA_FROM_GPS    iGPS            $GPGGA,203928.000,4144.3501,N,06959.5653,W,2,11,1.02,4.5,M,-34.3,M,0000,0000*50 
106.336         GPS_NMEA_FROM_GPS    iGPS            $GPGGA,203929.000,4144.3503,N,06959.5654,W,2,11,1.02,4.5,M,-34.3,M,0000,0000*54 
107.338         GPS_NMEA_FROM_GPS    iGPS            $GPGGA,203930.000,4144.3505,N,06959.5655,W,2,11,1.02,4.5,M,-34.3,M,0000,0000*5B 
108.341         GPS_NMEA_FROM_GPS    iGPS            $GPGGA,203931.000,4144.3505,N,06959.5656,W,2,11,1.02,4.7,M,-34.3,M,0000,0000*5B 
109.343         GPS_NMEA_FROM_GPS    iGPS            $GPGGA,203932.000,4144.3506,N,06959.5657,W,2,11,1.02,4.7,M,-34.3,M,0000,0000*5A 
110.346         GPS_NMEA_FROM_GPS    iGPS            $GPGGA,203933.000,4144.3506,N,06959.5659,W,2,11,1.02,4.7,M,-34.3,M,0000,0000*55 
111.348         GPS_NMEA_FROM_GPS    iGPS            $GPGGA,203934.000,4144.3506,N,06959.5660,W,2,11,1.02,4.7,M,-34.3,M,0000,0000*58 
112.351         GPS_NMEA_FROM_GPS    iGPS            $GPGGA,203935.000,4144.3506,N,06959.5661,W,2,11,1.02,4.7,M,-34.3,M,0000,0000*58 
113.353         GPS_NMEA_FROM_GPS    iGPS            $GPGGA,203936.000,4144.3506,N,06959.5662,W,2,11,1.02,4.7,M,-34.3,M,0000,0000*58 
114.356         GPS_NMEA_FROM_GPS    iGPS            $GPGGA,203937.000,4144.3506,N,06959.5663,W,2,11,1.02,4.7,M,-34.3,M,0000,0000*58 
115.359         GPS_NMEA_FROM_GPS    iGPS            $GPGGA,203938.000,4144.3505,N,06959.5664,W,2,11,1.02,4.7,M,-34.3,M,0000,0000*53 
116.361         GPS_NMEA_FROM_GPS    iGPS            $GPGGA,203939.000,4144.3505,N,06959.5664,W,2,11,1.02,4.7,M,-34.3,M,0000,0000*52 
117.364         GPS_NMEA_FROM_GPS    iGPS            $GPGGA,203940.000,4144.3504,N,06959.5665,W,2,11,1.02,4.7,M,-34.3,M,0000,0000*5C 
118.366         GPS_NMEA_FROM_GPS    iGPS            $GPRMC,203941.000,A,4144.3504,N,06959.5664,W,0.37,145.92,230321,,,D*7F 
119.369         GPS_NMEA_FROM_GPS    iGPS            $GPGGA,203942.000,4144.3503,N,06959.5664,W,2,11,1.02,4.8,M,-34.3,M,0000,0000*57 
120.371         GPS_NMEA_FROM_GPS    iGPS            $GPGGA,203943.000,4144.3502,N,06959.5662,W,2,11,1.02,4.8,M,-34.3,M,0000,0000*51 
121.374         GPS_NMEA_FROM_GPS    iGPS            $GPGGA,203944.000,4144.3501,N,06959.5661,W,2,11,0.90,4.8,M,-34.3,M,0000,0000*5C 
122.377         GPS_NMEA_FROM_GPS    iGPS            $GPRMC,203945.000,A,4144.3500,N,06959.5659,W,0.53,137.37,230321,,,D*79 
123.279         GPS_NMEA_FROM_GPS    iGPS            $GPGGA,203946.000,4144.3499,N,06959.5658,W,2,11,0.90,4.8,M,-34.3,M,0000,0000*54 
124.281         GPS_NMEA_FROM_GPS    iGPS            $GPGGA,203947.000,4144.3498,N,06959.5656,W,2,11,0.90,4.8,M,-34.3,M,0000,0000*5A 
125.384         GPS_NMEA_FROM_GPS    iGPS            $GPRMC,203948.000,A,4144.3497,N,06959.5655,W,0.51,131.32,230321,,,D*76 
126.386         GPS_NMEA_FROM_GPS    iGPS            $GPGGA,203949.000,4144.3496,N,06959.5653,W,2,11,0.90,4.7,M,-34.3,M,0000,0000*50 
127.389         GPS_NMEA_FROM_GPS    iGPS            $GPGGA,203950.000,4144.3495,N,06959.5652,W,2,11,0.90,4.7,M,-34.3,M,0000,0000*5A 
128.291         GPS_NMEA_FROM_GPS    iGPS            $GPGGA,203951.000,4144.3494,N,06959.5651,W,2,11,0.90,4.7,M,-34.3,M,0000,0000*59 
129.294         GPS_NMEA_FROM_GPS    iGPS            $GPGGA,203952.000,4144.3493,N,06959.5650,W,2,11,0.90,4.7,M,-34.3,M,0000,0000*5C 
130.397         GPS_NMEA_FROM_GPS    iGPS            $GPGGA,203953.000,4144.3491,N,06959.5649,W,2,11,1.02,4.8,M,-34.3,M,0000,0000*52 
131.399         GPS_NMEA_FROM_GPS    iGPS            $GPGGA,203954.000,4144.3490,N,06959.5649,W,2,11,1.02,4.8,M,-34.3,M,0000,0000*54 
132.302         GPS_NMEA_FROM_GPS    iGPS            $GPGGA,203955.000,4144.3488,N,06959.5648,W,2,11,1.02,4.8,M,-34.3,M,0000,0000*5D 
133.405         GPS_NMEA_FROM_GPS    iGPS            $GPRMC,203956.000,A,4144.3487,N,06959.5650,W,0.66,172.97,230321,,,D*71 
134.307         GPS_NMEA_FROM_GPS    iGPS            $GPGGA,203957.000,4144.3485,N,06959.5651,W,2,11,1.02,4.7,M,-34.3,M,0000,0000*55 
135.309         GPS_NMEA_FROM_GPS    iGPS            $GPGGA,203958.000,4144.3483,N,06959.5653,W,2,11,1.02,4.7,M,-34.3,M,0000,0000*5E 
136.412         GPS_NMEA_FROM_GPS    iGPS            $GPRMC,203959.000,A,4144.3481,N,06959.5655,W,0.70,192.76,230321,,,D*7B 
137.314         GPS_NMEA_FROM_GPS    iGPS            $GPGGA,204000.000,4144.3480,N,06959.5657,W,2,11,0.90,4.7,M,-34.3,M,0000,0000*50 
138.417         GPS_NMEA_FROM_GPS    iGPS            $GPRMC,204001.000,A,4144.3478,N,06959.5659,W,0.61,202.68,230321,,,D*77 
139.420         GPS_NMEA_FROM_GPS    iGPS            $GPRMC,204002.000,A,4144.3477,N,06959.5660,W,0.63,207.20,230321,,,D*7A 
140.422         GPS_NMEA_FROM_GPS    iGPS            $GPRMC,204003.000,A,4144.3475,N,06959.5662,W,0.59,210.35,230321,,,D*70 
141.425         GPS_NMEA_FROM_GPS    iGPS            $GPRMC,204004.000,A,4144.3474,N,06959.5664,W,0.62,213.21,230321,,,D*7E 
142.327         GPS_NMEA_FROM_GPS    iGPS            $GPGGA,204005.000,4144.3472,N,06959.5665,W,2,11,1.02,4.4,M,-34.3,M,0000,0000*50 
143.330         GPS_NMEA_FROM_GPS    iGPS            $GPGGA,204006.000,4144.3471,N,06959.5667,W,2,11,1.02,4.3,M,-34.3,M,0000,0000*55 
144.333         GPS_NMEA_FROM_GPS    iGPS            $GPGGA,204007.000,4144.3469,N,06959.5669,W,2,11,1.02,4.3,M,-34.3,M,0000,0000*53 
145.335         GPS_NMEA_FROM_GPS    iGPS            $GPGGA,204008.000,4144.3467,N,06959.5670,W,2,11,1.02,4.3,M,-34.3,M,0000,0000*5A 
146.339         GPS_NMEA_FROM_GPS    iGPS            $GPGGA,204009.000,4144.3465,N,06959.5671,W,2,11,0.90,4.4,M,-34.3,M,0000,0000*55 
147.341         GPS_NMEA_FROM_GPS    iGPS            $GPGGA,204010.000,4144.3463,N,06959.5672,W,2,11,0.90,4.4,M,-34.3,M,0000,0000*58 
148.344         GPS_NMEA_FROM_GPS    iGPS            $GPGGA,204011.000,4144.3461,N,06959.5673,W,2,11,1.02,4.5,M,-34.3,M,0000,0000*51 
149.346         GPS_NMEA_FROM_GPS    iGPS            $GPGGA,204012.000,4144.3459,N,06959.5673,W,2,11,0.90,4.6,M,-34.3,M,0000,0000*50 
150.349         GPS_NMEA_FROM_GPS    iGPS            $GPGGA,204013.000,4144.3457,N,06959.5674,W,2,11,0.90,4.6,M,-34.3,M,0000,0000*58 
151.351         GPS_NMEA_FROM_GPS    iGPS            $GPGGA,204014.000,4144.3454,N,06959.5674,W,2,11,0.90,4.7,M,-34.3,M,0000,0000*5D 
152.354         GPS_NMEA_FROM_GPS    iGPS            $GPGGA,204015.000,4144.3452,N,06959.5673,W,2,11,0.90,4.7,M,-34.3,M,0000,0000*5D 
153.356         GPS_NMEA_FROM_GPS    iGPS            $GPRMC,204016.000,A,4144.3450,N,06959.5673,W,0.74,177.14,230321,,,D*7D 
154.358         GPS_NMEA_FROM_GPS    iGPS            $GPGGA,204017.000,4144.3448,N,06959.5672,W,2,11,0.90,4.8,M,-34.3,M,0000,0000*5A 
155.361         GPS_NMEA_FROM_GPS    iGPS            $GPRMC,204018.000,A,4144.3445,N,06959.5672,W,0.71,172.87,230321,,,D*7C 
156.263         GPS_NMEA_FROM_GPS    iGPS            $GPGGA,204019.000,4144.3443,N,06959.5671,W,2,11,1.02,4.8,M,-34.3,M,0000,0000*56 
157.366         GPS_NMEA_FROM_GPS    iGPS            $GPGGA,204020.000,4144.3441,N,06959.5671,W,2,11,0.90,4.7,M,-34.3,M,0000,0000*5B 
158.369         GPS_NMEA_FROM_GPS    iGPS            $GPRMC,204021.000,A,4144.3439,N,06959.5671,W,0.76,171.47,230321,,,D*76 
159.371         GPS_NMEA_FROM_GPS    iGPS            $GPGGA,204022.000,4144.3437,N,06959.5671,W,2,11,0.90,4.6,M,-34.3,M,0000,0000*59 
160.374         GPS_NMEA_FROM_GPS    iGPS            $GPGGA,204023.000,4144.3435,N,06959.5671,W,2,11,0.90,4.5,M,-34.3,M,0000,0000*59 
161.377         GPS_NMEA_FROM_GPS    iGPS            $GPGGA,204024.000,4144.3433,N,06959.5671,W,2,11,0.90,4.4,M,-34.3,M,0000,0000*59 
162.379         GPS_NMEA_FROM_GPS    iGPS            $GPGGA,204025.000,4144.3431,N,06959.5671,W,2,11,0.90,4.4,M,-34.3,M,0000,0000*5A 
163.382         GPS_NMEA_FROM_GPS    iGPS            $GPGGA,204026.000,4144.3429,N,06959.5671,W,2,11,0.90,4.4,M,-34.3,M,0000,0000*50 
164.385         GPS_NMEA_FROM_GPS    iGPS            $GPGGA,204027.000,4144.3427,N,06959.5671,W,2,10,0.98,4.4,M,-34.3,M,0000,0000*56 
165.287         GPS_NMEA_FROM_GPS    iGPS            $GPGGA,204028.000,4144.3424,N,06959.5671,W,2,10,0.98,4.4,M,-34.3,M,0000,0000*5A 
166.290         GPS_NMEA_FROM_GPS    iGPS            $GPGGA,204029.000,4144.3422,N,06959.5672,W,2,10,0.98,4.4,M,-34.3,M,0000,0000*5E 
167.292         GPS_NMEA_FROM_GPS    iGPS            $GPGGA,204030.000,4144.3420,N,06959.5672,W,2,10,0.98,4.5,M,-34.3,M,0000,0000*55 
168.395         GPS_NMEA_FROM_GPS    iGPS            $GPGGA,204031.000,4144.3418,N,06959.5673,W,2,11,0.90,4.5,M,-34.3,M,0000,0000*57 
169.398         GPS_NMEA_FROM_GPS    iGPS            $GPRMC,204032.000,A,4144.3415,N,06959.5673,W,0.71,183.00,230321,,,D*71 
170.300         GPS_NMEA_FROM_GPS    iGPS            $GPGGA,204033.000,4144.3413,N,06959.5674,W,2,11,0.90,4.6,M,-34.3,M,0000,0000*5A 
171.302         GPS_NMEA_FROM_GPS    iGPS            $GPGGA,204034.000,4144.3411,N,06959.5675,W,2,10,1.22,4.6,M,-34.3,M,0000,0000*57 
172.405         GPS_NMEA_FROM_GPS    iGPS            $GPRMC,204035.000,A,4144.3409,N,06959.5675,W,0.74,184.69,230321,,,D*70 
173.408         GPS_NMEA_FROM_GPS    iGPS            $GPRMC,204036.000,A,4144.3407,N,06959.5675,W,0.69,185.03,230321,,,D*7C 
174.410         GPS_NMEA_FROM_GPS    iGPS            $GPRMC,204037.000,A,4144.3405,N,06959.5676,W,0.72,184.06,230321,,,D*72 
175.312         GPS_NMEA_FROM_GPS    iGPS            $GPGGA,204038.000,4144.3402,N,06959.5676,W,2,11,0.90,4.7,M,-34.3,M,0000,0000*52 
176.416         GPS_NMEA_FROM_GPS    iGPS            $GPRMC,204039.000,A,4144.3400,N,06959.5677,W,0.72,182.83,230321,,,D*73 
177.318         GPS_NMEA_FROM_GPS    iGPS            $GPRMC,204040.000,A,4144.3399,N,06959.5677,W,0.69,181.35,230321,,,D*7E 
178.320         GPS_NMEA_FROM_GPS    iGPS            $GPGGA,204041.000,4144.3396,N,06959.5677,W,2,11,0.90,4.8,M,-34.3,M,0000,0000*58 
179.323         GPS_NMEA_FROM_GPS    iGPS            $GPGGA,204042.000,4144.3394,N,06959.5677,W,2,11,0.90,4.9,M,-34.3,M,0000,0000*58 
180.326         GPS_NMEA_FROM_GPS    iGPS            $GPGGA,204043.000,4144.3392,N,06959.5677,W,2,11,1.02,4.9,M,-34.3,M,0000,0000*55 
181.328         GPS_NMEA_FROM_GPS    iGPS            $GPGGA,204044.000,4144.3389,N,06959.5676,W,2,11,0.90,4.9,M,-34.3,M,0000,0000*53 
182.331         GPS_NMEA_FROM_GPS    iGPS            $GPGGA,204045.000,4144.3387,N,06959.5676,W,2,11,0.90,4.9,M,-34.3,M,0000,0000*5C 
183.434         GPS_NMEA_FROM_GPS    iGPS            $GPRMC,204046.000,A,4144.3385,N,06959.5676,W,0.78,170.86,230321,,,D*72 
184.336         GPS_NMEA_FROM_GPS    iGPS            $GPGGA,204047.000,4144.3383,N,06959.5675,W,2,11,0.90,4.8,M,-34.3,M,0000,0000*58 
185.339         GPS_NMEA_FROM_GPS    iGPS            $GPGGA,204048.000,4144.3381,N,06959.5675,W,2,11,0.90,4.8,M,-34.3,M,0000,0000*55 
186.342         GPS_NMEA_FROM_GPS    iGPS            $GPGGA,204049.000,4144.3379,N,06959.5674,W,2,11,0.90,4.8,M,-34.3,M,0000,0000*52 
187.344         GPS_NMEA_FROM_GPS    iGPS            $GPGGA,204050.000,4144.3377,N,06959.5673,W,2,11,0.90,4.7,M,-34.3,M,0000,0000*5C 
188.347         GPS_NMEA_FROM_GPS    iGPS            $GPGGA,204051.000,4144.3375,N,06959.5671,W,2,11,0.90,4.7,M,-34.3,M,0000,0000*5D 
189.349         GPS_NMEA_FROM_GPS    iGPS            $GPGGA,204052.000,4144.3373,N,06959.5670,W,2,11,1.02,4.7,M,-34.3,M,0000,0000*53 
190.252         GPS_NMEA_FROM_GPS    iGPS            $GPGGA,204053.000,4144.3372,N,06959.5669,W,2,10,0.98,4.7,M,-34.3,M,0000,0000*58 
191.355         GPS_NMEA_FROM_GPS    iGPS            $GPGGA,204054.000,4144.3370,N,06959.5668,W,2,11,0.90,4.7,M,-34.3,M,0000,0000*55 
192.357         GPS_NMEA_FROM_GPS    iGPS            $GPGGA,204055.000,4144.3368,N,06959.5667,W,2,11,1.02,4.8,M,-34.3,M,0000,0000*57 
193.360         GPS_NMEA_FROM_GPS    iGPS            $GPRMC,204056.000,A,4144.3366,N,06959.5666,W,0.58,150.93,230321,,,D*7B 
194.362         GPS_NMEA_FROM_GPS    iGPS            $GPGGA,204057.000,4144.3364,N,06959.5665,W,2,11,0.90,4.9,M,-34.3,M,0000,0000*50 
195.365         GPS_NMEA_FROM_GPS    iGPS            $GPGGA,204058.000,4144.3363,N,06959.5663,W,2,11,1.02,5.0,M,-34.3,M,0000,0000*5C 
196.368         GPS_NMEA_FROM_GPS    iGPS            $GPRMC,204059.000,A,4144.3362,N,06959.5660,W,0.54,138.85,230321,,,D*73 
197.370         GPS_NMEA_FROM_GPS    iGPS            $GPGGA,204100.000,4144.3361,N,06959.5658,W,2,11,0.90,5.1,M,-34.3,M,0000,0000*51 
198.273         GPS_NMEA_FROM_GPS    iGPS            $GPGGA,204101.000,4144.3360,N,06959.5655,W,2,11,1.02,5.1,M,-34.3,M,0000,0000*56 
199.375         GPS_NMEA_FROM_GPS    iGPS            $GPGGA,204102.000,4144.3360,N,06959.5653,W,2,11,1.02,5.2,M,-34.3,M,0000,0000*50 
200.278         GPS_NMEA_FROM_GPS    iGPS            $GPGGA,204103.000,4144.3359,N,06959.5650,W,2,11,0.90,5.2,M,-34.3,M,0000,0000*52 
201.280         GPS_NMEA_FROM_GPS    iGPS            $GPGGA,204104.000,4144.3359,N,06959.5647,W,2,11,0.90,5.3,M,-34.3,M,0000,0000*52 
202.283         GPS_NMEA_FROM_GPS    iGPS            $GPGGA,204105.000,4144.3359,N,06959.5643,W,2,11,1.02,5.4,M,-34.3,M,0000,0000*5A 
203.286         GPS_NMEA_FROM_GPS    iGPS            $GPGGA,204106.000,4144.3359,N,06959.5640,W,2,11,0.90,5.4,M,-34.3,M,0000,0000*50 
204.389         GPS_NMEA_FROM_GPS    iGPS            $GPGGA,204107.000,4144.3360,N,06959.5637,W,2,11,0.90,5.4,M,-34.3,M,0000,0000*5B 
205.391         GPS_NMEA_FROM_GPS    iGPS            $GPGGA,204108.000,4144.3361,N,06959.5634,W,2,11,0.91,5.4,M,-34.3,M,0000,0000*57 
206.394         GPS_NMEA_FROM_GPS    iGPS            $GPRMC,204109.000,A,4144.3362,N,06959.5631,W,0.73,82.25,230321,,,D*4C 
207.397         GPS_NMEA_FROM_GPS    iGPS            $GPGGA,204110.000,4144.3362,N,06959.5627,W,2,11,0.90,5.4,M,-34.3,M,0000,0000*5E 
208.400         GPS_NMEA_FROM_GPS    iGPS            $GPGGA,204111.000,4144.3363,N,06959.5624,W,2,11,0.90,5.4,M,-34.3,M,0000,0000*5D 
209.402         GPS_NMEA_FROM_GPS    iGPS            $GPGGA,204112.000,4144.3364,N,06959.5621,W,2,11,1.02,5.4,M,-34.3,M,0000,0000*56 
210.305         GPS_NMEA_FROM_GPS    iGPS            $GPGGA,204113.000,4144.3364,N,06959.5618,W,2,11,0.90,5.3,M,-34.3,M,0000,0000*50 
211.307         GPS_NMEA_FROM_GPS    iGPS            $GPGGA,204114.000,4144.3364,N,06959.5615,W,2,11,0.90,5.4,M,-34.3,M,0000,0000*5D 
212.410         GPS_NMEA_FROM_GPS    iGPS            $GPGGA,204115.000,4144.3364,N,06959.5612,W,2,11,0.90,5.5,M,-34.3,M,0000,0000*5A 
213.312         GPS_NMEA_FROM_GPS    iGPS            $GPGGA,204116.000,4144.3364,N,06959.5609,W,2,11,1.02,5.6,M,-34.3,M,0000,0000*5A 
214.415         GPS_NMEA_FROM_GPS    iGPS            $GPRMC,204117.000,A,4144.3364,N,06959.5606,W,0.71,87.93,230321,,,D*4B 
215.416         GPS_NMEA_FROM_GPS    iGPS            $GPRMC,204118.000,A,4144.3364,N,06959.5603,W,0.70,91.54,230321,,,D*4C 
216.419         GPS_NMEA_FROM_GPS    iGPS            $GPRMC,204119.000,A,4144.3363,N,06959.5600,W,0.72,95.96,230321,,,D*41 
217.421         GPS_NMEA_FROM_GPS    iGPS            $GPRMC,204120.000,A,4144.3362,N,06959.5597,W,0.75,100.74,230321,,,D*71 
218.323         GPS_NMEA_FROM_GPS    iGPS            $GPRMC,204121.000,A,4144.3362,N,06959.5595,W,0.69,104.05,230321,,,D*7D 
219.326         GPS_NMEA_FROM_GPS    iGPS            $GPGGA,204122.000,4144.3361,N,06959.5592,W,2,11,0.90,5.6,M,-34.3,M,0000,0000*53 
220.329         GPS_NMEA_FROM_GPS    iGPS            $GPRMC,204123.000,A,4144.3360,N,06959.5589,W,0.70,109.80,230321,,,D*78 
221.332         GPS_NMEA_FROM_GPS    iGPS            $GPGGA,204124.000,4144.3359,N,06959.5587,W,2,11,0.90,5.5,M,-34.3,M,0000,0000*59 
222.334         GPS_NMEA_FROM_GPS    iGPS            $GPGGA,204125.000,4144.3358,N,06959.5585,W,2,11,1.02,5.5,M,-34.3,M,0000,0000*51 
223.337         GPS_NMEA_FROM_GPS    iGPS            $GPGGA,204126.000,4144.3358,N,06959.5582,W,2,11,0.90,5.5,M,-34.3,M,0000,0000*5F 
224.340         GPS_NMEA_FROM_GPS    iGPS            $GPRMC,204127.000,A,4144.3357,N,06959.5579,W,0.68,112.62,230321,,,D*78 
225.342         GPS_NMEA_FROM_GPS    iGPS            $GPGGA,204128.000,4144.3356,N,06959.5577,W,2,11,1.02,5.6,M,-34.3,M,0000,0000*5C 
226.345         GPS_NMEA_FROM_GPS    iGPS            $GPGGA,204129.000,4144.3356,N,06959.5574,W,2,11,0.91,5.6,M,-34.3,M,0000,0000*55 
227.347         GPS_NMEA_FROM_GPS    iGPS            $GPGGA,204130.000,4144.3355,N,06959.5571,W,2,11,0.91,5.6,M,-34.3,M,0000,0000*5B 
228.350         GPS_NMEA_FROM_GPS    iGPS            $GPRMC,204131.000,A,4144.3355,N,06959.5569,W,0.72,108.81,230321,,,D*71 
229.353         GPS_NMEA_FROM_GPS    iGPS            $GPGGA,204132.000,4144.3354,N,06959.5566,W,2,11,0.90,5.6,M,-34.3,M,0000,0000*5F 
230.355         GPS_NMEA_FROM_GPS    iGPS            $GPGGA,204133.000,4144.3354,N,06959.5563,W,2,11,1.02,5.6,M,-34.3,M,0000,0000*51 
231.358         GPS_NMEA_FROM_GPS    iGPS            $GPGGA,204134.000,4144.3354,N,06959.5560,W,2,11,0.91,5.7,M,-34.3,M,0000,0000*5F 
232.361         GPS_NMEA_FROM_GPS    iGPS            $GPRMC,204135.000,A,4144.3353,N,06959.5557,W,0.74,102.13,230321,,,D*79 
233.363         GPS_NMEA_FROM_GPS    iGPS            $GPGGA,204136.000,4144.3353,N,06959.5554,W,2,11,0.91,5.6,M,-34.3,M,0000,0000*5C 
234.265         GPS_NMEA_FROM_GPS    iGPS            $GPGGA,204137.000,4144.3353,N,06959.5551,W,2,10,0.98,5.7,M,-34.3,M,0000,0000*51 
235.268         GPS_NMEA_FROM_GPS    iGPS            $GPGGA,204138.000,4144.3353,N,06959.5548,W,2,11,0.90,5.6,M,-34.3,M,0000,0000*5E 
236.371         GPS_NMEA_FROM_GPS    iGPS            $GPGGA,204139.000,4144.3353,N,06959.5545,W,2,11,0.91,5.7,M,-34.3,M,0000,0000*52 
237.374         GPS_NMEA_FROM_GPS    iGPS            $GPGGA,204140.000,4144.3353,N,06959.5542,W,2,11,0.91,5.6,M,-34.3,M,0000,0000*5A 
238.376         GPS_NMEA_FROM_GPS    iGPS            $GPGGA,204141.000,4144.3353,N,06959.5539,W,2,11,0.91,5.7,M,-34.3,M,0000,0000*56 
239.279         GPS_NMEA_FROM_GPS    iGPS            $GPGGA,204142.000,4144.3353,N,06959.5536,W,2,11,0.91,5.7,M,-34.3,M,0000,0000*5A 
240.281         GPS_NMEA_FROM_GPS    iGPS            $GPGGA,204143.000,4144.3353,N,06959.5533,W,2,11,0.91,5.7,M,-34.3,M,0000,0000*5E 
241.284         GPS_NMEA_FROM_GPS    iGPS            $GPGGA,204144.000,4144.3353,N,06959.5530,W,2,11,0.91,5.7,M,-34.3,M,0000,0000*5A 
242.387         GPS_NMEA_FROM_GPS    iGPS            $GPGGA,204145.000,4144.3353,N,06959.5527,W,2,11,0.91,5.7,M,-34.3,M,0000,0000*5D 
243.289         GPS_NMEA_FROM_GPS    iGPS            $GPGGA,204146.000,4144.3353,N,06959.5524,W,2,11,0.90,5.7,M,-34.3,M,0000,0000*5C 
244.392         GPS_NMEA_FROM_GPS    iGPS            $GPGGA,204147.000,4144.3353,N,06959.5521,W,2,11,0.91,5.7,M,-34.3,M,0000,0000*59 
245.295         GPS_NMEA_FROM_GPS    iGPS            $GPGGA,204148.000,4144.3352,N,06959.5518,W,2,11,0.91,5.7,M,-34.3,M,0000,0000*5D 
246.397         GPS_NMEA_FROM_GPS    iGPS            $GPGGA,204149.000,4144.3352,N,06959.5515,W,2,11,0.91,5.8,M,-34.3,M,0000,0000*5E 
247.400         GPS_NMEA_FROM_GPS    iGPS            $GPGGA,204150.000,4144.3352,N,06959.5512,W,2,11,0.91,5.8,M,-34.3,M,0000,0000*51 
248.403         GPS_NMEA_FROM_GPS    iGPS            $GPGGA,204151.000,4144.3351,N,06959.5509,W,2,11,0.91,5.8,M,-34.3,M,0000,0000*59 
249.305         GPS_NMEA_FROM_GPS    iGPS            $GPGGA,204152.000,4144.3351,N,06959.5507,W,2,11,0.91,5.8,M,-34.3,M,0000,0000*54 
250.408         GPS_NMEA_FROM_GPS    iGPS            $GPRMC,204153.000,A,4144.3350,N,06959.5504,W,0.75,98.93,230321,,,D*47 
251.412         GPS_NMEA_FROM_GPS    iGPS            $GPRMC,204154.000,A,4144.3350,N,06959.5501,W,0.73,99.40,230321,,,D*4C 
252.314         GPS_NMEA_FROM_GPS    iGPS            $GPGGA,204155.000,4144.3349,N,06959.5499,W,2,11,0.91,5.9,M,-34.3,M,0000,0000*5D 
253.317         GPS_NMEA_FROM_GPS    iGPS            $GPRMC,204156.000,A,4144.3349,N,06959.5496,W,0.74,99.90,230321,,,D*43 
254.319         GPS_NMEA_FROM_GPS    iGPS            $GPGGA,204157.000,4144.3349,N,06959.5493,W,2,11,0.91,6.0,M,-34.3,M,0000,0000*5F 
255.323         GPS_NMEA_FROM_GPS    iGPS            $GPRMC,204158.000,A,4144.3348,N,06959.5491,W,0.72,99.86,230321,,,D*4A 
256.325         GPS_NMEA_FROM_GPS    iGPS            $GPGGA,204159.000,4144.3348,N,06959.5488,W,2,11,0.91,6.1,M,-34.3,M,0000,0000*5B 
257.327         GPS_NMEA_FROM_GPS    iGPS            $GPGGA,204200.000,4144.3347,N,06959.5485,W,2,11,0.91,6.1,M,-34.3,M,0000,0000*56 
258.330         GPS_NMEA_FROM_GPS    iGPS            $GPGGA,204201.000,4144.3347,N,06959.5482,W,2,11,0.91,6.2,M,-34.3,M,0000,0000*53 
259.333         GPS_NMEA_FROM_GPS    iGPS            $GPGGA,204202.000,4144.3347,N,06959.5480,W,2,11,1.02,6.2,M,-34.3,M,0000,0000*59 
260.235         GPS_NMEA_FROM_GPS    iGPS            $GPGGA,204203.000,4144.3346,N,06959.5477,W,2,11,0.91,6.2,M,-34.3,M,0000,0000*5A 
261.238         GPS_NMEA_FROM_GPS    iGPS            $GPGGA,204204.000,4144.3346,N,06959.5475,W,2,11,0.91,6.3,M,-34.3,M,0000,0000*5E 
262.240         GPS_NMEA_FROM_GPS    iGPS            $GPGGA,204205.000,4144.3346,N,06959.5473,W,2,11,0.91,6.3,M,-34.3,M,0000,0000*59 
263.343         GPS_NMEA_FROM_GPS    iGPS            $GPGGA,204206.000,4144.3346,N,06959.5470,W,2,11,0.91,6.3,M,-34.3,M,0000,0000*59 
264.346         GPS_NMEA_FROM_GPS    iGPS            $GPRMC,204207.000,A,4144.3346,N,06959.5469,W,0.49,88.61,230321,,,D*4B 
265.348         GPS_NMEA_FROM_GPS    iGPS            $GPGGA,204208.000,4144.3347,N,06959.5468,W,2,11,0.91,6.4,M,-34.3,M,0000,0000*58 
266.351         GPS_NMEA_FROM_GPS    iGPS            $GPRMC,204209.000,A,4144.3347,N,06959.5466,W,0.46,81.63,230321,,,D*4F 
267.353         GPS_NMEA_FROM_GPS    iGPS            $GPGGA,204210.000,4144.3348,N,06959.5465,W,2,11,0.91,6.5,M,-34.3,M,0000,0000*52 
268.356         GPS_NMEA_FROM_GPS    iGPS            $GPGGA,204211.000,4144.3349,N,06959.5463,W,2,11,0.91,6.5,M,-34.3,M,0000,0000*54 
269.358         GPS_NMEA_FROM_GPS    iGPS            $GPGGA,204212.000,4144.3349,N,06959.5462,W,2,11,0.91,6.5,M,-34.3,M,0000,0000*56 
270.361         GPS_NMEA_FROM_GPS    iGPS            $GPGGA,204213.000,4144.3350,N,06959.5462,W,2,11,0.91,6.5,M,-34.3,M,0000,0000*5F 
271.364         GPS_NMEA_FROM_GPS    iGPS            $GPRMC,204214.000,A,4144.3352,N,06959.5461,W,0.43,38.87,230321,,,D*4D 
272.266         GPS_NMEA_FROM_GPS    iGPS            $GPGGA,204215.000,4144.3353,N,06959.5461,W,2,11,1.02,6.5,M,-34.3,M,0000,0000*52 
273.369         GPS_NMEA_FROM_GPS    iGPS            $GPGGA,204216.000,4144.3354,N,06959.5461,W,2,11,1.02,6.5,M,-34.3,M,0000,0000*56 
274.372         GPS_NMEA_FROM_GPS    iGPS            $GPGGA,204217.000,4144.3356,N,06959.5462,W,2,11,1.02,6.5,M,-34.3,M,0000,0000*56 
275.375         GPS_NMEA_FROM_GPS    iGPS            $GPRMC,204218.000,A,4144.3358,N,06959.5462,W,0.61,354.28,230321,,,D*74 
276.377         GPS_NMEA_FROM_GPS    iGPS            $GPGGA,204219.000,4144.3360,N,06959.5463,W,2,11,0.91,6.4,M,-34.3,M,0000,0000*56 
277.279         GPS_NMEA_FROM_GPS    iGPS            $GPGGA,204220.000,4144.3362,N,06959.5463,W,2,11,0.91,6.5,M,-34.3,M,0000,0000*5F 
278.283         GPS_NMEA_FROM_GPS    iGPS            $GPGGA,204221.000,4144.3364,N,06959.5463,W,2,11,0.91,6.5,M,-34.3,M,0000,0000*58 
279.285         GPS_NMEA_FROM_GPS    iGPS            $GPGGA,204222.000,4144.3366,N,06959.5464,W,2,11,0.91,6.6,M,-34.3,M,0000,0000*5D 
280.287         GPS_NMEA_FROM_GPS    iGPS            $GPGGA,204223.000,4144.3368,N,06959.5464,W,2,11,0.91,6.5,M,-34.3,M,0000,0000*51 
281.290         GPS_NMEA_FROM_GPS    iGPS            $GPGGA,204224.000,4144.3370,N,06959.5465,W,2,11,1.02,6.5,M,-34.3,M,0000,0000*55 
282.292         GPS_NMEA_FROM_GPS    iGPS            $GPGGA,204225.000,4144.3372,N,06959.5465,W,2,11,1.02,6.5,M,-34.3,M,0000,0000*56 
283.295         GPS_NMEA_FROM_GPS    iGPS            $GPGGA,204226.000,4144.3373,N,06959.5465,W,2,11,1.02,6.5,M,-34.3,M,0000,0000*54 
284.399         GPS_NMEA_FROM_GPS    iGPS            $GPRMC,204227.000,A,4144.3375,N,06959.5465,W,0.70,355.96,230321,,,D*74 
285.301         GPS_NMEA_FROM_GPS    iGPS            $GPGGA,204228.000,4144.3377,N,06959.5465,W,2,11,1.02,6.5,M,-34.3,M,0000,0000*5E 
286.303         GPS_NMEA_FROM_GPS    iGPS            $GPGGA,204229.000,4144.3378,N,06959.5464,W,2,11,1.02,6.5,M,-34.3,M,0000,0000*51 
287.406         GPS_NMEA_FROM_GPS    iGPS            $GPRMC,204230.000,A,4144.3380,N,06959.5463,W,0.63,8.68,230321,,,D*76 
288.309         GPS_NMEA_FROM_GPS    iGPS            $GPGGA,204231.000,4144.3381,N,06959.5461,W,2,11,0.91,6.5,M,-34.3,M,0000,0000*50 
289.311         GPS_NMEA_FROM_GPS    iGPS            $GPGGA,204232.000,4144.3383,N,06959.5460,W,2,09,1.05,6.4,M,-34.3,M,0000,0000*54 
290.314         GPS_NMEA_FROM_GPS    iGPS            $GPGGA,204233.000,4144.3385,N,06959.5459,W,2,09,1.05,6.4,M,-34.3,M,0000,0000*59 
291.316         GPS_NMEA_FROM_GPS    iGPS            $GPGGA,204234.000,4144.3387,N,06959.5457,W,2,09,1.05,6.3,M,-34.3,M,0000,0000*55 
292.319         GPS_NMEA_FROM_GPS    iGPS            $GPGGA,204235.000,4144.3388,N,06959.5455,W,2,10,0.99,6.3,M,-34.3,M,0000,0000*55 
293.322         GPS_NMEA_FROM_GPS    iGPS            $GPRMC,204236.000,A,4144.3390,N,06959.5454,W,0.71,23.98,230321,,,D*40 
294.325         GPS_NMEA_FROM_GPS    iGPS            $GPGGA,204237.000,4144.3391,N,06959.5453,W,2,11,0.91,6.3,M,-34.3,M,0000,0000*50 
295.327         GPS_NMEA_FROM_GPS    iGPS            $GPGGA,204238.000,4144.3392,N,06959.5452,W,2,11,0.91,6.3,M,-34.3,M,0000,0000*5D 
296.330         GPS_NMEA_FROM_GPS    iGPS            $GPGGA,204239.000,4144.3394,N,06959.5451,W,2,10,0.99,6.3,M,-34.3,M,0000,0000*50 
297.333         GPS_NMEA_FROM_GPS    iGPS            $GPRMC,204240.000,A,4144.3395,N,06959.5450,W,0.72,23.78,230321,,,D*4D 
298.335         GPS_NMEA_FROM_GPS    iGPS            $GPGGA,204241.000,4144.3397,N,06959.5450,W,2,10,0.99,6.3,M,-34.3,M,0000,0000*5D 
299.338         GPS_NMEA_FROM_GPS    iGPS            $GPGGA,204242.000,4144.3399,N,06959.5449,W,2,11,0.91,6.3,M,-34.3,M,0000,0000*51 
300.340         GPS_NMEA_FROM_GPS    iGPS            $GPGGA,204243.000,4144.3401,N,06959.5448,W,2,11,0.91,6.2,M,-34.3,M,0000,0000*56 
301.343         GPS_NMEA_FROM_GPS    iGPS            $GPGGA,204244.000,4144.3402,N,06959.5448,W,2,11,1.02,6.2,M,-34.3,M,0000,0000*59 
302.345         GPS_NMEA_FROM_GPS    iGPS            $GPGGA,204245.000,4144.3404,N,06959.5448,W,2,11,1.02,6.3,M,-34.3,M,0000,0000*5F 
303.249         GPS_NMEA_FROM_GPS    iGPS            $GPGGA,204246.000,4144.3406,N,06959.5447,W,2,11,1.02,6.3,M,-34.3,M,0000,0000*51 
304.252         GPS_NMEA_FROM_GPS    iGPS            $GPGGA,204247.000,4144.3408,N,06959.5447,W,2,10,1.15,6.3,M,-34.3,M,0000,0000*59 
305.355         GPS_NMEA_FROM_GPS    iGPS            $GPRMC,204248.000,A,4144.3411,N,06959.5447,W,0.77,9.20,230321,,,D*78 
306.257         GPS_NMEA_FROM_GPS    iGPS            $GPGGA,204249.000,4144.3413,N,06959.5447,W,2,10,1.15,6.3,M,-34.3,M,0000,0000*5D 
307.259         GPS_NMEA_FROM_GPS    iGPS            $GPGGA,204250.000,4144.3416,N,06959.5447,W,2,10,1.16,6.3,M,-34.3,M,0000,0000*53 
308.262         GPS_NMEA_FROM_GPS    iGPS            $GPGGA,204251.000,4144.3418,N,06959.5447,W,2,10,1.16,6.3,M,-34.3,M,0000,0000*5C 
309.265         GPS_NMEA_FROM_GPS    iGPS            $GPGGA,204252.000,4144.3420,N,06959.5447,W,2,11,1.03,6.3,M,-34.3,M,0000,0000*51 
310.367         GPS_NMEA_FROM_GPS    iGPS            $GPGGA,204253.000,4144.3423,N,06959.5447,W,2,11,1.03,6.3,M,-34.3,M,0000,0000*53 
311.370         GPS_NMEA_FROM_GPS    iGPS            $GPGGA,204254.000,4144.3425,N,06959.5447,W,2,11,1.03,6.2,M,-34.3,M,0000,0000*53 
312.373         GPS_NMEA_FROM_GPS    iGPS            $GPRMC,204255.000,A,4144.3427,N,06959.5447,W,0.80,3.20,230321,,,D*73 
313.375         GPS_NMEA_FROM_GPS    iGPS            $GPRMC,204256.000,A,4144.3429,N,06959.5447,W,0.79,3.15,230321,,,D*7E 
314.277         GPS_NMEA_FROM_GPS    iGPS            $GPGGA,204257.000,4144.3431,N,06959.5447,W,2,11,1.03,6.2,M,-34.3,M,0000,0000*55 
315.280         GPS_NMEA_FROM_GPS    iGPS            $GPGGA,204258.000,4144.3432,N,06959.5447,W,2,11,1.03,6.2,M,-34.3,M,0000,0000*59 
316.282         GPS_NMEA_FROM_GPS    iGPS            $GPGGA,204259.000,4144.3434,N,06959.5446,W,2,11,1.02,6.2,M,-34.3,M,0000,0000*5E 
317.385         GPS_NMEA_FROM_GPS    iGPS            $GPGGA,204300.000,4144.3436,N,06959.5446,W,2,10,1.09,6.2,M,-34.3,M,0000,0000*5B 
318.388         GPS_NMEA_FROM_GPS    iGPS            $GPRMC,204301.000,A,4144.3438,N,06959.5446,W,0.81,7.72,230321,,,D*7E 
319.290         GPS_NMEA_FROM_GPS    iGPS            $GPGGA,204302.000,4144.3440,N,06959.5445,W,2,10,1.09,6.2,M,-34.3,M,0000,0000*5B 
320.393         GPS_NMEA_FROM_GPS    iGPS            $GPRMC,204303.000,A,4144.3441,N,06959.5444,W,0.76,10.19,230321,,,D*43 
321.295         GPS_NMEA_FROM_GPS    iGPS            $GPGGA,204304.000,4144.3443,N,06959.5444,W,2,10,1.09,6.3,M,-34.3,M,0000,0000*5E 
322.398         GPS_NMEA_FROM_GPS    iGPS            $GPRMC,204305.000,A,4144.3445,N,06959.5443,W,0.73,12.14,230321,,,D*4C 
323.300         GPS_NMEA_FROM_GPS    iGPS            $GPGGA,204306.000,4144.3446,N,06959.5442,W,2,10,1.09,6.2,M,-34.3,M,0000,0000*5E 
324.303         GPS_NMEA_FROM_GPS    iGPS            $GPGGA,204307.000,4144.3448,N,06959.5441,W,2,10,1.09,6.2,M,-34.3,M,0000,0000*52 
325.306         GPS_NMEA_FROM_GPS    iGPS            $GPGGA,204308.000,4144.3450,N,06959.5440,W,2,10,0.99,6.2,M,-34.3,M,0000,0000*5D 
326.309         GPS_NMEA_FROM_GPS    iGPS            $GPGGA,204309.000,4144.3451,N,06959.5440,W,2,10,0.99,6.2,M,-34.3,M,0000,0000*5D 
327.311         GPS_NMEA_FROM_GPS    iGPS            $GPGGA,204310.000,4144.3453,N,06959.5439,W,2,11,1.03,6.2,M,-34.3,M,0000,0000*5A 
328.314         GPS_NMEA_FROM_GPS    iGPS            $GPGGA,204311.000,4144.3455,N,06959.5439,W,2,11,1.03,6.2,M,-34.3,M,0000,0000*5D 
329.317         GPS_NMEA_FROM_GPS    iGPS            $GPGGA,204312.000,4144.3457,N,06959.5438,W,2,11,1.03,6.2,M,-34.3,M,0000,0000*5D 
330.319         GPS_NMEA_FROM_GPS    iGPS            $GPGGA,204313.000,4144.3459,N,06959.5438,W,2,11,1.03,6.2,M,-34.3,M,0000,0000*52 
331.322         GPS_NMEA_FROM_GPS    iGPS            $GPGGA,204314.000,4144.3461,N,06959.5438,W,2,11,1.03,6.2,M,-34.3,M,0000,0000*5E 
332.324         GPS_NMEA_FROM_GPS    iGPS            $GPGGA,204315.000,4144.3463,N,06959.5438,W,2,11,1.03,6.2,M,-34.3,M,0000,0000*5D 
333.326         GPS_NMEA_FROM_GPS    iGPS            $GPGGA,204316.000,4144.3465,N,06959.5438,W,2,11,1.03,6.2,M,-34.3,M,0000,0000*58 
334.329         GPS_NMEA_FROM_GPS    iGPS            $GPGGA,204317.000,4144.3468,N,06959.5438,W,2,11,1.03,6.2,M,-34.3,M,0000,0000*54 
335.332         GPS_NMEA_FROM_GPS    iGPS            $GPGGA,204318.000,4144.3470,N,06959.5438,W,2,11,1.03,6.2,M,-34.3,M,0000,0000*52 
336.335         GPS_NMEA_FROM_GPS    iGPS            $GPGGA,204319.000,4144.3473,N,06959.5438,W,2,11,1.03,6.2,M,-34.3,M,0000,0000*50 
337.337         GPS_NMEA_FROM_GPS    iGPS            $GPGGA,204320.000,4144.3475,N,06959.5438,W,2,11,1.03,6.2,M,-34.3,M,0000,0000*5C 
338.340         GPS_NMEA_FROM_GPS    iGPS            $GPGGA,204321.000,4144.3477,N,06959.5438,W,2,11,1.03,6.3,M,-34.3,M,0000,0000*5E 
339.342         GPS_NMEA_FROM_GPS    iGPS            $GPGGA,204322.000,4144.3480,N,06959.5439,W,2,11,1.03,6.3,M,-34.3,M,0000,0000*54 
340.345         GPS_NMEA_FROM_GPS    iGPS            $GPRMC,204323.000,A,4144.3483,N,06959.5439,W,0.76,358.36,230321,,,D*77 
341.348         GPS_NMEA_FROM_GPS    iGPS            $GPRMC,204324.000,A,4144.3485,N,06959.5439,W,0.78,357.29,230321,,,D*79 
342.350         GPS_NMEA_FROM_GPS    iGPS            $GPGGA,204325.000,4144.3488,N,06959.5440,W,2,11,1.03,6.3,M,-34.3,M,0000,0000*55 
342.350         GPS_NMEA_FROM_GPS    iGPS            $GPGGA,204325.000,4144.3488,N,06959.5440,W,2,11,1.03,6.3,M,-34.3,M,0000,0000*55 
343.353         GPS_NMEA_FROM_GPS    iGPS            $GPGGA,204326.000,4144.3491,N,06959.5440,W,2,11,1.03,6.3,M,-34.3,M,0000,0000*5E 
344.355         GPS_NMEA_FROM_GPS    iGPS            $GPGGA,204327.000,4144.3493,N,06959.5440,W,2,11,1.03,6.3,M,-34.3,M,0000,0000*5D 
345.358         GPS_NMEA_FROM_GPS    iGPS            $GPGGA,204328.000,4144.3495,N,06959.5440,W,2,11,1.03,6.3,M,-34.3,M,0000,0000*54 
346.360         GPS_NMEA_FROM_GPS    iGPS            $GPGGA,204329.000,4144.3497,N,06959.5441,W,2,11,1.03,6.3,M,-34.3,M,0000,0000*56 
347.363         GPS_NMEA_FROM_GPS    iGPS            $GPRMC,204330.000,A,4144.3499,N,06959.5442,W,0.56,350.58,230321,,,D*70 
348.366         GPS_NMEA_FROM_GPS    iGPS            $GPGGA,204331.000,4144.3501,N,06959.5442,W,2,10,0.98,6.3,M,-34.3,M,0000,0000*50 
349.369         GPS_NMEA_FROM_GPS    iGPS            $GPRMC,204332.000,A,4144.3503,N,06959.5442,W,0.51,343.82,230321,,,D*72 
350.271         GPS_NMEA_FROM_GPS    iGPS            $GPGGA,204333.000,4144.3505,N,06959.5443,W,2,11,0.91,6.3,M,-34.3,M,0000,0000*5F 
351.374         GPS_NMEA_FROM_GPS    iGPS            $GPGGA,204334.000,4144.3506,N,06959.5444,W,2,11,0.91,6.3,M,-34.3,M,0000,0000*5C 
352.376         GPS_NMEA_FROM_GPS    iGPS            $GPGGA,204335.000,4144.3507,N,06959.5446,W,2,11,0.91,6.3,M,-34.3,M,0000,0000*5E 
353.379         GPS_NMEA_FROM_GPS    iGPS            $GPGGA,204336.000,4144.3507,N,06959.5447,W,2,11,0.91,6.3,M,-34.3,M,0000,0000*5C 
354.382         GPS_NMEA_FROM_GPS    iGPS            $GPGGA,204337.000,4144.3508,N,06959.5449,W,2,11,0.91,6.3,M,-34.3,M,0000,0000*5C 
355.284         GPS_NMEA_FROM_GPS    iGPS            $GPGGA,204338.000,4144.3508,N,06959.5451,W,2,10,0.99,6.3,M,-34.3,M,0000,0000*53 
356.387         GPS_NMEA_FROM_GPS    iGPS            $GPGGA,204339.000,4144.3508,N,06959.5453,W,2,10,0.99,6.3,M,-34.3,M,0000,0000*50 
357.290         GPS_NMEA_FROM_GPS    iGPS            $GPGGA,204340.000,4144.3507,N,06959.5457,W,2,10,0.99,6.2,M,-34.3,M,0000,0000*54 
358.293         GPS_NMEA_FROM_GPS    iGPS            $GPGGA,204341.000,4144.3507,N,06959.5460,W,2,10,1.09,6.2,M,-34.3,M,0000,0000*59 
359.395         GPS_NMEA_FROM_GPS    iGPS            $GPGGA,204342.000,4144.3506,N,06959.5463,W,2,10,0.99,6.2,M,-34.3,M,0000,0000*50 
360.398         GPS_NMEA_FROM_GPS    iGPS            $GPGGA,204343.000,4144.3506,N,06959.5466,W,2,10,0.99,6.3,M,-34.3,M,0000,0000*55 
361.301         GPS_NMEA_FROM_GPS    iGPS            $GPGGA,204344.000,4144.3505,N,06959.5469,W,2,10,0.99,6.3,M,-34.3,M,0000,0000*5E 
362.304         GPS_NMEA_FROM_GPS    iGPS            $GPGGA,204345.000,4144.3505,N,06959.5472,W,2,11,0.91,6.3,M,-34.3,M,0000,0000*5C 
363.306         GPS_NMEA_FROM_GPS    iGPS            $GPGGA,204346.000,4144.3505,N,06959.5475,W,2,11,0.91,6.4,M,-34.3,M,0000,0000*5F 
364.410         GPS_NMEA_FROM_GPS    iGPS            $GPGGA,204347.000,4144.3506,N,06959.5479,W,2,11,1.03,6.4,M,-34.3,M,0000,0000*5B 
365.412         GPS_NMEA_FROM_GPS    iGPS            $GPGGA,204348.000,4144.3506,N,06959.5482,W,2,11,0.91,6.5,M,-34.3,M,0000,0000*5B 
366.415         GPS_NMEA_FROM_GPS    iGPS            $GPGGA,204349.000,4144.3507,N,06959.5485,W,2,11,0.91,6.5,M,-34.3,M,0000,0000*5C 
367.317         GPS_NMEA_FROM_GPS    iGPS            $GPGGA,204350.000,4144.3507,N,06959.5488,W,2,11,0.91,6.4,M,-34.3,M,0000,0000*58 
368.321         GPS_NMEA_FROM_GPS    iGPS            $GPGGA,204351.000,4144.3508,N,06959.5491,W,2,11,0.91,6.4,M,-34.3,M,0000,0000*5E 
369.324         GPS_NMEA_FROM_GPS    iGPS            $GPGGA,204352.000,4144.3508,N,06959.5493,W,2,11,0.91,6.3,M,-34.3,M,0000,0000*58 
370.326         GPS_NMEA_FROM_GPS    iGPS            $GPGGA,204353.000,4144.3509,N,06959.5496,W,2,11,0.91,6.3,M,-34.3,M,0000,0000*5D 
371.329         GPS_NMEA_FROM_GPS    iGPS            $GPGGA,204354.000,4144.3509,N,06959.5499,W,2,11,1.03,6.2,M,-34.3,M,0000,0000*5E 
372.432         GPS_NMEA_FROM_GPS    iGPS            $GPRMC,204355.000,A,4144.3510,N,06959.5502,W,0.84,277.27,230321,,,D*75 
373.334         GPS_NMEA_FROM_GPS    iGPS            $GPGGA,204356.000,4144.3511,N,06959.5504,W,2,10,0.99,6.2,M,-34.3,M,0000,0000*53 
374.437         GPS_NMEA_FROM_GPS    iGPS            $GPRMC,204357.000,A,4144.3512,N,06959.5507,W,0.78,284.67,230321,,,D*7B 
375.340         GPS_NMEA_FROM_GPS    iGPS            $GPGGA,204358.000,4144.3514,N,06959.5510,W,2,11,0.91,6.3,M,-34.3,M,0000,0000*55 
376.342         GPS_NMEA_FROM_GPS    iGPS            $GPGGA,204359.000,4144.3515,N,06959.5513,W,2,10,0.99,6.3,M,-34.3,M,0000,0000*5F 
377.345         GPS_NMEA_FROM_GPS    iGPS            $GPGGA,204400.000,4144.3516,N,06959.5516,W,2,11,0.91,6.3,M,-34.3,M,0000,0000*5B 
378.347         GPS_NMEA_FROM_GPS    iGPS            $GPGGA,204401.000,4144.3517,N,06959.5519,W,2,11,1.03,6.2,M,-34.3,M,0000,0000*5F 
379.350         GPS_NMEA_FROM_GPS    iGPS            $GPGGA,204402.000,4144.3518,N,06959.5522,W,2,11,0.91,6.1,M,-34.3,M,0000,0000*52 
380.353         GPS_NMEA_FROM_GPS    iGPS            $GPGGA,204403.000,4144.3519,N,06959.5526,W,2,11,0.91,6.0,M,-34.3,M,0000,0000*57 
381.355         GPS_NMEA_FROM_GPS    iGPS            $GPGGA,204404.000,4144.3520,N,06959.5529,W,2,11,1.03,5.9,M,-34.3,M,0000,0000*55 
382.358         GPS_NMEA_FROM_GPS    iGPS            $GPRMC,204405.000,A,4144.3521,N,06959.5533,W,0.74,281.05,230321,,,D*71 
383.361         GPS_NMEA_FROM_GPS    iGPS            $GPGGA,204406.000,4144.3522,N,06959.5536,W,2,11,0.91,5.7,M,-34.3,M,0000,0000*5F 
384.363         GPS_NMEA_FROM_GPS    iGPS            $GPGGA,204407.000,4144.3522,N,06959.5539,W,2,11,0.91,5.7,M,-34.3,M,0000,0000*51 
385.366         GPS_NMEA_FROM_GPS    iGPS            $GPGGA,204408.000,4144.3523,N,06959.5542,W,2,11,0.91,5.6,M,-34.3,M,0000,0000*52 
386.369         GPS_NMEA_FROM_GPS    iGPS            $GPGGA,204409.000,4144.3524,N,06959.5545,W,2,11,0.91,5.6,M,-34.3,M,0000,0000*53 
387.372         GPS_NMEA_FROM_GPS    iGPS            $GPGGA,204410.000,4144.3524,N,06959.5548,W,2,11,0.91,5.6,M,-34.3,M,0000,0000*56 
388.374         GPS_NMEA_FROM_GPS    iGPS            $GPGGA,204411.000,4144.3525,N,06959.5551,W,2,11,0.91,5.7,M,-34.3,M,0000,0000*5F 
389.378         GPS_NMEA_FROM_GPS    iGPS            $GPRMC,204412.000,A,4144.3525,N,06959.5554,W,0.73,276.72,230321,,,D*7D 
390.380         GPS_NMEA_FROM_GPS    iGPS            $GPGGA,204413.000,4144.3525,N,06959.5556,W,2,11,1.03,5.6,M,-34.3,M,0000,0000*51 
391.383         GPS_NMEA_FROM_GPS    iGPS            $GPRMC,204414.000,A,4144.3525,N,06959.5559,W,0.75,271.07,230321,,,D*75 
392.385         GPS_NMEA_FROM_GPS    iGPS            $GPRMC,204415.000,A,4144.3525,N,06959.5562,W,0.79,268.10,230321,,,D*7E 
393.387         GPS_NMEA_FROM_GPS    iGPS            $GPGGA,204416.000,4144.3525,N,06959.5565,W,2,11,0.91,5.4,M,-34.3,M,0000,0000*5C 
394.390         GPS_NMEA_FROM_GPS    iGPS            $GPGGA,204417.000,4144.3524,N,06959.5568,W,2,11,1.03,5.3,M,-34.3,M,0000,0000*5C 
395.393         GPS_NMEA_FROM_GPS    iGPS            $GPRMC,204418.000,A,4144.3524,N,06959.5571,W,0.79,261.15,230321,,,D*7C 
396.395         GPS_NMEA_FROM_GPS    iGPS            $GPGGA,204419.000,4144.3523,N,06959.5574,W,2,11,0.91,5.3,M,-34.3,M,0000,0000*52 
397.398         GPS_NMEA_FROM_GPS    iGPS            $GPGGA,204420.000,4144.3523,N,06959.5577,W,2,11,0.91,5.3,M,-34.3,M,0000,0000*5B 
398.400         GPS_NMEA_FROM_GPS    iGPS            $GPGGA,204421.000,4144.3523,N,06959.5579,W,2,11,0.91,5.3,M,-34.3,M,0000,0000*54 
399.403         GPS_NMEA_FROM_GPS    iGPS            $GPRMC,204422.000,A,4144.3523,N,06959.5582,W,0.75,264.27,230321,,,D*76 
400.306         GPS_NMEA_FROM_GPS    iGPS            $GPGGA,204423.000,4144.3523,N,06959.5584,W,2,11,1.03,5.4,M,-34.3,M,0000,0000*59 
401.408         GPS_NMEA_FROM_GPS    iGPS            $GPRMC,204424.000,A,4144.3523,N,06959.5587,W,0.76,266.77,230321,,,D*71 
402.310         GPS_NMEA_FROM_GPS    iGPS            $GPGGA,204425.000,4144.3523,N,06959.5590,W,2,11,0.91,5.4,M,-34.3,M,0000,0000*50 
403.413         GPS_NMEA_FROM_GPS    iGPS            $GPRMC,204426.000,A,4144.3523,N,06959.5593,W,0.74,266.23,230321,,,D*75 
404.416         GPS_NMEA_FROM_GPS    iGPS            $GPRMC,204427.000,A,4144.3523,N,06959.5596,W,0.81,265.59,230321,,,D*75 
405.318         GPS_NMEA_FROM_GPS    iGPS            $GPGGA,204428.000,4144.3523,N,06959.5598,W,2,11,0.91,5.3,M,-34.3,M,0000,0000*52 
406.321         GPS_NMEA_FROM_GPS    iGPS            $GPGGA,204429.000,4144.3523,N,06959.5601,W,2,11,0.91,5.3,M,-34.3,M,0000,0000*50 
407.424         GPS_NMEA_FROM_GPS    iGPS            $GPRMC,204430.000,A,4144.3522,N,06959.5604,W,0.78,262.99,230321,,,D*77 
408.426         GPS_NMEA_FROM_GPS    iGPS            $GPRMC,204431.000,A,4144.3522,N,06959.5607,W,0.77,264.34,230321,,,D*7B 
409.428         GPS_NMEA_FROM_GPS    iGPS            $GPRMC,204432.000,A,4144.3523,N,06959.5610,W,0.78,264.88,230321,,,D*77 
410.330         GPS_NMEA_FROM_GPS    iGPS            $GPGGA,204433.000,4144.3523,N,06959.5613,W,2,11,0.91,5.2,M,-34.3,M,0000,0000*59 
411.433         GPS_NMEA_FROM_GPS    iGPS            $GPRMC,204434.000,A,4144.3523,N,06959.5615,W,0.74,267.33,230321,,,D*7B 
412.335         GPS_NMEA_FROM_GPS    iGPS            $GPGGA,204435.000,4144.3523,N,06959.5618,W,2,11,0.91,5.1,M,-34.3,M,0000,0000*57 
413.337         GPS_NMEA_FROM_GPS    iGPS            $GPGGA,204436.000,4144.3523,N,06959.5621,W,2,11,0.91,5.1,M,-34.3,M,0000,0000*5E 
414.340         GPS_NMEA_FROM_GPS    iGPS            $GPGGA,204437.000,4144.3523,N,06959.5623,W,2,11,0.91,5.1,M,-34.3,M,0000,0000*5D 
415.342         GPS_NMEA_FROM_GPS    iGPS            $GPGGA,204438.000,4144.3523,N,06959.5626,W,2,11,0.91,5.1,M,-34.3,M,0000,0000*57 
416.345         GPS_NMEA_FROM_GPS    iGPS            $GPGGA,204439.000,4144.3523,N,06959.5629,W,2,11,0.91,5.1,M,-34.3,M,0000,0000*59 
417.348         GPS_NMEA_FROM_GPS    iGPS            $GPGGA,204440.000,4144.3522,N,06959.5631,W,2,11,1.03,5.1,M,-34.3,M,0000,0000*55 
418.350         GPS_NMEA_FROM_GPS    iGPS            $GPGGA,204441.000,4144.3521,N,06959.5634,W,2,10,0.99,5.0,M,-34.3,M,0000,0000*50 
419.353         GPS_NMEA_FROM_GPS    iGPS            $GPGGA,204442.000,4144.3520,N,06959.5636,W,2,10,0.99,5.1,M,-34.3,M,0000,0000*51 
420.355         GPS_NMEA_FROM_GPS    iGPS            $GPGGA,204443.000,4144.3519,N,06959.5638,W,2,10,1.10,5.1,M,-34.3,M,0000,0000*54 
421.358         GPS_NMEA_FROM_GPS    iGPS            $GPGGA,204444.000,4144.3518,N,06959.5640,W,2,11,0.91,5.0,M,-34.3,M,0000,0000*55 
421.358         GPS_NMEA_FROM_GPS    iGPS            $GPGGA,204444.000,4144.3518,N,06959.5640,W,2,11,0.91,5.0,M,-34.3,M,0000,0000*55 
422.361         GPS_NMEA_FROM_GPS    iGPS            $GPRMC,204445.000,A,4144.3518,N,06959.5643,W,0.44,251.43,230321,,,D*77 
423.364         GPS_NMEA_FROM_GPS    iGPS            $GPGGA,204446.000,4144.3517,N,06959.5644,W,2,11,1.03,5.0,M,-34.3,M,0000,0000*56 
424.367         GPS_NMEA_FROM_GPS    iGPS            $GPGGA,204447.000,4144.3517,N,06959.5646,W,2,11,1.03,5.0,M,-34.3,M,0000,0000*55 
425.370         GPS_NMEA_FROM_GPS    iGPS            $GPRMC,204448.000,A,4144.3517,N,06959.5647,W,0.28,251.90,230321,,,D*75 
426.373         GPS_NMEA_FROM_GPS    iGPS            $GPGGA,204449.000,4144.3516,N,06959.5648,W,2,11,1.03,5.0,M,-34.3,M,0000,0000*54 
427.375         GPS_NMEA_FROM_GPS    iGPS            $GPGGA,204450.000,4144.3516,N,06959.5649,W,2,11,1.03,5.0,M,-34.3,M,0000,0000*5D 
428.278         GPS_NMEA_FROM_GPS    iGPS            $GPGGA,204451.000,4144.3516,N,06959.5649,W,2,11,1.03,5.0,M,-34.3,M,0000,0000*5C 
429.380         GPS_NMEA_FROM_GPS    iGPS            $GPGGA,204452.000,4144.3516,N,06959.5650,W,2,11,1.03,5.0,M,-34.3,M,0000,0000*57 
430.384         GPS_NMEA_FROM_GPS    iGPS            $GPGGA,204453.000,4144.3515,N,06959.5651,W,2,11,1.03,5.0,M,-34.3,M,0000,0000*54 
431.386         GPS_NMEA_FROM_GPS    iGPS            $GPGGA,204454.000,4144.3515,N,06959.5651,W,2,11,1.03,5.0,M,-34.3,M,0000,0000*53 
432.289         GPS_NMEA_FROM_GPS    iGPS            $GPGGA,204455.000,4144.3515,N,06959.5652,W,2,11,1.03,5.0,M,-34.3,M,0000,0000*51 
433.392         GPS_NMEA_FROM_GPS    iGPS            $GPRMC,204456.000,A,4144.3514,N,06959.5652,W,0.13,236.89,230321,,,D*7C 
434.394         GPS_NMEA_FROM_GPS    iGPS            $GPGGA,204457.000,4144.3514,N,06959.5652,W,2,11,1.03,5.0,M,-34.3,M,0000,0000*52 
435.297         GPS_NMEA_FROM_GPS    iGPS            $GPGGA,204458.000,4144.3514,N,06959.5653,W,2,11,1.03,5.0,M,-34.3,M,0000,0000*5C 
436.299         GPS_NMEA_FROM_GPS    iGPS            $GPGGA,204459.000,4144.3514,N,06959.5653,W,2,11,1.03,5.0,M,-34.3,M,0000,0000*5D 
437.301         GPS_NMEA_FROM_GPS    iGPS            $GPGGA,204500.000,4144.3514,N,06959.5654,W,2,11,1.03,5.0,M,-34.3,M,0000,0000*57 
438.404         GPS_NMEA_FROM_GPS    iGPS            $GPGGA,204501.000,4144.3514,N,06959.5654,W,2,11,1.03,4.9,M,-34.3,M,0000,0000*5E 
439.407         GPS_NMEA_FROM_GPS    iGPS            $GPGGA,204502.000,4144.3514,N,06959.5655,W,2,11,1.03,4.9,M,-34.3,M,0000,0000*5C 
440.309         GPS_NMEA_FROM_GPS    iGPS            $GPGGA,204503.000,4144.3514,N,06959.5655,W,2,11,1.03,4.9,M,-34.3,M,0000,0000*5D 
441.412         GPS_NMEA_FROM_GPS    iGPS            $GPRMC,204504.000,A,4144.3514,N,06959.5655,W,0.13,236.36,230321,,,D*79 
442.415         GPS_NMEA_FROM_GPS    iGPS            $GPRMC,204505.000,A,4144.3513,N,06959.5656,W,0.13,236.00,230321,,,D*79 
443.317         GPS_NMEA_FROM_GPS    iGPS            $GPGGA,204506.000,4144.3513,N,06959.5656,W,2,11,1.03,4.9,M,-34.3,M,0000,0000*5C 
444.420         GPS_NMEA_FROM_GPS    iGPS            $GPGGA,204507.000,4144.3513,N,06959.5657,W,2,11,1.03,4.9,M,-34.3,M,0000,0000*5C 
445.423         GPS_NMEA_FROM_GPS    iGPS            $GPRMC,204508.000,A,4144.3513,N,06959.5657,W,0.10,245.66,230321,,,D*72 
