1.663           GPS_NMEA_FROM_GPS    iGPS            $GPRMC,175941.000,A,4144.3530,N,06959.5237,W,0.17,238.50,220321,,,D*7C 
2.364           GPS_NMEA_FROM_GPS    iGPS            $GPGGA,175942.000,4144.3530,N,06959.5238,W,2,07,1.06,12.1,M,-34.3,M,0000,0000*65 
2.364           GPS_NMEA_FROM_GPS    iGPS            $GPGGA,175942.000,4144.3530,N,06959.5238,W,2,07,1.06,12.1,M,-34.3,M,0000,0000*65 
3.467           GPS_NMEA_FROM_GPS    iGPS            $GPRMC,175943.000,A,4144.3530,N,06959.5239,W,0.16,230.69,220321,,,D*73 
4.369           GPS_NMEA_FROM_GPS    iGPS            $GPGGA,175944.000,4144.3530,N,06959.5239,W,2,07,1.06,12.2,M,-34.3,M,0000,0000*61 
5.372           GPS_NMEA_FROM_GPS    iGPS            $GPGGA,175945.000,4144.3529,N,06959.5239,W,2,07,1.06,12.3,M,-34.3,M,0000,0000*69 
6.374           GPS_NMEA_FROM_GPS    iGPS            $GPGGA,175946.000,4144.3529,N,06959.5240,W,2,07,1.06,12.3,M,-34.3,M,0000,0000*64 
7.477           GPS_NMEA_FROM_GPS    iGPS            $GPGGA,175947.000,4144.3529,N,06959.5240,W,2,07,1.06,12.4,M,-34.3,M,0000,0000*62 
8.379           GPS_NMEA_FROM_GPS    iGPS            $GPGGA,175948.000,4144.3529,N,06959.5241,W,2,07,1.06,12.4,M,-34.3,M,0000,0000*6C 
9.482           GPS_NMEA_FROM_GPS    iGPS            $GPRMC,175949.000,A,4144.3529,N,06959.5241,W,0.14,263.04,220321,,,D*71 
10.385          GPS_NMEA_FROM_GPS    iGPS            $GPRMC,175950.000,A,4144.3529,N,06959.5242,W,0.15,278.85,220321,,,D*78 
11.387          GPS_NMEA_FROM_GPS    iGPS            $GPGGA,175951.000,4144.3529,N,06959.5242,W,2,07,1.06,12.6,M,-34.3,M,0000,0000*65 
11.387          GPS_NMEA_FROM_GPS    iGPS            $GPGGA,175951.000,4144.3529,N,06959.5242,W,2,07,1.06,12.6,M,-34.3,M,0000,0000*65 
12.490          GPS_NMEA_FROM_GPS    iGPS            $GPGGA,175952.000,4144.3529,N,06959.5243,W,2,07,1.06,12.6,M,-34.3,M,0000,0000*67 
12.490          GPS_NMEA_FROM_GPS    iGPS            $GPGGA,175952.000,4144.3529,N,06959.5243,W,2,07,1.06,12.6,M,-34.3,M,0000,0000*67 
13.493          GPS_NMEA_FROM_GPS    iGPS            $GPGGA,175953.000,4144.3529,N,06959.5244,W,2,07,1.06,12.7,M,-34.3,M,0000,0000*60 
14.496          GPS_NMEA_FROM_GPS    iGPS            $GPGGA,175954.000,4144.3530,N,06959.5244,W,2,07,1.06,12.7,M,-34.3,M,0000,0000*6F 
15.398          GPS_NMEA_FROM_GPS    iGPS            $GPGGA,175955.000,4144.3530,N,06959.5245,W,2,07,1.06,12.8,M,-34.3,M,0000,0000*60 
16.401          GPS_NMEA_FROM_GPS    iGPS            $GPGGA,175956.000,4144.3530,N,06959.5246,W,2,07,1.06,12.8,M,-34.3,M,0000,0000*60 
17.504          GPS_NMEA_FROM_GPS    iGPS            $GPRMC,175957.000,A,4144.3530,N,06959.5246,W,0.27,297.08,220321,,,D*76 
18.407          GPS_NMEA_FROM_GPS    iGPS            $GPGGA,175958.000,4144.3531,N,06959.5247,W,2,06,1.31,12.9,M,-34.3,M,0000,0000*6A 
19.410          GPS_NMEA_FROM_GPS    iGPS            $GPGGA,175959.000,4144.3531,N,06959.5248,W,2,06,1.31,12.9,M,-34.3,M,0000,0000*64 
20.413          GPS_NMEA_FROM_GPS    iGPS            $GPGGA,180000.000,4144.3532,N,06959.5249,W,2,07,1.06,12.9,M,-34.3,M,0000,0000*6C 
21.415          GPS_NMEA_FROM_GPS    iGPS            $GPGGA,180001.000,4144.3533,N,06959.5250,W,2,06,1.31,12.9,M,-34.3,M,0000,0000*61 
21.415          GPS_NMEA_FROM_GPS    iGPS            $GPGGA,180001.000,4144.3533,N,06959.5250,W,2,06,1.31,12.9,M,-34.3,M,0000,0000*61 
22.419          GPS_NMEA_FROM_GPS    iGPS            $GPGGA,180002.000,4144.3533,N,06959.5251,W,2,07,1.06,13.0,M,-34.3,M,0000,0000*6E 
23.421          GPS_NMEA_FROM_GPS    iGPS            $GPGGA,180003.000,4144.3534,N,06959.5252,W,2,07,1.06,13.0,M,-34.3,M,0000,0000*6B 
24.424          GPS_NMEA_FROM_GPS    iGPS            $GPGGA,180004.000,4144.3534,N,06959.5253,W,2,07,1.06,13.0,M,-34.3,M,0000,0000*6D 
24.424          GPS_NMEA_FROM_GPS    iGPS            $GPGGA,180004.000,4144.3534,N,06959.5253,W,2,07,1.06,13.0,M,-34.3,M,0000,0000*6D 
25.527          GPS_NMEA_FROM_GPS    iGPS            $GPRMC,180005.000,A,4144.3535,N,06959.5255,W,0.33,306.08,220321,,,D*79 
26.429          GPS_NMEA_FROM_GPS    iGPS            $GPGGA,180006.000,4144.3536,N,06959.5255,W,2,07,1.06,13.0,M,-34.3,M,0000,0000*6B 
27.431          GPS_NMEA_FROM_GPS    iGPS            $GPGGA,180007.000,4144.3536,N,06959.5256,W,2,07,1.06,13.1,M,-34.3,M,0000,0000*68 
28.434          GPS_NMEA_FROM_GPS    iGPS            $GPGGA,180008.000,4144.3536,N,06959.5257,W,2,07,1.06,13.1,M,-34.3,M,0000,0000*66 
29.437          GPS_NMEA_FROM_GPS    iGPS            $GPGGA,180009.000,4144.3537,N,06959.5258,W,2,07,1.06,13.1,M,-34.3,M,0000,0000*69 
30.441          GPS_NMEA_FROM_GPS    iGPS            $GPGGA,180010.000,4144.3537,N,06959.5259,W,2,07,1.06,13.1,M,-34.3,M,0000,0000*60 
31.444          GPS_NMEA_FROM_GPS    iGPS            $GPRMC,180011.000,A,4144.3537,N,06959.5260,W,0.24,297.19,220321,,,D*77 
32.346          GPS_NMEA_FROM_GPS    iGPS            $GPGGA,180012.000,4144.3538,N,06959.5261,W,2,07,1.06,13.1,M,-34.3,M,0000,0000*66 
33.449          GPS_NMEA_FROM_GPS    iGPS            $GPRMC,180013.000,A,4144.3538,N,06959.5262,W,0.18,295.25,220321,,,D*7A 
34.351          GPS_NMEA_FROM_GPS    iGPS            $GPGGA,180014.000,4144.3538,N,06959.5262,W,2,07,1.06,13.2,M,-34.3,M,0000,0000*60 
35.354          GPS_NMEA_FROM_GPS    iGPS            $GPGGA,180015.000,4144.3538,N,06959.5263,W,2,07,1.06,13.2,M,-34.3,M,0000,0000*60 
36.457          GPS_NMEA_FROM_GPS    iGPS            $GPRMC,180016.000,A,4144.3539,N,06959.5263,W,0.14,309.53,220321,,,D*76 
37.359          GPS_NMEA_FROM_GPS    iGPS            $GPGGA,180017.000,4144.3539,N,06959.5263,W,2,07,1.06,13.2,M,-34.3,M,0000,0000*63 
38.362          GPS_NMEA_FROM_GPS    iGPS            $GPGGA,180018.000,4144.3539,N,06959.5263,W,2,07,1.06,13.2,M,-34.3,M,0000,0000*6C 
39.465          GPS_NMEA_FROM_GPS    iGPS            $GPRMC,180019.000,A,4144.3539,N,06959.5263,W,0.19,310.44,220321,,,D*7A 
40.367          GPS_NMEA_FROM_GPS    iGPS            $GPGGA,180020.000,4144.3540,N,06959.5264,W,2,07,1.06,13.3,M,-34.3,M,0000,0000*6F 
41.369          GPS_NMEA_FROM_GPS    iGPS            $GPGGA,180021.000,4144.3540,N,06959.5264,W,2,07,1.06,13.3,M,-34.3,M,0000,0000*6E 
42.472          GPS_NMEA_FROM_GPS    iGPS            $GPRMC,180022.000,A,4144.3540,N,06959.5265,W,0.15,271.88,220321,,,D*70 
43.374          GPS_NMEA_FROM_GPS    iGPS            $GPGGA,180023.000,4144.3540,N,06959.5265,W,2,07,1.06,13.4,M,-34.3,M,0000,0000*6A 
44.378          GPS_NMEA_FROM_GPS    iGPS            $GPRMC,180024.000,A,4144.3540,N,06959.5266,W,0.17,268.06,220321,,,D*79 
45.380          GPS_NMEA_FROM_GPS    iGPS            $GPRMC,180025.000,A,4144.3540,N,06959.5267,W,0.22,282.37,220321,,,D*79 
46.483          GPS_NMEA_FROM_GPS    iGPS            $GPGGA,180026.000,4144.3540,N,06959.5267,W,2,08,0.99,13.4,M,-34.3,M,0000,0000*65 
47.485          GPS_NMEA_FROM_GPS    iGPS            $GPGGA,180027.000,4144.3541,N,06959.5268,W,2,08,0.99,13.3,M,-34.3,M,0000,0000*6D 
48.488          GPS_NMEA_FROM_GPS    iGPS            $GPGGA,180028.000,4144.3542,N,06959.5270,W,2,08,0.99,13.4,M,-34.3,M,0000,0000*6F 
49.490          GPS_NMEA_FROM_GPS    iGPS            $GPGGA,180029.000,4144.3542,N,06959.5271,W,2,08,0.99,13.3,M,-34.3,M,0000,0000*68 
50.493          GPS_NMEA_FROM_GPS    iGPS            $GPRMC,180030.000,A,4144.3542,N,06959.5272,W,0.33,291.65,220321,,,D*7E 
51.495          GPS_NMEA_FROM_GPS    iGPS            $GPRMC,180031.000,A,4144.3542,N,06959.5273,W,0.30,291.62,220321,,,D*7A 
51.998          GPS_NMEA_FROM_GPS    iGPS            $GPGGA,180032.000,4144.3542,N,06959.5274,W,2,08,0.99,13.4,M,-34.3,M,0000,0000*60 
53.401          GPS_NMEA_FROM_GPS    iGPS            $GPGGA,180033.000,4144.3541,N,06959.5274,W,2,08,0.99,13.4,M,-34.3,M,0000,0000*62 
54.504          GPS_NMEA_FROM_GPS    iGPS            $GPRMC,180034.000,A,4144.3540,N,06959.5276,W,0.36,285.85,220321,,,D*72 
55.506          GPS_NMEA_FROM_GPS    iGPS            $GPGGA,180035.000,4144.3539,N,06959.5276,W,2,08,0.99,13.4,M,-34.3,M,0000,0000*69 
56.308          GPS_NMEA_FROM_GPS    iGPS            $GPGGA,180036.000,4144.3538,N,06959.5277,W,2,08,0.99,13.4,M,-34.3,M,0000,0000*6A 
57.411          GPS_NMEA_FROM_GPS    iGPS            $GPGGA,180037.000,4144.3537,N,06959.5277,W,2,08,0.99,13.4,M,-34.3,M,0000,0000*64 
58.314          GPS_NMEA_FROM_GPS    iGPS            $GPGGA,180038.000,4144.3535,N,06959.5278,W,2,08,0.99,13.3,M,-34.3,M,0000,0000*61 
59.417          GPS_NMEA_FROM_GPS    iGPS            $GPGGA,180039.000,4144.3534,N,06959.5279,W,2,07,1.06,13.1,M,-34.3,M,0000,0000*6A 
60.319          GPS_NMEA_FROM_GPS    iGPS            $GPGGA,180040.000,4144.3533,N,06959.5280,W,2,07,1.06,13.1,M,-34.3,M,0000,0000*65 
61.522          GPS_NMEA_FROM_GPS    iGPS            $GPRMC,180041.000,A,4144.3533,N,06959.5281,W,0.33,246.59,220321,,,D*77 
62.425          GPS_NMEA_FROM_GPS    iGPS            $GPGGA,180042.000,4144.3532,N,06959.5282,W,2,07,1.06,13.2,M,-34.3,M,0000,0000*67 
63.427          GPS_NMEA_FROM_GPS    iGPS            $GPRMC,180043.000,A,4144.3530,N,06959.5283,W,0.29,240.46,220321,,,D*77 
64.430          GPS_NMEA_FROM_GPS    iGPS            $GPGGA,180044.000,4144.3528,N,06959.5284,W,2,09,0.87,13.1,M,-34.3,M,0000,0000*69 
65.432          GPS_NMEA_FROM_GPS    iGPS            $GPGGA,180045.000,4144.3527,N,06959.5285,W,2,08,0.95,12.9,M,-34.3,M,0000,0000*6D 
66.535          GPS_NMEA_FROM_GPS    iGPS            $GPRMC,180046.000,A,4144.3526,N,06959.5287,W,0.32,234.99,220321,,,D*7A 
67.537          GPS_NMEA_FROM_GPS    iGPS            $GPGGA,180047.000,4144.3524,N,06959.5288,W,2,08,0.95,12.9,M,-34.3,M,0000,0000*61 
68.440          GPS_NMEA_FROM_GPS    iGPS            $GPGGA,180048.000,4144.3523,N,06959.5289,W,2,08,0.95,12.9,M,-34.3,M,0000,0000*68 
69.543          GPS_NMEA_FROM_GPS    iGPS            $GPRMC,180049.000,A,4144.3522,N,06959.5290,W,0.25,231.47,220321,,,D*77 
70.445          GPS_NMEA_FROM_GPS    iGPS            $GPGGA,180050.000,4144.3522,N,06959.5291,W,2,08,0.95,12.8,M,-34.3,M,0000,0000*68 
71.448          GPS_NMEA_FROM_GPS    iGPS            $GPGGA,180051.000,4144.3521,N,06959.5292,W,2,08,0.95,12.8,M,-34.3,M,0000,0000*69 
72.450          GPS_NMEA_FROM_GPS    iGPS            $GPGGA,180052.000,4144.3520,N,06959.5293,W,2,08,0.95,12.8,M,-34.3,M,0000,0000*6A 
73.453          GPS_NMEA_FROM_GPS    iGPS            $GPGGA,180053.000,4144.3520,N,06959.5294,W,2,08,0.95,12.8,M,-34.3,M,0000,0000*6C 
74.456          GPS_NMEA_FROM_GPS    iGPS            $GPGGA,180054.000,4144.3519,N,06959.5295,W,2,08,0.95,12.8,M,-34.3,M,0000,0000*60 
75.458          GPS_NMEA_FROM_GPS    iGPS            $GPGGA,180055.000,4144.3518,N,06959.5295,W,2,08,0.95,12.9,M,-34.3,M,0000,0000*61 
76.461          GPS_NMEA_FROM_GPS    iGPS            $GPGGA,180056.000,4144.3518,N,06959.5296,W,2,08,0.95,12.9,M,-34.3,M,0000,0000*61 
77.463          GPS_NMEA_FROM_GPS    iGPS            $GPGGA,180057.000,4144.3517,N,06959.5297,W,2,08,0.95,12.9,M,-34.3,M,0000,0000*6E 
78.467          GPS_NMEA_FROM_GPS    iGPS            $GPGGA,180058.000,4144.3516,N,06959.5299,W,2,08,0.95,12.9,M,-34.3,M,0000,0000*6E 
79.468          GPS_NMEA_FROM_GPS    iGPS            $GPRMC,180059.000,A,4144.3515,N,06959.5300,W,0.47,226.78,220321,,,D*74 
80.471          GPS_NMEA_FROM_GPS    iGPS            $GPGGA,180100.000,4144.3514,N,06959.5301,W,2,08,0.95,12.9,M,-34.3,M,0000,0000*60 
81.473          GPS_NMEA_FROM_GPS    iGPS            $GPGGA,180101.000,4144.3513,N,06959.5302,W,2,08,0.95,13.0,M,-34.3,M,0000,0000*6D 
82.376          GPS_NMEA_FROM_GPS    iGPS            $GPGGA,180102.000,4144.3512,N,06959.5304,W,2,08,0.95,13.0,M,-34.3,M,0000,0000*69 
83.479          GPS_NMEA_FROM_GPS    iGPS            $GPGGA,180103.000,4144.3511,N,06959.5305,W,2,08,0.95,13.0,M,-34.3,M,0000,0000*6A 
84.381          GPS_NMEA_FROM_GPS    iGPS            $GPGGA,180104.000,4144.3510,N,06959.5306,W,2,08,0.95,13.0,M,-34.3,M,0000,0000*6F 
85.484          GPS_NMEA_FROM_GPS    iGPS            $GPGGA,180105.000,4144.3509,N,06959.5307,W,2,08,0.95,13.0,M,-34.3,M,0000,0000*67 
86.387          GPS_NMEA_FROM_GPS    iGPS            $GPGGA,180106.000,4144.3508,N,06959.5309,W,2,08,1.01,13.0,M,-34.3,M,0000,0000*67 
87.490          GPS_NMEA_FROM_GPS    iGPS            $GPRMC,180107.000,A,4144.3507,N,06959.5310,W,0.59,223.02,220321,,,D*7B 
88.392          GPS_NMEA_FROM_GPS    iGPS            $GPGGA,180108.000,4144.3505,N,06959.5312,W,2,08,0.95,13.0,M,-34.3,M,0000,0000*62 
89.395          GPS_NMEA_FROM_GPS    iGPS            $GPGGA,180109.000,4144.3504,N,06959.5313,W,2,08,0.95,12.9,M,-34.3,M,0000,0000*6B 
90.497          GPS_NMEA_FROM_GPS    iGPS            $GPGGA,180110.000,4144.3503,N,06959.5314,W,2,08,0.95,12.9,M,-34.3,M,0000,0000*63 
91.501          GPS_NMEA_FROM_GPS    iGPS            $GPGGA,180111.000,4144.3501,N,06959.5315,W,2,08,0.95,12.8,M,-34.3,M,0000,0000*60 
92.502          GPS_NMEA_FROM_GPS    iGPS            $GPGGA,180112.000,4144.3500,N,06959.5316,W,2,08,0.95,12.8,M,-34.3,M,0000,0000*61 
93.505          GPS_NMEA_FROM_GPS    iGPS            $GPGGA,180113.000,4144.3499,N,06959.5317,W,2,08,1.01,12.8,M,-34.3,M,0000,0000*6C 
94.507          GPS_NMEA_FROM_GPS    iGPS            $GPRMC,180114.000,A,4144.3497,N,06959.5318,W,0.58,212.88,220321,,,D*78 
95.409          GPS_NMEA_FROM_GPS    iGPS            $GPGGA,180115.000,4144.3496,N,06959.5319,W,2,08,1.01,12.7,M,-34.3,M,0000,0000*64 
96.413          GPS_NMEA_FROM_GPS    iGPS            $GPGGA,180116.000,4144.3495,N,06959.5320,W,2,08,0.95,12.7,M,-34.3,M,0000,0000*62 
97.516          GPS_NMEA_FROM_GPS    iGPS            $GPGGA,180117.000,4144.3494,N,06959.5322,W,2,08,0.95,12.7,M,-34.3,M,0000,0000*60 
98.518          GPS_NMEA_FROM_GPS    iGPS            $GPGGA,180118.000,4144.3492,N,06959.5323,W,2,08,0.95,12.7,M,-34.3,M,0000,0000*68 
99.521          GPS_NMEA_FROM_GPS    iGPS            $GPGGA,180119.000,4144.3491,N,06959.5324,W,2,08,1.01,12.6,M,-34.3,M,0000,0000*60 
100.424         GPS_NMEA_FROM_GPS    iGPS            $GPGGA,180120.000,4144.3490,N,06959.5325,W,2,08,0.95,12.6,M,-34.3,M,0000,0000*66 
101.527         GPS_NMEA_FROM_GPS    iGPS            $GPRMC,180121.000,A,4144.3488,N,06959.5326,W,0.61,214.10,220321,,,D*70 
102.429         GPS_NMEA_FROM_GPS    iGPS            $GPGGA,180122.000,4144.3487,N,06959.5327,W,2,08,0.95,12.5,M,-34.3,M,0000,0000*63 
103.431         GPS_NMEA_FROM_GPS    iGPS            $GPGGA,180123.000,4144.3486,N,06959.5328,W,2,08,0.95,12.5,M,-34.3,M,0000,0000*6C 
104.535         GPS_NMEA_FROM_GPS    iGPS            $GPRMC,180124.000,A,4144.3484,N,06959.5329,W,0.62,214.82,220321,,,D*7E 
105.436         GPS_NMEA_FROM_GPS    iGPS            $GPGGA,180125.000,4144.3483,N,06959.5330,W,2,08,1.01,12.4,M,-34.3,M,0000,0000*6B 
106.439         GPS_NMEA_FROM_GPS    iGPS            $GPGGA,180126.000,4144.3481,N,06959.5332,W,2,08,0.95,12.5,M,-34.3,M,0000,0000*65 
107.441         GPS_NMEA_FROM_GPS    iGPS            $GPGGA,180127.000,4144.3480,N,06959.5333,W,2,08,0.95,12.4,M,-34.3,M,0000,0000*65 
108.444         GPS_NMEA_FROM_GPS    iGPS            $GPGGA,180128.000,4144.3478,N,06959.5334,W,2,08,0.95,12.4,M,-34.3,M,0000,0000*6A 
109.447         GPS_NMEA_FROM_GPS    iGPS            $GPGGA,180129.000,4144.3477,N,06959.5335,W,2,08,0.95,12.4,M,-34.3,M,0000,0000*65 
110.449         GPS_NMEA_FROM_GPS    iGPS            $GPGGA,180130.000,4144.3475,N,06959.5336,W,2,08,0.95,12.3,M,-34.3,M,0000,0000*6B 
111.451         GPS_NMEA_FROM_GPS    iGPS            $GPGGA,180131.000,4144.3474,N,06959.5337,W,2,08,0.95,12.3,M,-34.3,M,0000,0000*6A 
112.454         GPS_NMEA_FROM_GPS    iGPS            $GPGGA,180132.000,4144.3472,N,06959.5339,W,2,08,0.95,12.3,M,-34.3,M,0000,0000*61 
113.457         GPS_NMEA_FROM_GPS    iGPS            $GPGGA,180133.000,4144.3470,N,06959.5340,W,2,08,0.95,12.2,M,-34.3,M,0000,0000*6D 
114.460         GPS_NMEA_FROM_GPS    iGPS            $GPGGA,180134.000,4144.3469,N,06959.5341,W,2,08,0.95,12.2,M,-34.3,M,0000,0000*63 
115.463         GPS_NMEA_FROM_GPS    iGPS            $GPGGA,180135.000,4144.3467,N,06959.5342,W,2,08,0.95,12.1,M,-34.3,M,0000,0000*6C 
116.465         GPS_NMEA_FROM_GPS    iGPS            $GPRMC,180136.000,A,4144.3466,N,06959.5343,W,0.68,210.73,220321,,,D*7D 
117.468         GPS_NMEA_FROM_GPS    iGPS            $GPGGA,180137.000,4144.3464,N,06959.5344,W,2,08,0.95,12.1,M,-34.3,M,0000,0000*6B 
118.470         GPS_NMEA_FROM_GPS    iGPS            $GPGGA,180138.000,4144.3462,N,06959.5345,W,2,08,0.95,12.1,M,-34.3,M,0000,0000*63 
119.373         GPS_NMEA_FROM_GPS    iGPS            $GPGGA,180139.000,4144.3460,N,06959.5346,W,2,08,0.95,12.0,M,-34.3,M,0000,0000*62 
120.376         GPS_NMEA_FROM_GPS    iGPS            $GPGGA,180140.000,4144.3459,N,06959.5347,W,2,08,1.01,12.0,M,-34.3,M,0000,0000*6B 
121.378         GPS_NMEA_FROM_GPS    iGPS            $GPGGA,180141.000,4144.3457,N,06959.5348,W,2,08,1.01,12.0,M,-34.3,M,0000,0000*6B 
122.381         GPS_NMEA_FROM_GPS    iGPS            $GPGGA,180142.000,4144.3455,N,06959.5349,W,2,08,0.95,11.9,M,-34.3,M,0000,0000*6D 
123.384         GPS_NMEA_FROM_GPS    iGPS            $GPGGA,180143.000,4144.3453,N,06959.5350,W,2,08,0.95,11.9,M,-34.3,M,0000,0000*62 
124.386         GPS_NMEA_FROM_GPS    iGPS            $GPGGA,180144.000,4144.3452,N,06959.5351,W,2,08,0.95,11.9,M,-34.3,M,0000,0000*65 
125.389         GPS_NMEA_FROM_GPS    iGPS            $GPGGA,180145.000,4144.3450,N,06959.5352,W,2,08,0.95,11.8,M,-34.3,M,0000,0000*64 
126.392         GPS_NMEA_FROM_GPS    iGPS            $GPRMC,180146.000,A,4144.3448,N,06959.5353,W,0.59,204.78,220321,,,D*7B 
127.395         GPS_NMEA_FROM_GPS    iGPS            $GPRMC,180147.000,A,4144.3446,N,06959.5354,W,0.60,203.41,220321,,,D*74 
128.397         GPS_NMEA_FROM_GPS    iGPS            $GPGGA,180148.000,4144.3445,N,06959.5355,W,2,08,0.95,11.7,M,-34.3,M,0000,0000*65 
129.400         GPS_NMEA_FROM_GPS    iGPS            $GPGGA,180149.000,4144.3443,N,06959.5356,W,2,07,1.04,11.7,M,-34.3,M,0000,0000*67 
130.402         GPS_NMEA_FROM_GPS    iGPS            $GPGGA,180150.000,4144.3441,N,06959.5357,W,2,07,1.05,11.6,M,-34.3,M,0000,0000*6C 
131.405         GPS_NMEA_FROM_GPS    iGPS            $GPRMC,180151.000,A,4144.3439,N,06959.5358,W,0.57,200.03,220321,,,D*76 
132.308         GPS_NMEA_FROM_GPS    iGPS            $GPGGA,180152.000,4144.3437,N,06959.5359,W,2,07,1.04,11.5,M,-34.3,M,0000,0000*63 
133.410         GPS_NMEA_FROM_GPS    iGPS            $GPGGA,180153.000,4144.3436,N,06959.5360,W,2,07,1.04,11.5,M,-34.3,M,0000,0000*69 
134.413         GPS_NMEA_FROM_GPS    iGPS            $GPGGA,180154.000,4144.3434,N,06959.5361,W,2,07,1.04,11.4,M,-34.3,M,0000,0000*6C 
135.416         GPS_NMEA_FROM_GPS    iGPS            $GPGGA,180155.000,4144.3432,N,06959.5362,W,2,08,1.01,11.3,M,-34.3,M,0000,0000*65 
136.419         GPS_NMEA_FROM_GPS    iGPS            $GPRMC,180156.000,A,4144.3430,N,06959.5363,W,0.53,197.36,220321,,,D*7F 
137.321         GPS_NMEA_FROM_GPS    iGPS            $GPGGA,180157.000,4144.3428,N,06959.5364,W,2,08,1.01,11.3,M,-34.3,M,0000,0000*6A 
138.323         GPS_NMEA_FROM_GPS    iGPS            $GPGGA,180158.000,4144.3426,N,06959.5365,W,2,08,1.01,11.2,M,-34.3,M,0000,0000*6B 
139.426         GPS_NMEA_FROM_GPS    iGPS            $GPGGA,180159.000,4144.3425,N,06959.5366,W,2,08,1.01,11.2,M,-34.3,M,0000,0000*6A 
140.429         GPS_NMEA_FROM_GPS    iGPS            $GPGGA,180200.000,4144.3423,N,06959.5367,W,2,08,1.01,11.2,M,-34.3,M,0000,0000*62 
141.332         GPS_NMEA_FROM_GPS    iGPS            $GPGGA,180201.000,4144.3421,N,06959.5368,W,2,08,1.01,11.2,M,-34.3,M,0000,0000*6E 
142.435         GPS_NMEA_FROM_GPS    iGPS            $GPGGA,180202.000,4144.3420,N,06959.5369,W,2,08,1.01,11.1,M,-34.3,M,0000,0000*6E 
143.438         GPS_NMEA_FROM_GPS    iGPS            $GPRMC,180203.000,A,4144.3418,N,06959.5370,W,0.54,198.06,220321,,,D*7F 
144.440         GPS_NMEA_FROM_GPS    iGPS            $GPGGA,180204.000,4144.3417,N,06959.5371,W,2,08,1.01,11.1,M,-34.3,M,0000,0000*65 
145.443         GPS_NMEA_FROM_GPS    iGPS            $GPRMC,180205.000,A,4144.3415,N,06959.5372,W,0.52,200.41,220321,,,D*71 
146.446         GPS_NMEA_FROM_GPS    iGPS            $GPRMC,180206.000,A,4144.3414,N,06959.5373,W,0.51,201.50,220321,,,D*70 
147.348         GPS_NMEA_FROM_GPS    iGPS            $GPGGA,180207.000,4144.3412,N,06959.5374,W,2,07,1.07,11.2,M,-34.3,M,0000,0000*6C 
148.350         GPS_NMEA_FROM_GPS    iGPS            $GPGGA,180208.000,4144.3411,N,06959.5375,W,2,07,1.07,11.2,M,-34.3,M,0000,0000*61 
149.454         GPS_NMEA_FROM_GPS    iGPS            $GPGGA,180209.000,4144.3410,N,06959.5376,W,2,07,1.07,11.2,M,-34.3,M,0000,0000*62 
150.356         GPS_NMEA_FROM_GPS    iGPS            $GPGGA,180210.000,4144.3408,N,06959.5376,W,2,07,1.07,11.1,M,-34.3,M,0000,0000*60 
151.359         GPS_NMEA_FROM_GPS    iGPS            $GPGGA,180211.000,4144.3407,N,06959.5377,W,2,08,0.99,11.0,M,-34.3,M,0000,0000*67 
152.361         GPS_NMEA_FROM_GPS    iGPS            $GPGGA,180212.000,4144.3406,N,06959.5378,W,2,08,0.99,11.0,M,-34.3,M,0000,0000*6A 
153.364         GPS_NMEA_FROM_GPS    iGPS            $GPGGA,180213.000,4144.3404,N,06959.5379,W,2,07,1.07,10.9,M,-34.3,M,0000,0000*69 
154.366         GPS_NMEA_FROM_GPS    iGPS            $GPGGA,180214.000,4144.3403,N,06959.5379,W,2,08,0.99,10.9,M,-34.3,M,0000,0000*60 
155.469         GPS_NMEA_FROM_GPS    iGPS            $GPGGA,180215.000,4144.3402,N,06959.5380,W,2,07,1.07,10.9,M,-34.3,M,0000,0000*6F 
156.372         GPS_NMEA_FROM_GPS    iGPS            $GPGGA,180216.000,4144.3401,N,06959.5381,W,2,07,1.07,10.9,M,-34.3,M,0000,0000*6E 
157.375         GPS_NMEA_FROM_GPS    iGPS            $GPGGA,180217.000,4144.3400,N,06959.5381,W,2,07,1.07,10.8,M,-34.3,M,0000,0000*6F 
158.378         GPS_NMEA_FROM_GPS    iGPS            $GPGGA,180218.000,4144.3399,N,06959.5382,W,2,07,1.07,10.8,M,-34.3,M,0000,0000*64 
159.380         GPS_NMEA_FROM_GPS    iGPS            $GPGGA,180219.000,4144.3398,N,06959.5384,W,2,07,1.07,10.7,M,-34.3,M,0000,0000*6D 
160.383         GPS_NMEA_FROM_GPS    iGPS            $GPGGA,180220.000,4144.3397,N,06959.5385,W,2,07,1.07,10.7,M,-34.3,M,0000,0000*69 
161.386         GPS_NMEA_FROM_GPS    iGPS            $GPGGA,180221.000,4144.3396,N,06959.5386,W,2,07,1.07,10.7,M,-34.3,M,0000,0000*6A 
162.388         GPS_NMEA_FROM_GPS    iGPS            $GPGGA,180222.000,4144.3395,N,06959.5387,W,2,07,1.07,10.7,M,-34.3,M,0000,0000*6B 
163.391         GPS_NMEA_FROM_GPS    iGPS            $GPGGA,180223.000,4144.3394,N,06959.5388,W,2,07,1.07,10.7,M,-34.3,M,0000,0000*64 
164.394         GPS_NMEA_FROM_GPS    iGPS            $GPRMC,180224.000,A,4144.3393,N,06959.5389,W,0.52,219.79,220321,,,D*7C 
165.396         GPS_NMEA_FROM_GPS    iGPS            $GPGGA,180225.000,4144.3392,N,06959.5391,W,2,07,1.07,10.7,M,-34.3,M,0000,0000*6C 
166.399         GPS_NMEA_FROM_GPS    iGPS            $GPRMC,180226.000,A,4144.3391,N,06959.5392,W,0.53,222.35,220321,,,D*77 
167.401         GPS_NMEA_FROM_GPS    iGPS            $GPGGA,180227.000,4144.3390,N,06959.5393,W,2,07,1.07,10.6,M,-34.3,M,0000,0000*6F 
168.404         GPS_NMEA_FROM_GPS    iGPS            $GPRMC,180228.000,A,4144.3389,N,06959.5395,W,0.65,222.86,220321,,,D*7A 
169.406         GPS_NMEA_FROM_GPS    iGPS            $GPGGA,180229.000,4144.3387,N,06959.5397,W,2,07,1.05,10.7,M,-34.3,M,0000,0000*60 
170.410         GPS_NMEA_FROM_GPS    iGPS            $GPGGA,180230.000,4144.3385,N,06959.5399,W,2,07,1.07,10.8,M,-34.3,M,0000,0000*69 
171.413         GPS_NMEA_FROM_GPS    iGPS            $GPRMC,180231.000,A,4144.3383,N,06959.5401,W,0.59,224.93,220321,,,D*7F 
172.315         GPS_NMEA_FROM_GPS    iGPS            $GPGGA,180232.000,4144.3382,N,06959.5403,W,2,07,1.07,11.0,M,-34.3,M,0000,0000*61 
173.318         GPS_NMEA_FROM_GPS    iGPS            $GPGGA,180233.000,4144.3380,N,06959.5404,W,2,07,1.07,11.1,M,-34.3,M,0000,0000*64 
174.320         GPS_NMEA_FROM_GPS    iGPS            $GPGGA,180234.000,4144.3379,N,06959.5407,W,2,07,1.07,11.0,M,-34.3,M,0000,0000*67 
175.423         GPS_NMEA_FROM_GPS    iGPS            $GPGGA,180235.000,4144.3377,N,06959.5409,W,2,07,1.07,11.1,M,-34.3,M,0000,0000*67 
176.426         GPS_NMEA_FROM_GPS    iGPS            $GPGGA,180236.000,4144.3376,N,06959.5411,W,2,07,1.07,11.2,M,-34.3,M,0000,0000*6F 
177.428         GPS_NMEA_FROM_GPS    iGPS            $GPGGA,180237.000,4144.3374,N,06959.5414,W,2,07,1.07,11.2,M,-34.3,M,0000,0000*69 
178.331         GPS_NMEA_FROM_GPS    iGPS            $GPGGA,180238.000,4144.3372,N,06959.5416,W,2,07,1.07,11.2,M,-34.3,M,0000,0000*62 
179.334         GPS_NMEA_FROM_GPS    iGPS            $GPGGA,180239.000,4144.3371,N,06959.5419,W,2,07,1.07,11.2,M,-34.3,M,0000,0000*6F 
180.437         GPS_NMEA_FROM_GPS    iGPS            $GPRMC,180240.000,A,4144.3369,N,06959.5421,W,0.68,233.33,220321,,,D*71 
181.339         GPS_NMEA_FROM_GPS    iGPS            $GPGGA,180241.000,4144.3367,N,06959.5424,W,2,08,1.01,11.3,M,-34.3,M,0000,0000*61 
182.342         GPS_NMEA_FROM_GPS    iGPS            $GPGGA,180242.000,4144.3366,N,06959.5426,W,2,08,1.01,11.4,M,-34.3,M,0000,0000*66 
183.445         GPS_NMEA_FROM_GPS    iGPS            $GPRMC,180243.000,A,4144.3364,N,06959.5428,W,0.65,229.68,220321,,,D*7E 
184.447         GPS_NMEA_FROM_GPS    iGPS            $GPRMC,180244.000,A,4144.3362,N,06959.5430,W,0.68,228.43,220321,,,D*73 
185.449         GPS_NMEA_FROM_GPS    iGPS            $GPRMC,180245.000,A,4144.3360,N,06959.5432,W,0.63,227.75,220321,,,D*73 
186.452         GPS_NMEA_FROM_GPS    iGPS            $GPGGA,180246.000,4144.3359,N,06959.5434,W,2,08,1.01,11.4,M,-34.3,M,0000,0000*6D 
187.454         GPS_NMEA_FROM_GPS    iGPS            $GPGGA,180247.000,4144.3357,N,06959.5436,W,2,08,1.01,11.4,M,-34.3,M,0000,0000*60 
188.357         GPS_NMEA_FROM_GPS    iGPS            $GPGGA,180248.000,4144.3356,N,06959.5439,W,2,08,1.01,11.5,M,-34.3,M,0000,0000*60 
189.460         GPS_NMEA_FROM_GPS    iGPS            $GPGGA,180249.000,4144.3355,N,06959.5441,W,2,08,1.01,11.4,M,-34.3,M,0000,0000*6C 
190.462         GPS_NMEA_FROM_GPS    iGPS            $GPGGA,180250.000,4144.3353,N,06959.5443,W,2,09,0.90,11.3,M,-34.3,M,0000,0000*6F 
191.465         GPS_NMEA_FROM_GPS    iGPS            $GPGGA,180251.000,4144.3352,N,06959.5445,W,2,08,1.01,11.3,M,-34.3,M,0000,0000*61 
192.468         GPS_NMEA_FROM_GPS    iGPS            $GPRMC,180252.000,A,4144.3350,N,06959.5447,W,0.65,231.31,220321,,,D*75 
193.470         GPS_NMEA_FROM_GPS    iGPS            $GPGGA,180253.000,4144.3349,N,06959.5448,W,2,08,1.01,11.4,M,-34.3,M,0000,0000*63 
194.473         GPS_NMEA_FROM_GPS    iGPS            $GPGGA,180254.000,4144.3347,N,06959.5449,W,2,08,1.01,11.4,M,-34.3,M,0000,0000*6B 
195.476         GPS_NMEA_FROM_GPS    iGPS            $GPGGA,180255.000,4144.3346,N,06959.5451,W,2,08,1.01,11.4,M,-34.3,M,0000,0000*62 
196.479         GPS_NMEA_FROM_GPS    iGPS            $GPGGA,180256.000,4144.3344,N,06959.5453,W,2,08,1.01,11.4,M,-34.3,M,0000,0000*61 
197.381         GPS_NMEA_FROM_GPS    iGPS            $GPGGA,180257.000,4144.3342,N,06959.5454,W,2,08,1.01,11.4,M,-34.3,M,0000,0000*61 
198.384         GPS_NMEA_FROM_GPS    iGPS            $GPGGA,180258.000,4144.3341,N,06959.5456,W,2,08,1.01,11.5,M,-34.3,M,0000,0000*6E 
199.386         GPS_NMEA_FROM_GPS    iGPS            $GPGGA,180259.000,4144.3340,N,06959.5457,W,2,08,1.01,11.4,M,-34.3,M,0000,0000*6E 
200.389         GPS_NMEA_FROM_GPS    iGPS            $GPGGA,180300.000,4144.3338,N,06959.5459,W,2,08,1.01,11.4,M,-34.3,M,0000,0000*62 
201.392         GPS_NMEA_FROM_GPS    iGPS            $GPGGA,180301.000,4144.3337,N,06959.5460,W,2,08,1.01,11.3,M,-34.3,M,0000,0000*61 
202.395         GPS_NMEA_FROM_GPS    iGPS            $GPGGA,180302.000,4144.3336,N,06959.5462,W,2,08,1.01,11.2,M,-34.3,M,0000,0000*60 
203.398         GPS_NMEA_FROM_GPS    iGPS            $GPRMC,180303.000,A,4144.3335,N,06959.5464,W,0.60,229.93,220321,,,D*76 
204.400         GPS_NMEA_FROM_GPS    iGPS            $GPGGA,180304.000,4144.3334,N,06959.5466,W,2,08,1.01,11.1,M,-34.3,M,0000,0000*63 
205.403         GPS_NMEA_FROM_GPS    iGPS            $GPGGA,180305.000,4144.3332,N,06959.5468,W,2,08,1.01,11.2,M,-34.3,M,0000,0000*69 
206.406         GPS_NMEA_FROM_GPS    iGPS            $GPGGA,180306.000,4144.3331,N,06959.5470,W,2,08,1.01,11.2,M,-34.3,M,0000,0000*60 
207.609         GPS_NMEA_FROM_GPS    iGPS            $GPRMC,180307.000,A,4144.3329,N,06959.5471,W,0.57,225.36,220321,,,D*7C 
208.411         GPS_NMEA_FROM_GPS    iGPS            $GPGGA,180308.000,4144.3328,N,06959.5473,W,2,08,0.95,11.3,M,-34.3,M,0000,0000*68 
209.415         GPS_NMEA_FROM_GPS    iGPS            $GPRMC,180309.000,A,4144.3327,N,06959.5475,W,0.60,224.18,220321,,,D*71 
210.418         GPS_NMEA_FROM_GPS    iGPS            $GPGGA,180310.000,4144.3325,N,06959.5477,W,2,08,1.01,11.4,M,-34.3,M,0000,0000*63 
211.320         GPS_NMEA_FROM_GPS    iGPS            $GPGGA,180311.000,4144.3324,N,06959.5479,W,2,08,1.01,11.4,M,-34.3,M,0000,0000*6D 
212.424         GPS_NMEA_FROM_GPS    iGPS            $GPGGA,180312.000,4144.3322,N,06959.5480,W,2,08,1.01,11.4,M,-34.3,M,0000,0000*6E 
213.426         GPS_NMEA_FROM_GPS    iGPS            $GPGGA,180313.000,4144.3321,N,06959.5482,W,2,08,1.01,11.4,M,-34.3,M,0000,0000*6E 
214.329         GPS_NMEA_FROM_GPS    iGPS            $GPGGA,180314.000,4144.3320,N,06959.5484,W,2,08,1.01,11.3,M,-34.3,M,0000,0000*69 
215.331         GPS_NMEA_FROM_GPS    iGPS            $GPGGA,180315.000,4144.3319,N,06959.5486,W,2,08,1.01,11.3,M,-34.3,M,0000,0000*60 
216.334         GPS_NMEA_FROM_GPS    iGPS            $GPGGA,180316.000,4144.3318,N,06959.5488,W,2,08,1.01,11.3,M,-34.3,M,0000,0000*6C 
217.337         GPS_NMEA_FROM_GPS    iGPS            $GPGGA,180317.000,4144.3317,N,06959.5490,W,2,08,1.01,11.3,M,-34.3,M,0000,0000*6B 
218.440         GPS_NMEA_FROM_GPS    iGPS            $GPGGA,180318.000,4144.3316,N,06959.5493,W,2,08,1.01,11.3,M,-34.3,M,0000,0000*66 
219.443         GPS_NMEA_FROM_GPS    iGPS            $GPGGA,180319.000,4144.3315,N,06959.5495,W,2,08,1.01,11.3,M,-34.3,M,0000,0000*62 
220.446         GPS_NMEA_FROM_GPS    iGPS            $GPRMC,180320.000,A,4144.3314,N,06959.5497,W,0.59,234.08,220321,,,D*7C 
221.348         GPS_NMEA_FROM_GPS    iGPS            $GPGGA,180321.000,4144.3312,N,06959.5499,W,2,08,1.01,11.3,M,-34.3,M,0000,0000*62 
222.351         GPS_NMEA_FROM_GPS    iGPS            $GPGGA,180322.000,4144.3312,N,06959.5501,W,2,08,1.01,11.3,M,-34.3,M,0000,0000*61 
223.353         GPS_NMEA_FROM_GPS    iGPS            $GPGGA,180323.000,4144.3311,N,06959.5503,W,2,07,1.07,11.3,M,-34.3,M,0000,0000*68 
224.356         GPS_NMEA_FROM_GPS    iGPS            $GPGGA,180324.000,4144.3310,N,06959.5505,W,2,07,1.07,11.3,M,-34.3,M,0000,0000*68 
225.459         GPS_NMEA_FROM_GPS    iGPS            $GPRMC,180325.000,A,4144.3310,N,06959.5507,W,0.57,236.76,220321,,,D*70 
226.361         GPS_NMEA_FROM_GPS    iGPS            $GPGGA,180326.000,4144.3309,N,06959.5509,W,2,08,1.01,11.4,M,-34.3,M,0000,0000*60 
227.364         GPS_NMEA_FROM_GPS    iGPS            $GPGGA,180327.000,4144.3309,N,06959.5511,W,2,08,1.01,11.4,M,-34.3,M,0000,0000*68 
228.367         GPS_NMEA_FROM_GPS    iGPS            $GPGGA,180328.000,4144.3308,N,06959.5513,W,2,08,1.01,11.4,M,-34.3,M,0000,0000*64 
229.369         GPS_NMEA_FROM_GPS    iGPS            $GPGGA,180329.000,4144.3308,N,06959.5514,W,2,08,1.01,11.3,M,-34.3,M,0000,0000*65 
230.372         GPS_NMEA_FROM_GPS    iGPS            $GPGGA,180330.000,4144.3307,N,06959.5515,W,2,08,1.01,11.4,M,-34.3,M,0000,0000*64 
231.475         GPS_NMEA_FROM_GPS    iGPS            $GPRMC,180331.000,A,4144.3306,N,06959.5517,W,0.49,238.92,220321,,,D*78 
232.377         GPS_NMEA_FROM_GPS    iGPS            $GPGGA,180332.000,4144.3305,N,06959.5518,W,2,08,1.01,11.4,M,-34.3,M,0000,0000*69 
233.380         GPS_NMEA_FROM_GPS    iGPS            $GPGGA,180333.000,4144.3304,N,06959.5521,W,2,08,1.01,11.5,M,-34.3,M,0000,0000*62 
234.382         GPS_NMEA_FROM_GPS    iGPS            $GPGGA,180334.000,4144.3304,N,06959.5522,W,2,08,1.01,11.5,M,-34.3,M,0000,0000*66 
235.385         GPS_NMEA_FROM_GPS    iGPS            $GPRMC,180335.000,A,4144.3303,N,06959.5524,W,0.51,240.36,220321,,,D*71 
236.388         GPS_NMEA_FROM_GPS    iGPS            $GPGGA,180336.000,4144.3303,N,06959.5526,W,2,08,1.01,11.5,M,-34.3,M,0000,0000*67 
237.390         GPS_NMEA_FROM_GPS    iGPS            $GPGGA,180337.000,4144.3303,N,06959.5528,W,2,08,1.01,11.4,M,-34.3,M,0000,0000*69 
238.493         GPS_NMEA_FROM_GPS    iGPS            $GPRMC,180338.000,A,4144.3303,N,06959.5529,W,0.48,247.38,220321,,,D*70 
239.495         GPS_NMEA_FROM_GPS    iGPS            $GPGGA,180339.000,4144.3303,N,06959.5530,W,2,08,1.01,11.4,M,-34.3,M,0000,0000*6E 
240.498         GPS_NMEA_FROM_GPS    iGPS            $GPGGA,180340.000,4144.3304,N,06959.5531,W,2,08,1.01,11.3,M,-34.3,M,0000,0000*61 
241.500         GPS_NMEA_FROM_GPS    iGPS            $GPGGA,180341.000,4144.3304,N,06959.5532,W,2,08,1.01,11.3,M,-34.3,M,0000,0000*63 
242.403         GPS_NMEA_FROM_GPS    iGPS            $GPGGA,180342.000,4144.3304,N,06959.5533,W,2,08,1.01,11.4,M,-34.3,M,0000,0000*66 
243.405         GPS_NMEA_FROM_GPS    iGPS            $GPGGA,180343.000,4144.3305,N,06959.5534,W,2,08,1.01,11.3,M,-34.3,M,0000,0000*66 
244.408         GPS_NMEA_FROM_GPS    iGPS            $GPGGA,180344.000,4144.3306,N,06959.5535,W,2,07,1.07,11.2,M,-34.3,M,0000,0000*6B 
245.411         GPS_NMEA_FROM_GPS    iGPS            $GPRMC,180345.000,A,4144.3307,N,06959.5536,W,0.43,258.47,220321,,,D*7D 
246.413         GPS_NMEA_FROM_GPS    iGPS            $GPGGA,180346.000,4144.3308,N,06959.5537,W,2,07,1.07,11.2,M,-34.3,M,0000,0000*65 
247.416         GPS_NMEA_FROM_GPS    iGPS            $GPRMC,180347.000,A,4144.3308,N,06959.5538,W,0.39,261.87,220321,,,D*75 
248.418         GPS_NMEA_FROM_GPS    iGPS            $GPGGA,180348.000,4144.3309,N,06959.5540,W,2,08,0.95,11.2,M,-34.3,M,0000,0000*6F 
249.421         GPS_NMEA_FROM_GPS    iGPS            $GPRMC,180349.000,A,4144.3310,N,06959.5541,W,0.51,263.19,220321,,,D*77 
250.324         GPS_NMEA_FROM_GPS    iGPS            $GPGGA,180350.000,4144.3311,N,06959.5542,W,2,07,1.05,11.3,M,-34.3,M,0000,0000*6B 
251.326         GPS_NMEA_FROM_GPS    iGPS            $GPGGA,180351.000,4144.3312,N,06959.5543,W,2,07,1.05,11.3,M,-34.3,M,0000,0000*68 
252.329         GPS_NMEA_FROM_GPS    iGPS            $GPGGA,180352.000,4144.3313,N,06959.5543,W,2,07,1.05,11.3,M,-34.3,M,0000,0000*6A 
253.432         GPS_NMEA_FROM_GPS    iGPS            $GPGGA,180353.000,4144.3314,N,06959.5544,W,2,08,0.95,11.3,M,-34.3,M,0000,0000*6C 
254.334         GPS_NMEA_FROM_GPS    iGPS            $GPGGA,180354.000,4144.3314,N,06959.5545,W,2,08,0.95,11.3,M,-34.3,M,0000,0000*6A 
255.436         GPS_NMEA_FROM_GPS    iGPS            $GPGGA,180355.000,4144.3315,N,06959.5546,W,2,08,0.95,11.3,M,-34.3,M,0000,0000*69 
256.339         GPS_NMEA_FROM_GPS    iGPS            $GPRMC,180356.000,A,4144.3316,N,06959.5548,W,0.59,267.84,220321,,,D*7E 
257.342         GPS_NMEA_FROM_GPS    iGPS            $GPGGA,180357.000,4144.3316,N,06959.5549,W,2,08,0.95,11.4,M,-34.3,M,0000,0000*60 
258.344         GPS_NMEA_FROM_GPS    iGPS            $GPRMC,180358.000,A,4144.3317,N,06959.5550,W,0.55,269.38,220321,,,D*7D 
259.347         GPS_NMEA_FROM_GPS    iGPS            $GPGGA,180359.000,4144.3318,N,06959.5552,W,2,07,1.05,11.3,M,-34.3,M,0000,0000*6A 
260.450         GPS_NMEA_FROM_GPS    iGPS            $GPRMC,180400.000,A,4144.3319,N,06959.5553,W,0.54,269.76,220321,,,D*71 
261.453         GPS_NMEA_FROM_GPS    iGPS            $GPGGA,180401.000,4144.3319,N,06959.5554,W,2,08,0.95,11.3,M,-34.3,M,0000,0000*60 
262.355         GPS_NMEA_FROM_GPS    iGPS            $GPGGA,180402.000,4144.3320,N,06959.5556,W,2,07,1.05,11.3,M,-34.3,M,0000,0000*6C 
263.358         GPS_NMEA_FROM_GPS    iGPS            $GPRMC,180403.000,A,4144.3321,N,06959.5557,W,0.57,272.04,220321,,,D*71 
264.461         GPS_NMEA_FROM_GPS    iGPS            $GPRMC,180404.000,A,4144.3321,N,06959.5559,W,0.57,271.98,220321,,,D*7E 
265.363         GPS_NMEA_FROM_GPS    iGPS            $GPGGA,180405.000,4144.3321,N,06959.5560,W,2,08,0.95,11.3,M,-34.3,M,0000,0000*68 
266.365         GPS_NMEA_FROM_GPS    iGPS            $GPGGA,180406.000,4144.3322,N,06959.5562,W,2,08,0.95,11.3,M,-34.3,M,0000,0000*6A 
267.368         GPS_NMEA_FROM_GPS    iGPS            $GPGGA,180407.000,4144.3322,N,06959.5564,W,2,08,0.95,11.3,M,-34.3,M,0000,0000*6D 
268.271         GPS_NMEA_FROM_GPS    iGPS            $GPGGA,180408.000,4144.3323,N,06959.5566,W,2,07,1.05,11.3,M,-34.3,M,0000,0000*66 
269.373         GPS_NMEA_FROM_GPS    iGPS            $GPGGA,180409.000,4144.3323,N,06959.5568,W,2,07,1.05,11.3,M,-34.3,M,0000,0000*69 
270.376         GPS_NMEA_FROM_GPS    iGPS            $GPGGA,180410.000,4144.3324,N,06959.5570,W,2,08,0.95,11.3,M,-34.3,M,0000,0000*68 
271.378         GPS_NMEA_FROM_GPS    iGPS            $GPGGA,180411.000,4144.3324,N,06959.5571,W,2,08,0.95,11.4,M,-34.3,M,0000,0000*6F 
272.382         GPS_NMEA_FROM_GPS    iGPS            $GPRMC,180412.000,A,4144.3324,N,06959.5573,W,0.63,273.27,220321,,,D*75 
273.384         GPS_NMEA_FROM_GPS    iGPS            $GPGGA,180413.000,4144.3325,N,06959.5575,W,2,07,1.05,11.4,M,-34.3,M,0000,0000*6F 
274.387         GPS_NMEA_FROM_GPS    iGPS            $GPGGA,180414.000,4144.3325,N,06959.5578,W,2,08,0.95,11.4,M,-34.3,M,0000,0000*62 
275.289         GPS_NMEA_FROM_GPS    iGPS            $GPGGA,180415.000,4144.3326,N,06959.5580,W,2,07,1.05,11.5,M,-34.3,M,0000,0000*61 
276.392         GPS_NMEA_FROM_GPS    iGPS            $GPGGA,180416.000,4144.3326,N,06959.5582,W,2,08,0.95,11.4,M,-34.3,M,0000,0000*66 
277.294         GPS_NMEA_FROM_GPS    iGPS            $GPGGA,180417.000,4144.3327,N,06959.5584,W,2,07,1.05,11.5,M,-34.3,M,0000,0000*66 
278.297         GPS_NMEA_FROM_GPS    iGPS            $GPGGA,180418.000,4144.3327,N,06959.5586,W,2,07,1.05,11.5,M,-34.3,M,0000,0000*6B 
279.300         GPS_NMEA_FROM_GPS    iGPS            $GPGGA,180419.000,4144.3327,N,06959.5588,W,2,07,1.05,11.5,M,-34.3,M,0000,0000*64 
280.303         GPS_NMEA_FROM_GPS    iGPS            $GPGGA,180420.000,4144.3327,N,06959.5591,W,2,07,1.05,11.6,M,-34.3,M,0000,0000*65 
281.406         GPS_NMEA_FROM_GPS    iGPS            $GPRMC,180421.000,A,4144.3327,N,06959.5593,W,0.63,271.65,220321,,,D*7C 
282.409         GPS_NMEA_FROM_GPS    iGPS            $GPGGA,180422.000,4144.3328,N,06959.5596,W,2,08,0.95,11.7,M,-34.3,M,0000,0000*69 
283.411         GPS_NMEA_FROM_GPS    iGPS            $GPGGA,180423.000,4144.3328,N,06959.5598,W,2,08,0.95,11.7,M,-34.3,M,0000,0000*66 
284.314         GPS_NMEA_FROM_GPS    iGPS            $GPGGA,180424.000,4144.3328,N,06959.5601,W,2,08,0.95,11.7,M,-34.3,M,0000,0000*62 
285.416         GPS_NMEA_FROM_GPS    iGPS            $GPRMC,180425.000,A,4144.3328,N,06959.5603,W,0.66,270.33,220321,,,D*7A 
286.318         GPS_NMEA_FROM_GPS    iGPS            $GPGGA,180426.000,4144.3329,N,06959.5606,W,2,08,0.95,11.8,M,-34.3,M,0000,0000*69 
287.421         GPS_NMEA_FROM_GPS    iGPS            $GPRMC,180427.000,A,4144.3329,N,06959.5608,W,0.66,268.80,220321,,,D*73 
288.324         GPS_NMEA_FROM_GPS    iGPS            $GPGGA,180428.000,4144.3329,N,06959.5611,W,2,07,1.05,11.9,M,-34.3,M,0000,0000*67 
289.427         GPS_NMEA_FROM_GPS    iGPS            $GPGGA,180429.000,4144.3329,N,06959.5614,W,2,08,0.95,11.8,M,-34.3,M,0000,0000*65 
290.329         GPS_NMEA_FROM_GPS    iGPS            $GPGGA,180430.000,4144.3329,N,06959.5617,W,2,07,1.05,12.0,M,-34.3,M,0000,0000*62 
291.332         GPS_NMEA_FROM_GPS    iGPS            $GPGGA,180431.000,4144.3328,N,06959.5620,W,2,07,1.05,12.0,M,-34.3,M,0000,0000*66 
292.435         GPS_NMEA_FROM_GPS    iGPS            $GPGGA,180432.000,4144.3328,N,06959.5623,W,2,08,0.95,12.0,M,-34.3,M,0000,0000*61 
293.338         GPS_NMEA_FROM_GPS    iGPS            $GPGGA,180433.000,4144.3328,N,06959.5625,W,2,08,0.95,12.0,M,-34.3,M,0000,0000*66 
294.340         GPS_NMEA_FROM_GPS    iGPS            $GPGGA,180434.000,4144.3328,N,06959.5628,W,2,08,0.95,12.0,M,-34.3,M,0000,0000*6C 
295.443         GPS_NMEA_FROM_GPS    iGPS            $GPRMC,180435.000,A,4144.3329,N,06959.5630,W,0.62,268.01,220321,,,D*76 
296.346         GPS_NMEA_FROM_GPS    iGPS            $GPGGA,180436.000,4144.3329,N,06959.5632,W,2,07,1.05,12.0,M,-34.3,M,0000,0000*63 
297.348         GPS_NMEA_FROM_GPS    iGPS            $GPGGA,180437.000,4144.3329,N,06959.5634,W,2,07,1.05,11.9,M,-34.3,M,0000,0000*6E 
298.350         GPS_NMEA_FROM_GPS    iGPS            $GPGGA,180438.000,4144.3329,N,06959.5636,W,2,08,1.01,11.9,M,-34.3,M,0000,0000*68 
299.353         GPS_NMEA_FROM_GPS    iGPS            $GPGGA,180439.000,4144.3329,N,06959.5638,W,2,08,0.95,11.9,M,-34.3,M,0000,0000*6B 
300.356         GPS_NMEA_FROM_GPS    iGPS            $GPGGA,180440.000,4144.3329,N,06959.5640,W,2,08,0.95,11.8,M,-34.3,M,0000,0000*6B 
301.358         GPS_NMEA_FROM_GPS    iGPS            $GPGGA,180441.000,4144.3329,N,06959.5642,W,2,09,0.90,11.9,M,-34.3,M,0000,0000*6D 
302.461         GPS_NMEA_FROM_GPS    iGPS            $GPRMC,180442.000,A,4144.3329,N,06959.5644,W,0.59,264.99,220321,,,D*70 
303.464         GPS_NMEA_FROM_GPS    iGPS            $GPRMC,180443.000,A,4144.3329,N,06959.5647,W,0.61,264.75,220321,,,D*7B 
304.466         GPS_NMEA_FROM_GPS    iGPS            $GPRMC,180444.000,A,4144.3329,N,06959.5649,W,0.62,264.66,220321,,,D*73 
305.469         GPS_NMEA_FROM_GPS    iGPS            $GPRMC,180445.000,A,4144.3329,N,06959.5651,W,0.61,264.66,220321,,,D*78 
306.471         GPS_NMEA_FROM_GPS    iGPS            $GPRMC,180446.000,A,4144.3329,N,06959.5654,W,0.59,264.53,220321,,,D*73 
307.373         GPS_NMEA_FROM_GPS    iGPS            $GPGGA,180447.000,4144.3329,N,06959.5656,W,2,09,0.87,11.9,M,-34.3,M,0000,0000*68 
308.376         GPS_NMEA_FROM_GPS    iGPS            $GPGGA,180448.000,4144.3329,N,06959.5658,W,2,08,0.95,11.9,M,-34.3,M,0000,0000*6B 
309.379         GPS_NMEA_FROM_GPS    iGPS            $GPGGA,180449.000,4144.3329,N,06959.5660,W,2,08,0.95,11.9,M,-34.3,M,0000,0000*61 
310.381         GPS_NMEA_FROM_GPS    iGPS            $GPGGA,180450.000,4144.3329,N,06959.5662,W,2,09,0.87,11.9,M,-34.3,M,0000,0000*69 
311.384         GPS_NMEA_FROM_GPS    iGPS            $GPGGA,180451.000,4144.3329,N,06959.5664,W,2,09,0.87,12.0,M,-34.3,M,0000,0000*64 
312.387         GPS_NMEA_FROM_GPS    iGPS            $GPRMC,180452.000,A,4144.3329,N,06959.5666,W,0.55,265.14,220321,,,D*79 
313.389         GPS_NMEA_FROM_GPS    iGPS            $GPGGA,180453.000,4144.3329,N,06959.5668,W,2,07,1.05,12.0,M,-34.3,M,0000,0000*6F 
314.292         GPS_NMEA_FROM_GPS    iGPS            $GPGGA,180454.000,4144.3329,N,06959.5669,W,2,07,1.05,12.0,M,-34.3,M,0000,0000*69 
315.395         GPS_NMEA_FROM_GPS    iGPS            $GPGGA,180455.000,4144.3329,N,06959.5671,W,2,08,0.95,11.9,M,-34.3,M,0000,0000*6C 
316.397         GPS_NMEA_FROM_GPS    iGPS            $GPGGA,180456.000,4144.3329,N,06959.5673,W,2,07,1.05,11.9,M,-34.3,M,0000,0000*6A 
317.400         GPS_NMEA_FROM_GPS    iGPS            $GPRMC,180457.000,A,4144.3329,N,06959.5675,W,0.50,268.95,220321,,,D*7F 
318.302         GPS_NMEA_FROM_GPS    iGPS            $GPGGA,180458.000,4144.3329,N,06959.5677,W,2,07,1.05,11.9,M,-34.3,M,0000,0000*60 
319.305         GPS_NMEA_FROM_GPS    iGPS            $GPGGA,180459.000,4144.3330,N,06959.5679,W,2,07,1.05,11.9,M,-34.3,M,0000,0000*67 
320.308         GPS_NMEA_FROM_GPS    iGPS            $GPGGA,180500.000,4144.3330,N,06959.5681,W,2,07,1.05,11.9,M,-34.3,M,0000,0000*6D 
321.311         GPS_NMEA_FROM_GPS    iGPS            $GPGGA,180501.000,4144.3330,N,06959.5683,W,2,07,1.05,11.9,M,-34.3,M,0000,0000*6E 
322.313         GPS_NMEA_FROM_GPS    iGPS            $GPGGA,180502.000,4144.3330,N,06959.5685,W,2,07,1.05,11.9,M,-34.3,M,0000,0000*6B 
323.316         GPS_NMEA_FROM_GPS    iGPS            $GPGGA,180503.000,4144.3330,N,06959.5686,W,2,07,1.05,11.9,M,-34.3,M,0000,0000*69 
324.419         GPS_NMEA_FROM_GPS    iGPS            $GPRMC,180504.000,A,4144.3330,N,06959.5688,W,0.49,272.70,220321,,,D*7A 
325.421         GPS_NMEA_FROM_GPS    iGPS            $GPRMC,180505.000,A,4144.3330,N,06959.5690,W,0.49,273.38,220321,,,D*7F 
326.323         GPS_NMEA_FROM_GPS    iGPS            $GPGGA,180506.000,4144.3330,N,06959.5692,W,2,07,1.05,11.9,M,-34.3,M,0000,0000*69 
327.325         GPS_NMEA_FROM_GPS    iGPS            $GPGGA,180507.000,4144.3330,N,06959.5694,W,2,07,1.05,11.9,M,-34.3,M,0000,0000*6E 
328.328         GPS_NMEA_FROM_GPS    iGPS            $GPGGA,180508.000,4144.3330,N,06959.5696,W,2,07,1.05,11.9,M,-34.3,M,0000,0000*63 
329.331         GPS_NMEA_FROM_GPS    iGPS            $GPGGA,180509.000,4144.3331,N,06959.5698,W,2,07,1.05,11.9,M,-34.3,M,0000,0000*6D 
330.335         GPS_NMEA_FROM_GPS    iGPS            $GPGGA,180510.000,4144.3331,N,06959.5700,W,2,07,1.05,11.9,M,-34.3,M,0000,0000*65 
331.337         GPS_NMEA_FROM_GPS    iGPS            $GPGGA,180511.000,4144.3331,N,06959.5701,W,2,07,1.05,11.9,M,-34.3,M,0000,0000*65 
332.340         GPS_NMEA_FROM_GPS    iGPS            $GPGGA,180512.000,4144.3331,N,06959.5703,W,2,07,1.05,11.9,M,-34.3,M,0000,0000*64 
333.343         GPS_NMEA_FROM_GPS    iGPS            $GPGGA,180513.000,4144.3332,N,06959.5705,W,2,07,1.05,11.9,M,-34.3,M,0000,0000*60 
334.345         GPS_NMEA_FROM_GPS    iGPS            $GPRMC,180514.000,A,4144.3332,N,06959.5707,W,0.53,278.92,220321,,,D*72 
335.348         GPS_NMEA_FROM_GPS    iGPS            $GPGGA,180515.000,4144.3332,N,06959.5709,W,2,07,1.05,11.9,M,-34.3,M,0000,0000*6A 
336.350         GPS_NMEA_FROM_GPS    iGPS            $GPRMC,180516.000,A,4144.3332,N,06959.5711,W,0.53,280.05,220321,,,D*7E 
337.353         GPS_NMEA_FROM_GPS    iGPS            $GPGGA,180517.000,4144.3333,N,06959.5713,W,2,07,1.05,11.9,M,-34.3,M,0000,0000*62 
338.355         GPS_NMEA_FROM_GPS    iGPS            $GPGGA,180518.000,4144.3333,N,06959.5715,W,2,07,1.05,11.9,M,-34.3,M,0000,0000*6B 
339.358         GPS_NMEA_FROM_GPS    iGPS            $GPGGA,180519.000,4144.3333,N,06959.5717,W,2,07,1.05,11.9,M,-34.3,M,0000,0000*68 
340.360         GPS_NMEA_FROM_GPS    iGPS            $GPGGA,180520.000,4144.3334,N,06959.5719,W,2,07,1.05,11.9,M,-34.3,M,0000,0000*6B 
341.262         GPS_NMEA_FROM_GPS    iGPS            $GPGGA,180521.000,4144.3334,N,06959.5721,W,2,07,1.05,11.9,M,-34.3,M,0000,0000*61 
342.265         GPS_NMEA_FROM_GPS    iGPS            $GPGGA,180522.000,4144.3335,N,06959.5723,W,2,07,1.05,11.9,M,-34.3,M,0000,0000*61 
343.268         GPS_NMEA_FROM_GPS    iGPS            $GPGGA,180523.000,4144.3335,N,06959.5725,W,2,07,1.05,11.9,M,-34.3,M,0000,0000*66 
344.271         GPS_NMEA_FROM_GPS    iGPS            $GPGGA,180524.000,4144.3336,N,06959.5727,W,2,07,1.05,11.8,M,-34.3,M,0000,0000*61 
345.373         GPS_NMEA_FROM_GPS    iGPS            $GPGGA,180525.000,4144.3337,N,06959.5729,W,2,08,0.95,11.8,M,-34.3,M,0000,0000*68 
346.376         GPS_NMEA_FROM_GPS    iGPS            $GPGGA,180526.000,4144.3337,N,06959.5732,W,2,08,0.95,11.8,M,-34.3,M,0000,0000*61 
347.379         GPS_NMEA_FROM_GPS    iGPS            $GPGGA,180527.000,4144.3338,N,06959.5734,W,2,08,0.95,11.8,M,-34.3,M,0000,0000*69 
348.382         GPS_NMEA_FROM_GPS    iGPS            $GPGGA,180528.000,4144.3339,N,06959.5737,W,2,08,0.95,11.8,M,-34.3,M,0000,0000*64 
349.384         GPS_NMEA_FROM_GPS    iGPS            $GPGGA,180529.000,4144.3340,N,06959.5739,W,2,08,0.95,11.9,M,-34.3,M,0000,0000*64 
350.488         GPS_NMEA_FROM_GPS    iGPS            $GPRMC,180530.000,A,4144.3340,N,06959.5742,W,0.59,290.52,220321,,,D*70 
351.390         GPS_NMEA_FROM_GPS    iGPS            $GPGGA,180531.000,4144.3341,N,06959.5745,W,2,08,0.95,11.9,M,-34.3,M,0000,0000*67 
352.392         GPS_NMEA_FROM_GPS    iGPS            $GPGGA,180532.000,4144.3342,N,06959.5747,W,2,08,0.95,11.9,M,-34.3,M,0000,0000*65 
353.395         GPS_NMEA_FROM_GPS    iGPS            $GPRMC,180533.000,A,4144.3342,N,06959.5750,W,0.61,292.28,220321,,,D*76 
354.397         GPS_NMEA_FROM_GPS    iGPS            $GPGGA,180534.000,4144.3343,N,06959.5752,W,2,08,0.95,11.9,M,-34.3,M,0000,0000*66 
355.501         GPS_NMEA_FROM_GPS    iGPS            $GPRMC,180535.000,A,4144.3344,N,06959.5755,W,0.66,295.04,220321,,,D*7D 
356.403         GPS_NMEA_FROM_GPS    iGPS            $GPGGA,180536.000,4144.3345,N,06959.5758,W,2,08,1.01,11.9,M,-34.3,M,0000,0000*64 
357.406         GPS_NMEA_FROM_GPS    iGPS            $GPGGA,180537.000,4144.3346,N,06959.5760,W,2,08,1.01,12.0,M,-34.3,M,0000,0000*67 
358.408         GPS_NMEA_FROM_GPS    iGPS            $GPGGA,180538.000,4144.3347,N,06959.5763,W,2,08,1.01,12.0,M,-34.3,M,0000,0000*6A 
359.311         GPS_NMEA_FROM_GPS    iGPS            $GPGGA,180539.000,4144.3348,N,06959.5765,W,2,08,0.95,12.0,M,-34.3,M,0000,0000*6E 
360.413         GPS_NMEA_FROM_GPS    iGPS            $GPRMC,180540.000,A,4144.3349,N,06959.5767,W,0.67,297.92,220321,,,D*7F 
361.416         GPS_NMEA_FROM_GPS    iGPS            $GPRMC,180541.000,A,4144.3350,N,06959.5770,W,0.69,298.04,220321,,,D*7E 
362.318         GPS_NMEA_FROM_GPS    iGPS            $GPGGA,180542.000,4144.3351,N,06959.5773,W,2,08,1.01,12.2,M,-34.3,M,0000,0000*63 
363.320         GPS_NMEA_FROM_GPS    iGPS            $GPGGA,180543.000,4144.3353,N,06959.5775,W,2,08,1.01,12.2,M,-34.3,M,0000,0000*66 
364.322         GPS_NMEA_FROM_GPS    iGPS            $GPGGA,180544.000,4144.3354,N,06959.5777,W,2,08,1.01,12.3,M,-34.3,M,0000,0000*65 
365.326         GPS_NMEA_FROM_GPS    iGPS            $GPGGA,180545.000,4144.3355,N,06959.5780,W,2,06,1.29,12.3,M,-34.3,M,0000,0000*69 
366.429         GPS_NMEA_FROM_GPS    iGPS            $GPRMC,180546.000,A,4144.3356,N,06959.5782,W,0.65,300.37,220321,,,D*7E 
367.431         GPS_NMEA_FROM_GPS    iGPS            $GPRMC,180547.000,A,4144.3358,N,06959.5784,W,0.64,300.41,220321,,,D*77 
368.333         GPS_NMEA_FROM_GPS    iGPS            $GPGGA,180548.000,4144.3359,N,06959.5786,W,2,08,1.01,12.4,M,-34.3,M,0000,0000*6D 
369.336         GPS_NMEA_FROM_GPS    iGPS            $GPGGA,180549.000,4144.3360,N,06959.5789,W,2,08,0.95,12.4,M,-34.3,M,0000,0000*65 
370.339         GPS_NMEA_FROM_GPS    iGPS            $GPGGA,180550.000,4144.3361,N,06959.5791,W,2,08,0.95,12.4,M,-34.3,M,0000,0000*65 
371.341         GPS_NMEA_FROM_GPS    iGPS            $GPGGA,180551.000,4144.3362,N,06959.5793,W,2,08,1.01,12.5,M,-34.3,M,0000,0000*68 
372.344         GPS_NMEA_FROM_GPS    iGPS            $GPGGA,180552.000,4144.3363,N,06959.5795,W,2,08,1.01,12.5,M,-34.3,M,0000,0000*6C 
373.347         GPS_NMEA_FROM_GPS    iGPS            $GPGGA,180553.000,4144.3363,N,06959.5797,W,2,06,1.33,12.6,M,-34.3,M,0000,0000*63 
374.349         GPS_NMEA_FROM_GPS    iGPS            $GPGGA,180554.000,4144.3364,N,06959.5799,W,2,08,1.01,12.6,M,-34.3,M,0000,0000*62 
375.452         GPS_NMEA_FROM_GPS    iGPS            $GPRMC,180555.000,A,4144.3365,N,06959.5800,W,0.56,305.98,220321,,,D*79 
376.356         GPS_NMEA_FROM_GPS    iGPS            $GPGGA,180556.000,4144.3366,N,06959.5802,W,2,08,0.95,12.6,M,-34.3,M,0000,0000*63 
377.357         GPS_NMEA_FROM_GPS    iGPS            $GPGGA,180557.000,4144.3367,N,06959.5803,W,2,07,1.05,12.6,M,-34.3,M,0000,0000*65 
378.360         GPS_NMEA_FROM_GPS    iGPS            $GPGGA,180558.000,4144.3368,N,06959.5805,W,2,08,1.01,12.6,M,-34.3,M,0000,0000*68 
379.463         GPS_NMEA_FROM_GPS    iGPS            $GPRMC,180559.000,A,4144.3369,N,06959.5806,W,0.56,310.36,220321,,,D*7F 
380.365         GPS_NMEA_FROM_GPS    iGPS            $GPGGA,180600.000,4144.3370,N,06959.5808,W,2,08,1.01,12.6,M,-34.3,M,0000,0000*62 
381.368         GPS_NMEA_FROM_GPS    iGPS            $GPGGA,180601.000,4144.3371,N,06959.5809,W,2,08,1.01,12.6,M,-34.3,M,0000,0000*63 
382.370         GPS_NMEA_FROM_GPS    iGPS            $GPGGA,180602.000,4144.3373,N,06959.5811,W,2,08,1.01,12.6,M,-34.3,M,0000,0000*6B 
383.372         GPS_NMEA_FROM_GPS    iGPS            $GPGGA,180603.000,4144.3374,N,06959.5812,W,2,08,1.01,12.6,M,-34.3,M,0000,0000*6E 
384.375         GPS_NMEA_FROM_GPS    iGPS            $GPRMC,180604.000,A,4144.3376,N,06959.5813,W,0.59,321.09,220321,,,D*7F 
385.377         GPS_NMEA_FROM_GPS    iGPS            $GPGGA,180605.000,4144.3377,N,06959.5814,W,2,08,1.01,12.6,M,-34.3,M,0000,0000*6D 
386.280         GPS_NMEA_FROM_GPS    iGPS            $GPGGA,180606.000,4144.3379,N,06959.5815,W,2,08,1.01,12.7,M,-34.3,M,0000,0000*60 
387.383         GPS_NMEA_FROM_GPS    iGPS            $GPGGA,180607.000,4144.3381,N,06959.5817,W,2,08,1.01,12.8,M,-34.3,M,0000,0000*6B 
388.385         GPS_NMEA_FROM_GPS    iGPS            $GPGGA,180608.000,4144.3381,N,06959.5818,W,2,08,1.01,12.8,M,-34.3,M,0000,0000*6B 
389.388         GPS_NMEA_FROM_GPS    iGPS            $GPGGA,180609.000,4144.3382,N,06959.5819,W,2,08,1.01,12.8,M,-34.3,M,0000,0000*68 
390.391         GPS_NMEA_FROM_GPS    iGPS            $GPRMC,180610.000,A,4144.3383,N,06959.5822,W,0.64,324.11,220321,,,D*70 
391.394         GPS_NMEA_FROM_GPS    iGPS            $GPRMC,180611.000,A,4144.3383,N,06959.5824,W,0.60,322.06,220321,,,D*73 
392.396         GPS_NMEA_FROM_GPS    iGPS            $GPRMC,180612.000,A,4144.3386,N,06959.5825,W,0.71,322.16,220321,,,D*75 
393.399         GPS_NMEA_FROM_GPS    iGPS            $GPRMC,180613.000,A,4144.3387,N,06959.5826,W,0.66,322.81,220321,,,D*7E 
394.403         GPS_NMEA_FROM_GPS    iGPS            $GPGGA,180614.000,4144.3388,N,06959.5828,W,2,08,1.01,13.2,M,-34.3,M,0000,0000*67 
395.405         GPS_NMEA_FROM_GPS    iGPS            $GPGGA,180615.000,4144.3389,N,06959.5828,W,2,08,1.01,13.1,M,-34.3,M,0000,0000*64 
396.508         GPS_NMEA_FROM_GPS    iGPS            $GPGGA,180616.000,4144.3389,N,06959.5828,W,2,08,1.01,13.0,M,-34.3,M,0000,0000*66 
397.411         GPS_NMEA_FROM_GPS    iGPS            $GPRMC,180617.000,A,4144.3389,N,06959.5829,W,0.49,328.30,220321,,,D*76 
398.413         GPS_NMEA_FROM_GPS    iGPS            $GPGGA,180618.000,4144.3390,N,06959.5829,W,2,08,1.01,12.9,M,-34.3,M,0000,0000*69 
399.316         GPS_NMEA_FROM_GPS    iGPS            $GPGGA,180619.000,4144.3390,N,06959.5830,W,2,08,1.01,12.9,M,-34.3,M,0000,0000*60 
400.318         GPS_NMEA_FROM_GPS    iGPS            $GPGGA,180620.000,4144.3391,N,06959.5830,W,2,08,1.01,12.9,M,-34.3,M,0000,0000*6B 
401.422         GPS_NMEA_FROM_GPS    iGPS            $GPGGA,180621.000,4144.3392,N,06959.5831,W,2,08,1.01,12.9,M,-34.3,M,0000,0000*68 
402.325         GPS_NMEA_FROM_GPS    iGPS            $GPGGA,180622.000,4144.3393,N,06959.5831,W,2,08,1.01,12.8,M,-34.3,M,0000,0000*6B 
403.428         GPS_NMEA_FROM_GPS    iGPS            $GPGGA,180623.000,4144.3393,N,06959.5830,W,2,08,1.01,12.7,M,-34.3,M,0000,0000*64 
404.430         GPS_NMEA_FROM_GPS    iGPS            $GPGGA,180624.000,4144.3393,N,06959.5830,W,2,09,0.90,12.7,M,-34.3,M,0000,0000*6B 
405.433         GPS_NMEA_FROM_GPS    iGPS            $GPGGA,180625.000,4144.3394,N,06959.5830,W,2,09,0.90,12.6,M,-34.3,M,0000,0000*6C 
406.436         GPS_NMEA_FROM_GPS    iGPS            $GPGGA,180626.000,4144.3394,N,06959.5830,W,2,09,0.90,12.5,M,-34.3,M,0000,0000*6C 
407.338         GPS_NMEA_FROM_GPS    iGPS            $GPGGA,180627.000,4144.3395,N,06959.5830,W,2,09,0.90,12.5,M,-34.3,M,0000,0000*6C 
408.441         GPS_NMEA_FROM_GPS    iGPS            $GPRMC,180628.000,A,4144.3395,N,06959.5830,W,0.48,338.64,220321,,,D*7E 
409.444         GPS_NMEA_FROM_GPS    iGPS            $GPRMC,180629.000,A,4144.3395,N,06959.5831,W,0.48,338.28,220321,,,D*76 
410.446         GPS_NMEA_FROM_GPS    iGPS            $GPGGA,180630.000,4144.3395,N,06959.5831,W,2,08,1.01,11.8,M,-34.3,M,0000,0000*6D 
411.549         GPS_NMEA_FROM_GPS    iGPS            $GPRMC,180631.000,A,4144.3396,N,06959.5832,W,0.49,336.71,220321,,,D*7C 
412.451         GPS_NMEA_FROM_GPS    iGPS            $GPGGA,180632.000,4144.3398,N,06959.5832,W,2,08,1.01,11.8,M,-34.3,M,0000,0000*61 
413.454         GPS_NMEA_FROM_GPS    iGPS            $GPRMC,180633.000,A,4144.3399,N,06959.5833,W,0.51,337.09,220321,,,D*77 
414.456         GPS_NMEA_FROM_GPS    iGPS            $GPGGA,180634.000,4144.3400,N,06959.5834,W,2,08,1.01,11.7,M,-34.3,M,0000,0000*68 
415.359         GPS_NMEA_FROM_GPS    iGPS            $GPGGA,180635.000,4144.3402,N,06959.5835,W,2,08,1.01,11.7,M,-34.3,M,0000,0000*6A 
416.463         GPS_NMEA_FROM_GPS    iGPS            $GPRMC,180636.000,A,4144.3403,N,06959.5835,W,0.54,342.81,220321,,,D*77 
417.465         GPS_NMEA_FROM_GPS    iGPS            $GPGGA,180637.000,4144.3405,N,06959.5835,W,2,08,1.01,11.7,M,-34.3,M,0000,0000*6F 
418.467         GPS_NMEA_FROM_GPS    iGPS            $GPRMC,180638.000,A,4144.3406,N,06959.5836,W,0.58,347.39,220321,,,D*75 
419.470         GPS_NMEA_FROM_GPS    iGPS            $GPGGA,180639.000,4144.3408,N,06959.5836,W,2,08,1.01,11.6,M,-34.3,M,0000,0000*6E 
420.372         GPS_NMEA_FROM_GPS    iGPS            $GPGGA,180640.000,4144.3409,N,06959.5836,W,2,08,1.01,11.6,M,-34.3,M,0000,0000*61 
421.375         GPS_NMEA_FROM_GPS    iGPS            $GPGGA,180641.000,4144.3411,N,06959.5836,W,2,08,1.01,11.6,M,-34.3,M,0000,0000*69 
422.478         GPS_NMEA_FROM_GPS    iGPS            $GPRMC,180642.000,A,4144.3412,N,06959.5837,W,0.58,348.62,220321,,,D*7D 
423.380         GPS_NMEA_FROM_GPS    iGPS            $GPGGA,180643.000,4144.3413,N,06959.5838,W,2,08,1.01,11.4,M,-34.3,M,0000,0000*65 
424.483         GPS_NMEA_FROM_GPS    iGPS            $GPRMC,180644.000,A,4144.3414,N,06959.5839,W,0.63,349.79,220321,,,D*70 
425.485         GPS_NMEA_FROM_GPS    iGPS            $GPGGA,180645.000,4144.3415,N,06959.5839,W,2,08,1.01,11.3,M,-34.3,M,0000,0000*63 
426.488         GPS_NMEA_FROM_GPS    iGPS            $GPGGA,180646.000,4144.3416,N,06959.5840,W,2,08,1.01,11.3,M,-34.3,M,0000,0000*6D 
427.390         GPS_NMEA_FROM_GPS    iGPS            $GPGGA,180647.000,4144.3417,N,06959.5841,W,2,08,1.01,11.3,M,-34.3,M,0000,0000*6C 
428.393         GPS_NMEA_FROM_GPS    iGPS            $GPGGA,180648.000,4144.3418,N,06959.5841,W,2,08,1.01,11.4,M,-34.3,M,0000,0000*6B 
429.395         GPS_NMEA_FROM_GPS    iGPS            $GPGGA,180649.000,4144.3419,N,06959.5841,W,2,08,1.01,11.3,M,-34.3,M,0000,0000*6C 
430.498         GPS_NMEA_FROM_GPS    iGPS            $GPGGA,180650.000,4144.3420,N,06959.5841,W,2,08,1.01,11.4,M,-34.3,M,0000,0000*69 
431.501         GPS_NMEA_FROM_GPS    iGPS            $GPGGA,180651.000,4144.3421,N,06959.5841,W,2,08,1.01,11.4,M,-34.3,M,0000,0000*69 
432.504         GPS_NMEA_FROM_GPS    iGPS            $GPGGA,180652.000,4144.3422,N,06959.5841,W,2,08,1.01,11.4,M,-34.3,M,0000,0000*69 
433.406         GPS_NMEA_FROM_GPS    iGPS            $GPGGA,180653.000,4144.3424,N,06959.5840,W,2,08,1.01,11.4,M,-34.3,M,0000,0000*6F 
434.409         GPS_NMEA_FROM_GPS    iGPS            $GPGGA,180654.000,4144.3425,N,06959.5840,W,2,08,1.01,11.4,M,-34.3,M,0000,0000*69 
435.413         GPS_NMEA_FROM_GPS    iGPS            $GPGGA,180655.000,4144.3427,N,06959.5840,W,2,08,1.01,11.4,M,-34.3,M,0000,0000*6A 
436.414         GPS_NMEA_FROM_GPS    iGPS            $GPGGA,180656.000,4144.3428,N,06959.5840,W,2,08,1.01,11.4,M,-34.3,M,0000,0000*66 
437.518         GPS_NMEA_FROM_GPS    iGPS            $GPRMC,180657.000,A,4144.3430,N,06959.5840,W,0.67,1.50,220321,,,D*7A 
438.520         GPS_NMEA_FROM_GPS    iGPS            $GPRMC,180658.000,A,4144.3431,N,06959.5840,W,0.65,2.16,220321,,,D*77 
439.422         GPS_NMEA_FROM_GPS    iGPS            $GPGGA,180659.000,4144.3433,N,06959.5839,W,2,08,1.01,11.4,M,-34.3,M,0000,0000*6D 
440.425         GPS_NMEA_FROM_GPS    iGPS            $GPGGA,180700.000,4144.3434,N,06959.5839,W,2,08,1.01,11.3,M,-34.3,M,0000,0000*60 
441.528         GPS_NMEA_FROM_GPS    iGPS            $GPRMC,180701.000,A,4144.3436,N,06959.5838,W,0.61,4.86,220321,,,D*79 
442.430         GPS_NMEA_FROM_GPS    iGPS            $GPGGA,180702.000,4144.3438,N,06959.5837,W,2,08,1.01,11.4,M,-34.3,M,0000,0000*67 
443.433         GPS_NMEA_FROM_GPS    iGPS            $GPGGA,180703.000,4144.3439,N,06959.5837,W,2,08,1.01,11.4,M,-34.3,M,0000,0000*67 
444.536         GPS_NMEA_FROM_GPS    iGPS            $GPGGA,180704.000,4144.3441,N,06959.5836,W,2,08,1.01,11.4,M,-34.3,M,0000,0000*6E 
445.438         GPS_NMEA_FROM_GPS    iGPS            $GPGGA,180705.000,4144.3442,N,06959.5835,W,2,08,1.01,11.4,M,-34.3,M,0000,0000*6F 
446.441         GPS_NMEA_FROM_GPS    iGPS            $GPGGA,180706.000,4144.3444,N,06959.5834,W,2,08,1.01,11.3,M,-34.3,M,0000,0000*6C 
