1.661           GPS_NMEA_FROM_GPS    iGPS            $GPRMC,184356.000,A,4144.3404,N,06959.5866,W,0.04,124.60,290321,,,D*72 
2.363           GPS_NMEA_FROM_GPS    iGPS            $GPGGA,184357.000,4144.3404,N,06959.5866,W,2,10,0.94,13.2,M,-34.3,M,0000,0000*6C 
2.363           GPS_NMEA_FROM_GPS    iGPS            $GPGGA,184357.000,4144.3404,N,06959.5866,W,2,10,0.94,13.2,M,-34.3,M,0000,0000*6C 
3.365           GPS_NMEA_FROM_GPS    iGPS            $GPGGA,184358.000,4144.3404,N,06959.5866,W,2,10,0.94,13.2,M,-34.3,M,0000,0000*63 
4.268           GPS_NMEA_FROM_GPS    iGPS            $GPGGA,184359.000,4144.3404,N,06959.5866,W,2,10,0.94,13.2,M,-34.3,M,0000,0000*62 
5.371           GPS_NMEA_FROM_GPS    iGPS            $GPRMC,184400.000,A,4144.3404,N,06959.5866,W,0.06,171.55,290321,,,D*72 
6.373           GPS_NMEA_FROM_GPS    iGPS            $GPGGA,184401.000,4144.3404,N,06959.5866,W,2,10,0.94,13.2,M,-34.3,M,0000,0000*68 
7.276           GPS_NMEA_FROM_GPS    iGPS            $GPGGA,184402.000,4144.3404,N,06959.5866,W,2,10,0.94,13.2,M,-34.3,M,0000,0000*6B 
8.279           GPS_NMEA_FROM_GPS    iGPS            $GPGGA,184403.000,4144.3404,N,06959.5866,W,2,10,0.94,13.2,M,-34.3,M,0000,0000*6A 
9.281           GPS_NMEA_FROM_GPS    iGPS            $GPGGA,184404.000,4144.3404,N,06959.5866,W,2,10,0.94,13.2,M,-34.3,M,0000,0000*6D 
10.284          GPS_NMEA_FROM_GPS    iGPS            $GPGGA,184405.000,4144.3404,N,06959.5866,W,2,10,0.94,13.2,M,-34.3,M,0000,0000*6C 
11.286          GPS_NMEA_FROM_GPS    iGPS            $GPGGA,184406.000,4144.3404,N,06959.5866,W,2,09,0.98,13.2,M,-34.3,M,0000,0000*6B 
12.288          GPS_NMEA_FROM_GPS    iGPS            $GPGGA,184407.000,4144.3404,N,06959.5866,W,2,10,0.94,13.2,M,-34.3,M,0000,0000*6E 
13.291          GPS_NMEA_FROM_GPS    iGPS            $GPGGA,184408.000,4144.3404,N,06959.5866,W,2,10,0.94,13.2,M,-34.3,M,0000,0000*61 
14.193          GPS_NMEA_FROM_GPS    iGPS            $GPGGA,184409.000,4144.3404,N,06959.5866,W,2,09,0.98,13.2,M,-34.3,M,0000,0000*64 
15.296          GPS_NMEA_FROM_GPS    iGPS            $GPRMC,184410.000,A,4144.3404,N,06959.5866,W,0.01,188.79,290321,,,D*7C 
16.299          GPS_NMEA_FROM_GPS    iGPS            $GPRMC,184411.000,A,4144.3404,N,06959.5866,W,0.01,230.75,290321,,,D*71 
17.301          GPS_NMEA_FROM_GPS    iGPS            $GPRMC,184412.000,A,4144.3404,N,06959.5866,W,0.01,237.90,290321,,,D*7E 
18.303          GPS_NMEA_FROM_GPS    iGPS            $GPRMC,184413.000,A,4144.3404,N,06959.5866,W,0.01,226.21,290321,,,D*75 
19.205          GPS_NMEA_FROM_GPS    iGPS            $GPGGA,184414.000,4144.3404,N,06959.5866,W,2,09,0.98,13.2,M,-34.3,M,0000,0000*68 
20.207          GPS_NMEA_FROM_GPS    iGPS            $GPGGA,184415.000,4144.3403,N,06959.5867,W,2,09,0.98,13.2,M,-34.3,M,0000,0000*6F 
21.209          GPS_NMEA_FROM_GPS    iGPS            $GPGGA,184416.000,4144.3402,N,06959.5867,W,2,09,0.98,13.1,M,-34.3,M,0000,0000*6E 
22.211          GPS_NMEA_FROM_GPS    iGPS            $GPGGA,184417.000,4144.3402,N,06959.5867,W,2,10,0.94,13.1,M,-34.3,M,0000,0000*6B 
23.313          GPS_NMEA_FROM_GPS    iGPS            $GPRMC,184418.000,A,4144.3402,N,06959.5867,W,0.05,174.84,290321,,,D*76 
24.317          GPS_NMEA_FROM_GPS    iGPS            $GPRMC,184419.000,A,4144.3402,N,06959.5867,W,0.05,173.05,290321,,,D*79 
25.219          GPS_NMEA_FROM_GPS    iGPS            $GPGGA,184420.000,4144.3402,N,06959.5867,W,2,09,0.98,13.1,M,-34.3,M,0000,0000*6B 
26.222          GPS_NMEA_FROM_GPS    iGPS            $GPGGA,184421.000,4144.3402,N,06959.5867,W,2,10,0.94,13.1,M,-34.3,M,0000,0000*6E 
27.225          GPS_NMEA_FROM_GPS    iGPS            $GPRMC,184422.000,A,4144.3402,N,06959.5867,W,0.05,146.78,290321,,,D*7D 
28.228          GPS_NMEA_FROM_GPS    iGPS            $GPGGA,184423.000,4144.3402,N,06959.5867,W,2,09,0.98,13.1,M,-34.3,M,0000,0000*68 
29.230          GPS_NMEA_FROM_GPS    iGPS            $GPGGA,184424.000,4144.3402,N,06959.5867,W,2,09,0.98,13.1,M,-34.3,M,0000,0000*6F 
30.233          GPS_NMEA_FROM_GPS    iGPS            $GPGGA,184425.000,4144.3402,N,06959.5867,W,2,09,0.98,13.1,M,-34.3,M,0000,0000*6E 
31.235          GPS_NMEA_FROM_GPS    iGPS            $GPGGA,184426.000,4144.3402,N,06959.5867,W,2,09,0.98,13.1,M,-34.3,M,0000,0000*6D 
32.237          GPS_NMEA_FROM_GPS    iGPS            $GPGGA,184427.000,4144.3402,N,06959.5867,W,2,09,0.98,13.1,M,-34.3,M,0000,0000*6C 
33.239          GPS_NMEA_FROM_GPS    iGPS            $GPGGA,184428.000,4144.3402,N,06959.5867,W,2,09,0.98,13.1,M,-34.3,M,0000,0000*63 
34.241          GPS_NMEA_FROM_GPS    iGPS            $GPGGA,184429.000,4144.3402,N,06959.5867,W,2,09,0.98,13.1,M,-34.3,M,0000,0000*62 
35.243          GPS_NMEA_FROM_GPS    iGPS            $GPGGA,184430.000,4144.3402,N,06959.5867,W,2,09,0.98,13.1,M,-34.3,M,0000,0000*6A 
36.247          GPS_NMEA_FROM_GPS    iGPS            $GPRMC,184431.000,A,4144.3402,N,06959.5867,W,0.05,151.13,290321,,,D*74 
37.249          GPS_NMEA_FROM_GPS    iGPS            $GPGGA,184432.000,4144.3402,N,06959.5867,W,2,10,0.94,13.1,M,-34.3,M,0000,0000*6C 
38.351          GPS_NMEA_FROM_GPS    iGPS            $GPGGA,184433.000,4144.3402,N,06959.5867,W,2,10,0.94,13.1,M,-34.3,M,0000,0000*6D 
39.353          GPS_NMEA_FROM_GPS    iGPS            $GPRMC,184434.000,A,4144.3402,N,06959.5866,W,0.04,108.86,290321,,,D*71 
40.355          GPS_NMEA_FROM_GPS    iGPS            $GPGGA,184435.000,4144.3402,N,06959.5866,W,2,10,0.94,13.1,M,-34.3,M,0000,0000*6A 
41.257          GPS_NMEA_FROM_GPS    iGPS            $GPGGA,184436.000,4144.3402,N,06959.5866,W,2,10,0.94,13.1,M,-34.3,M,0000,0000*69 
42.360          GPS_NMEA_FROM_GPS    iGPS            $GPRMC,184437.000,A,4144.3402,N,06959.5866,W,0.06,117.05,290321,,,D*75 
43.363          GPS_NMEA_FROM_GPS    iGPS            $GPRMC,184438.000,A,4144.3402,N,06959.5866,W,0.05,111.45,290321,,,D*7B 
44.365          GPS_NMEA_FROM_GPS    iGPS            $GPRMC,184439.000,A,4144.3402,N,06959.5866,W,0.05,122.57,290321,,,D*79 
45.369          GPS_NMEA_FROM_GPS    iGPS            $GPGGA,184440.000,4144.3402,N,06959.5866,W,2,10,0.94,13.1,M,-34.3,M,0000,0000*68 
46.372          GPS_NMEA_FROM_GPS    iGPS            $GPGGA,184441.000,4144.3402,N,06959.5866,W,2,10,0.94,13.1,M,-34.3,M,0000,0000*69 
47.477          GPS_NMEA_FROM_GPS    iGPS            $GPRMC,184442.000,A,4144.3402,N,06959.5866,W,0.02,141.62,290321,,,D*71 
48.379          GPS_NMEA_FROM_GPS    iGPS            $GPGGA,184443.000,4144.3402,N,06959.5866,W,2,10,0.94,13.1,M,-34.3,M,0000,0000*6B 
49.381          GPS_NMEA_FROM_GPS    iGPS            $GPGGA,184444.000,4144.3402,N,06959.5866,W,2,10,0.94,13.1,M,-34.3,M,0000,0000*6C 
50.385          GPS_NMEA_FROM_GPS    iGPS            $GPGGA,184445.000,4144.3402,N,06959.5866,W,2,10,0.94,13.1,M,-34.3,M,0000,0000*6D 
51.287          GPS_NMEA_FROM_GPS    iGPS            $GPGGA,184446.000,4144.3402,N,06959.5866,W,2,10,0.94,13.1,M,-34.3,M,0000,0000*6E 
52.289          GPS_NMEA_FROM_GPS    iGPS            $GPGGA,184447.000,4144.3402,N,06959.5866,W,2,10,0.94,13.1,M,-34.3,M,0000,0000*6F 
53.291          GPS_NMEA_FROM_GPS    iGPS            $GPRMC,184448.000,A,4144.3402,N,06959.5866,W,0.03,73.54,290321,,,D*4F 
54.395          GPS_NMEA_FROM_GPS    iGPS            $GPRMC,184449.000,A,4144.3402,N,06959.5866,W,0.03,78.82,290321,,,D*4E 
55.397          GPS_NMEA_FROM_GPS    iGPS            $GPGGA,184450.000,4144.3402,N,06959.5866,W,2,10,0.94,13.1,M,-34.3,M,0000,0000*69 
56.299          GPS_NMEA_FROM_GPS    iGPS            $GPGGA,184451.000,4144.3402,N,06959.5866,W,2,10,0.94,13.1,M,-34.3,M,0000,0000*68 
57.402          GPS_NMEA_FROM_GPS    iGPS            $GPGGA,184452.000,4144.3402,N,06959.5866,W,2,10,0.94,13.1,M,-34.3,M,0000,0000*6B 
58.309          GPS_NMEA_FROM_GPS    iGPS            $GPGGA,184453.000,4144.3402,N,06959.5866,W,2,10,0.94,13.1,M,-34.3,M,0000,0000*6A 
59.312          GPS_NMEA_FROM_GPS    iGPS            $GPGGA,184454.000,4144.3402,N,06959.5867,W,2,10,0.94,13.1,M,-34.3,M,0000,0000*6C 
60.219          GPS_NMEA_FROM_GPS    iGPS            $GPGGA,184455.000,4144.3402,N,06959.5867,W,2,10,0.94,13.1,M,-34.3,M,0000,0000*6D 
61.221          GPS_NMEA_FROM_GPS    iGPS            $GPGGA,184456.000,4144.3402,N,06959.5867,W,2,10,0.94,13.1,M,-34.3,M,0000,0000*6E 
62.323          GPS_NMEA_FROM_GPS    iGPS            $GPRMC,184457.000,A,4144.3402,N,06959.5869,W,0.15,281.85,290321,,,D*7A 
63.225          GPS_NMEA_FROM_GPS    iGPS            $GPGGA,184458.000,4144.3402,N,06959.5871,W,2,10,0.94,13.3,M,-34.3,M,0000,0000*65 
64.227          GPS_NMEA_FROM_GPS    iGPS            $GPGGA,184459.000,4144.3401,N,06959.5872,W,2,10,0.94,13.4,M,-34.3,M,0000,0000*63 
65.229          GPS_NMEA_FROM_GPS    iGPS            $GPGGA,184500.000,4144.3402,N,06959.5874,W,2,10,0.94,13.4,M,-34.3,M,0000,0000*6B 
66.231          GPS_NMEA_FROM_GPS    iGPS            $GPGGA,184501.000,4144.3402,N,06959.5877,W,2,10,0.94,13.3,M,-34.3,M,0000,0000*6E 
66.231          GPS_NMEA_FROM_GPS    iGPS            $GPGGA,184501.000,4144.3402,N,06959.5877,W,2,10,0.94,13.3,M,-34.3,M,0000,0000*6E 
67.333          GPS_NMEA_FROM_GPS    iGPS            $GPRMC,184502.000,A,4144.3402,N,06959.5878,W,0.28,280.53,290321,,,D*7F 
68.334          GPS_NMEA_FROM_GPS    iGPS            $GPGGA,184503.000,4144.3402,N,06959.5879,W,2,10,0.94,13.4,M,-34.3,M,0000,0000*65 
69.336          GPS_NMEA_FROM_GPS    iGPS            $GPRMC,184504.000,A,4144.3402,N,06959.5880,W,0.32,277.99,290321,,,D*7B 
70.338          GPS_NMEA_FROM_GPS    iGPS            $GPRMC,184505.000,A,4144.3402,N,06959.5881,W,0.31,276.86,290321,,,D*77 
71.240          GPS_NMEA_FROM_GPS    iGPS            $GPGGA,184506.000,4144.3402,N,06959.5882,W,2,10,0.94,13.4,M,-34.3,M,0000,0000*64 
72.242          GPS_NMEA_FROM_GPS    iGPS            $GPGGA,184507.000,4144.3402,N,06959.5883,W,2,10,0.94,13.4,M,-34.3,M,0000,0000*64 
73.247          GPS_NMEA_FROM_GPS    iGPS            $GPGGA,184508.000,4144.3402,N,06959.5884,W,2,10,0.94,13.4,M,-34.3,M,0000,0000*6C 
74.248          GPS_NMEA_FROM_GPS    iGPS            $GPGGA,184509.000,4144.3402,N,06959.5885,W,2,10,0.94,13.4,M,-34.3,M,0000,0000*6C 
75.250          GPS_NMEA_FROM_GPS    iGPS            $GPGGA,184510.000,4144.3402,N,06959.5886,W,2,10,0.94,13.4,M,-34.3,M,0000,0000*67 
76.252          GPS_NMEA_FROM_GPS    iGPS            $GPGGA,184511.000,4144.3402,N,06959.5887,W,2,10,0.94,13.4,M,-34.3,M,0000,0000*67 
77.254          GPS_NMEA_FROM_GPS    iGPS            $GPGGA,184512.000,4144.3402,N,06959.5887,W,2,10,0.94,13.4,M,-34.3,M,0000,0000*64 
78.256          GPS_NMEA_FROM_GPS    iGPS            $GPGGA,184513.000,4144.3403,N,06959.5888,W,2,10,0.94,13.4,M,-34.3,M,0000,0000*6B 
79.258          GPS_NMEA_FROM_GPS    iGPS            $GPGGA,184514.000,4144.3403,N,06959.5889,W,2,10,0.94,13.4,M,-34.3,M,0000,0000*6D 
80.260          GPS_NMEA_FROM_GPS    iGPS            $GPGGA,184515.000,4144.3403,N,06959.5889,W,2,10,0.94,13.4,M,-34.3,M,0000,0000*6C 
81.262          GPS_NMEA_FROM_GPS    iGPS            $GPGGA,184516.000,4144.3403,N,06959.5890,W,2,10,0.94,13.4,M,-34.3,M,0000,0000*67 
82.265          GPS_NMEA_FROM_GPS    iGPS            $GPGGA,184517.000,4144.3404,N,06959.5890,W,2,10,0.94,13.5,M,-34.3,M,0000,0000*60 
83.267          GPS_NMEA_FROM_GPS    iGPS            $GPGGA,184518.000,4144.3404,N,06959.5891,W,2,09,0.98,13.5,M,-34.3,M,0000,0000*6A 
84.270          GPS_NMEA_FROM_GPS    iGPS            $GPGGA,184519.000,4144.3404,N,06959.5891,W,2,10,0.94,13.5,M,-34.3,M,0000,0000*6F 
85.272          GPS_NMEA_FROM_GPS    iGPS            $GPGGA,184520.000,4144.3404,N,06959.5892,W,2,10,0.94,13.5,M,-34.3,M,0000,0000*66 
86.273          GPS_NMEA_FROM_GPS    iGPS            $GPGGA,184521.000,4144.3404,N,06959.5892,W,2,10,0.94,13.5,M,-34.3,M,0000,0000*67 
87.275          GPS_NMEA_FROM_GPS    iGPS            $GPGGA,184522.000,4144.3404,N,06959.5892,W,2,09,0.98,13.6,M,-34.3,M,0000,0000*63 
88.278          GPS_NMEA_FROM_GPS    iGPS            $GPGGA,184523.000,4144.3404,N,06959.5893,W,2,09,0.98,13.6,M,-34.3,M,0000,0000*63 
89.281          GPS_NMEA_FROM_GPS    iGPS            $GPGGA,184524.000,4144.3404,N,06959.5893,W,2,10,0.94,13.6,M,-34.3,M,0000,0000*60 
90.284          GPS_NMEA_FROM_GPS    iGPS            $GPGGA,184525.000,4144.3405,N,06959.5893,W,2,10,0.94,13.6,M,-34.3,M,0000,0000*60 
91.286          GPS_NMEA_FROM_GPS    iGPS            $GPGGA,184526.000,4144.3405,N,06959.5893,W,2,09,0.98,13.6,M,-34.3,M,0000,0000*67 
92.188          GPS_NMEA_FROM_GPS    iGPS            $GPGGA,184527.000,4144.3405,N,06959.5893,W,2,09,0.98,13.7,M,-34.3,M,0000,0000*67 
93.292          GPS_NMEA_FROM_GPS    iGPS            $GPRMC,184528.000,A,4144.3405,N,06959.5894,W,0.09,310.88,290321,,,D*7F 
94.292          GPS_NMEA_FROM_GPS    iGPS            $GPGGA,184529.000,4144.3405,N,06959.5894,W,2,10,0.94,13.7,M,-34.3,M,0000,0000*6A 
95.196          GPS_NMEA_FROM_GPS    iGPS            $GPGGA,184530.000,4144.3406,N,06959.5894,W,2,10,0.94,13.8,M,-34.3,M,0000,0000*6E 
96.301          GPS_NMEA_FROM_GPS    iGPS            $GPGGA,184531.000,4144.3406,N,06959.5894,W,2,10,0.94,13.8,M,-34.3,M,0000,0000*6F 
97.307          GPS_NMEA_FROM_GPS    iGPS            $GPRMC,184532.000,A,4144.3406,N,06959.5894,W,0.04,353.86,290321,,,D*73 
98.208          GPS_NMEA_FROM_GPS    iGPS            $GPGGA,184533.000,4144.3406,N,06959.5894,W,2,09,0.98,13.8,M,-34.3,M,0000,0000*69 
99.214          GPS_NMEA_FROM_GPS    iGPS            $GPGGA,184534.000,4144.3406,N,06959.5894,W,2,10,0.94,13.8,M,-34.3,M,0000,0000*6A 
100.216         GPS_NMEA_FROM_GPS    iGPS            $GPGGA,184535.000,4144.3406,N,06959.5894,W,2,10,0.94,13.8,M,-34.3,M,0000,0000*6B 
101.318         GPS_NMEA_FROM_GPS    iGPS            $GPGGA,184536.000,4144.3406,N,06959.5894,W,2,10,0.94,13.8,M,-34.3,M,0000,0000*68 
102.320         GPS_NMEA_FROM_GPS    iGPS            $GPRMC,184537.000,A,4144.3406,N,06959.5894,W,0.03,56.68,290321,,,D*47 
103.222         GPS_NMEA_FROM_GPS    iGPS            $GPGGA,184538.000,4144.3406,N,06959.5894,W,2,10,0.94,13.8,M,-34.3,M,0000,0000*66 
104.324         GPS_NMEA_FROM_GPS    iGPS            $GPGGA,184539.000,4144.3406,N,06959.5894,W,2,10,0.94,13.8,M,-34.3,M,0000,0000*67 
105.225         GPS_NMEA_FROM_GPS    iGPS            $GPGGA,184540.000,4144.3406,N,06959.5894,W,2,10,0.94,13.8,M,-34.3,M,0000,0000*69 
106.228         GPS_NMEA_FROM_GPS    iGPS            $GPGGA,184541.000,4144.3406,N,06959.5894,W,2,10,0.94,13.8,M,-34.3,M,0000,0000*68 
107.230         GPS_NMEA_FROM_GPS    iGPS            $GPGGA,184542.000,4144.3406,N,06959.5894,W,2,10,0.94,13.8,M,-34.3,M,0000,0000*6B 
108.232         GPS_NMEA_FROM_GPS    iGPS            $GPGGA,184543.000,4144.3406,N,06959.5894,W,2,10,0.94,13.8,M,-34.3,M,0000,0000*6A 
109.236         GPS_NMEA_FROM_GPS    iGPS            $GPGGA,184544.000,4144.3406,N,06959.5894,W,2,10,0.94,13.8,M,-34.3,M,0000,0000*6D 
110.238         GPS_NMEA_FROM_GPS    iGPS            $GPGGA,184545.000,4144.3406,N,06959.5894,W,2,10,0.94,13.8,M,-34.3,M,0000,0000*6C 
111.340         GPS_NMEA_FROM_GPS    iGPS            $GPRMC,184546.000,A,4144.3406,N,06959.5894,W,0.02,29.17,290321,,,D*40 
112.342         GPS_NMEA_FROM_GPS    iGPS            $GPRMC,184547.000,A,4144.3406,N,06959.5894,W,0.01,30.57,290321,,,D*4E 
113.243         GPS_NMEA_FROM_GPS    iGPS            $GPGGA,184548.000,4144.3406,N,06959.5894,W,2,09,1.20,13.8,M,-34.3,M,0000,0000*67 
114.245         GPS_NMEA_FROM_GPS    iGPS            $GPGGA,184549.000,4144.3406,N,06959.5894,W,2,09,1.20,13.8,M,-34.3,M,0000,0000*66 
115.347         GPS_NMEA_FROM_GPS    iGPS            $GPRMC,184550.000,A,4144.3406,N,06959.5894,W,0.02,28.79,290321,,,D*4E 
116.252         GPS_NMEA_FROM_GPS    iGPS            $GPGGA,184551.000,4144.3406,N,06959.5894,W,2,10,0.94,13.8,M,-34.3,M,0000,0000*69 
117.354         GPS_NMEA_FROM_GPS    iGPS            $GPRMC,184552.000,A,4144.3406,N,06959.5894,W,0.02,282.98,290321,,,D*71 
118.256         GPS_NMEA_FROM_GPS    iGPS            $GPGGA,184553.000,4144.3406,N,06959.5894,W,2,10,0.94,13.8,M,-34.3,M,0000,0000*6B 
119.258         GPS_NMEA_FROM_GPS    iGPS            $GPGGA,184554.000,4144.3406,N,06959.5894,W,2,10,0.94,13.8,M,-34.3,M,0000,0000*6C 
120.259         GPS_NMEA_FROM_GPS    iGPS            $GPGGA,184555.000,4144.3406,N,06959.5894,W,2,10,0.94,13.8,M,-34.3,M,0000,0000*6D 
121.262         GPS_NMEA_FROM_GPS    iGPS            $GPGGA,184556.000,4144.3406,N,06959.5894,W,2,10,0.94,13.8,M,-34.3,M,0000,0000*6E 
122.264         GPS_NMEA_FROM_GPS    iGPS            $GPGGA,184557.000,4144.3406,N,06959.5894,W,2,10,0.94,13.8,M,-34.3,M,0000,0000*6F 
123.266         GPS_NMEA_FROM_GPS    iGPS            $GPRMC,184558.000,A,4144.3406,N,06959.5894,W,0.01,40.32,290321,,,D*44 
124.268         GPS_NMEA_FROM_GPS    iGPS            $GPGGA,184559.000,4144.3406,N,06959.5894,W,2,10,0.94,13.8,M,-34.3,M,0000,0000*61 
125.170         GPS_NMEA_FROM_GPS    iGPS            $GPGGA,184600.000,4144.3406,N,06959.5894,W,2,08,1.06,13.8,M,-34.3,M,0000,0000*6D 
126.272         GPS_NMEA_FROM_GPS    iGPS            $GPGGA,184601.000,4144.3406,N,06959.5894,W,2,10,0.94,13.8,M,-34.3,M,0000,0000*6F 
127.274         GPS_NMEA_FROM_GPS    iGPS            $GPGGA,184602.000,4144.3406,N,06959.5894,W,2,10,0.94,13.8,M,-34.3,M,0000,0000*6C 
128.276         GPS_NMEA_FROM_GPS    iGPS            $GPRMC,184603.000,A,4144.3406,N,06959.5894,W,0.02,105.25,290321,,,D*7C 
129.278         GPS_NMEA_FROM_GPS    iGPS            $GPGGA,184604.000,4144.3406,N,06959.5894,W,2,09,0.98,13.8,M,-34.3,M,0000,0000*6E 
130.279         GPS_NMEA_FROM_GPS    iGPS            $GPGGA,184605.000,4144.3406,N,06959.5894,W,2,09,0.98,13.8,M,-34.3,M,0000,0000*6F 
131.287         GPS_NMEA_FROM_GPS    iGPS            $GPGGA,184606.000,4144.3406,N,06959.5894,W,2,09,0.98,13.8,M,-34.3,M,0000,0000*6C 
132.289         GPS_NMEA_FROM_GPS    iGPS            $GPGGA,184607.000,4144.3406,N,06959.5894,W,2,09,0.98,13.8,M,-34.3,M,0000,0000*6D 
133.291         GPS_NMEA_FROM_GPS    iGPS            $GPRMC,184608.000,A,4144.3406,N,06959.5894,W,0.02,170.75,290321,,,D*70 
134.293         GPS_NMEA_FROM_GPS    iGPS            $GPRMC,184609.000,A,4144.3406,N,06959.5894,W,0.03,222.27,290321,,,D*73 
135.295         GPS_NMEA_FROM_GPS    iGPS            $GPGGA,184610.000,4144.3406,N,06959.5894,W,2,09,0.98,13.8,M,-34.3,M,0000,0000*6B 
136.301         GPS_NMEA_FROM_GPS    iGPS            $GPGGA,184611.000,4144.3406,N,06959.5894,W,2,09,0.98,13.8,M,-34.3,M,0000,0000*6A 
137.203         GPS_NMEA_FROM_GPS    iGPS            $GPGGA,184612.000,4144.3406,N,06959.5894,W,2,09,0.98,13.8,M,-34.3,M,0000,0000*69 
138.305         GPS_NMEA_FROM_GPS    iGPS            $GPGGA,184613.000,4144.3406,N,06959.5894,W,2,08,1.24,13.8,M,-34.3,M,0000,0000*6F 
139.207         GPS_NMEA_FROM_GPS    iGPS            $GPGGA,184614.000,4144.3406,N,06959.5894,W,2,09,0.98,13.8,M,-34.3,M,0000,0000*6F 
140.309         GPS_NMEA_FROM_GPS    iGPS            $GPRMC,184615.000,A,4144.3406,N,06959.5894,W,0.01,247.89,290321,,,D*7B 
141.311         GPS_NMEA_FROM_GPS    iGPS            $GPGGA,184616.000,4144.3406,N,06959.5894,W,2,09,0.98,13.8,M,-34.3,M,0000,0000*6D 
142.213         GPS_NMEA_FROM_GPS    iGPS            $GPGGA,184617.000,4144.3406,N,06959.5894,W,2,09,0.98,13.8,M,-34.3,M,0000,0000*6C 
143.315         GPS_NMEA_FROM_GPS    iGPS            $GPGGA,184618.000,4144.3406,N,06959.5894,W,2,09,0.98,13.8,M,-34.3,M,0000,0000*63 
144.317         GPS_NMEA_FROM_GPS    iGPS            $GPGGA,184619.000,4144.3406,N,06959.5894,W,2,09,0.98,13.8,M,-34.3,M,0000,0000*62 
145.319         GPS_NMEA_FROM_GPS    iGPS            $GPGGA,184620.000,4144.3406,N,06959.5894,W,2,09,0.98,13.8,M,-34.3,M,0000,0000*68 
146.421         GPS_NMEA_FROM_GPS    iGPS            $GPRMC,184621.000,A,4144.3406,N,06959.5894,W,0.00,49.38,290321,,,D*4B 
147.322         GPS_NMEA_FROM_GPS    iGPS            $GPRMC,184622.000,A,4144.3406,N,06959.5894,W,0.06,191.38,290321,,,D*7A 
148.327         GPS_NMEA_FROM_GPS    iGPS            $GPGGA,184623.000,4144.3406,N,06959.5894,W,2,09,0.98,13.8,M,-34.3,M,0000,0000*6B 
149.229         GPS_NMEA_FROM_GPS    iGPS            $GPGGA,184624.000,4144.3406,N,06959.5894,W,2,10,0.94,13.8,M,-34.3,M,0000,0000*68 
150.332         GPS_NMEA_FROM_GPS    iGPS            $GPRMC,184625.000,A,4144.3406,N,06959.5894,W,0.01,138.32,290321,,,D*73 
151.239         GPS_NMEA_FROM_GPS    iGPS            $GPGGA,184626.000,4144.3406,N,06959.5894,W,2,10,0.94,13.8,M,-34.3,M,0000,0000*6A 
152.241         GPS_NMEA_FROM_GPS    iGPS            $GPGGA,184627.000,4144.3406,N,06959.5894,W,2,09,0.98,13.8,M,-34.3,M,0000,0000*6F 
153.243         GPS_NMEA_FROM_GPS    iGPS            $GPGGA,184628.000,4144.3406,N,06959.5894,W,2,08,1.06,13.8,M,-34.3,M,0000,0000*67 
154.245         GPS_NMEA_FROM_GPS    iGPS            $GPRMC,184629.000,A,4144.3406,N,06959.5894,W,0.02,219.67,290321,,,D*7C 
155.247         GPS_NMEA_FROM_GPS    iGPS            $GPGGA,184630.000,4144.3406,N,06959.5894,W,2,09,1.20,13.8,M,-34.3,M,0000,0000*6B 
156.256         GPS_NMEA_FROM_GPS    iGPS            $GPGGA,184631.000,4144.3406,N,06959.5894,W,2,08,1.25,13.8,M,-34.3,M,0000,0000*6E 
157.262         GPS_NMEA_FROM_GPS    iGPS            $GPGGA,184632.000,4144.3406,N,06959.5894,W,2,10,0.94,13.8,M,-34.3,M,0000,0000*6F 
158.264         GPS_NMEA_FROM_GPS    iGPS            $GPGGA,184633.000,4144.3406,N,06959.5894,W,2,10,0.94,13.8,M,-34.3,M,0000,0000*6E 
159.266         GPS_NMEA_FROM_GPS    iGPS            $GPGGA,184634.000,4144.3406,N,06959.5894,W,2,10,0.94,13.8,M,-34.3,M,0000,0000*69 
160.268         GPS_NMEA_FROM_GPS    iGPS            $GPGGA,184635.000,4144.3405,N,06959.5894,W,2,10,0.94,13.8,M,-34.3,M,0000,0000*6B 
161.270         GPS_NMEA_FROM_GPS    iGPS            $GPGGA,184636.000,4144.3405,N,06959.5894,W,2,10,0.94,13.8,M,-34.3,M,0000,0000*68 
162.273         GPS_NMEA_FROM_GPS    iGPS            $GPGGA,184637.000,4144.3406,N,06959.5894,W,2,09,1.20,13.8,M,-34.3,M,0000,0000*6C 
163.175         GPS_NMEA_FROM_GPS    iGPS            $GPGGA,184638.000,4144.3406,N,06959.5894,W,2,08,1.24,13.8,M,-34.3,M,0000,0000*66 
164.377         GPS_NMEA_FROM_GPS    iGPS            $GPRMC,184639.000,A,4144.3406,N,06959.5894,W,0.01,96.40,290321,,,D*4E 
165.279         GPS_NMEA_FROM_GPS    iGPS            $GPGGA,184640.000,4144.3406,N,06959.5894,W,2,09,1.20,13.8,M,-34.3,M,0000,0000*6C 
166.282         GPS_NMEA_FROM_GPS    iGPS            $GPRMC,184641.000,A,4144.3406,N,06959.5894,W,0.02,76.71,290321,,,D*4E 
167.383         GPS_NMEA_FROM_GPS    iGPS            $GPGGA,184642.000,4144.3406,N,06959.5894,W,2,10,0.94,13.8,M,-34.3,M,0000,0000*68 
168.285         GPS_NMEA_FROM_GPS    iGPS            $GPGGA,184643.000,4144.3406,N,06959.5894,W,2,09,0.98,13.9,M,-34.3,M,0000,0000*6C 
169.187         GPS_NMEA_FROM_GPS    iGPS            $GPGGA,184644.000,4144.3406,N,06959.5894,W,2,10,0.94,13.9,M,-34.3,M,0000,0000*6F 
170.290         GPS_NMEA_FROM_GPS    iGPS            $GPRMC,184645.000,A,4144.3406,N,06959.5894,W,0.01,87.59,290321,,,D*4D 
171.292         GPS_NMEA_FROM_GPS    iGPS            $GPGGA,184646.000,4144.3406,N,06959.5894,W,2,09,1.20,13.9,M,-34.3,M,0000,0000*6B 
172.293         GPS_NMEA_FROM_GPS    iGPS            $GPRMC,184647.000,A,4144.3406,N,06959.5894,W,0.01,93.60,290321,,,D*40 
173.195         GPS_NMEA_FROM_GPS    iGPS            $GPGGA,184648.000,4144.3406,N,06959.5894,W,2,09,1.20,13.9,M,-34.3,M,0000,0000*65 
174.197         GPS_NMEA_FROM_GPS    iGPS            $GPGGA,184649.000,4144.3406,N,06959.5894,W,2,09,1.20,13.9,M,-34.3,M,0000,0000*64 
175.299         GPS_NMEA_FROM_GPS    iGPS            $GPRMC,184650.000,A,4144.3406,N,06959.5894,W,0.02,84.53,290321,,,D*43 
176.200         GPS_NMEA_FROM_GPS    iGPS            $GPGGA,184651.000,4144.3406,N,06959.5894,W,2,08,1.24,13.9,M,-34.3,M,0000,0000*68 
177.203         GPS_NMEA_FROM_GPS    iGPS            $GPGGA,184652.000,4144.3406,N,06959.5894,W,2,08,1.24,13.9,M,-34.3,M,0000,0000*6B 
178.305         GPS_NMEA_FROM_GPS    iGPS            $GPRMC,184653.000,A,4144.3406,N,06959.5894,W,0.01,57.64,290321,,,D*49 
179.306         GPS_NMEA_FROM_GPS    iGPS            $GPGGA,184654.000,4144.3406,N,06959.5894,W,2,08,1.24,13.9,M,-34.3,M,0000,0000*6D 
180.209         GPS_NMEA_FROM_GPS    iGPS            $GPGGA,184655.000,4144.3406,N,06959.5894,W,2,08,1.24,13.9,M,-34.3,M,0000,0000*6C 
181.211         GPS_NMEA_FROM_GPS    iGPS            $GPGGA,184656.000,4144.3406,N,06959.5894,W,2,08,1.24,13.9,M,-34.3,M,0000,0000*6F 
182.315         GPS_NMEA_FROM_GPS    iGPS            $GPRMC,184657.000,A,4144.3406,N,06959.5894,W,0.00,289.17,290321,,,D*79 
183.217         GPS_NMEA_FROM_GPS    iGPS            $GPGGA,184658.000,4144.3406,N,06959.5894,W,2,08,1.24,13.9,M,-34.3,M,0000,0000*61 
184.219         GPS_NMEA_FROM_GPS    iGPS            $GPGGA,184659.000,4144.3406,N,06959.5894,W,2,08,1.24,13.9,M,-34.3,M,0000,0000*60 
185.321         GPS_NMEA_FROM_GPS    iGPS            $GPRMC,184700.000,A,4144.3406,N,06959.5894,W,0.01,276.52,290321,,,D*7A 
186.223         GPS_NMEA_FROM_GPS    iGPS            $GPGGA,184701.000,4144.3406,N,06959.5894,W,2,08,1.24,13.9,M,-34.3,M,0000,0000*6C 
187.326         GPS_NMEA_FROM_GPS    iGPS            $GPRMC,184702.000,A,4144.3406,N,06959.5894,W,0.01,184.87,290321,,,D*7E 
188.328         GPS_NMEA_FROM_GPS    iGPS            $GPRMC,184703.000,A,4144.3406,N,06959.5894,W,0.01,323.45,290321,,,D*7E 
189.229         GPS_NMEA_FROM_GPS    iGPS            $GPGGA,184704.000,4144.3406,N,06959.5894,W,2,08,1.24,13.9,M,-34.3,M,0000,0000*69 
190.232         GPS_NMEA_FROM_GPS    iGPS            $GPGGA,184705.000,4144.3406,N,06959.5894,W,2,08,1.24,13.8,M,-34.3,M,0000,0000*69 
191.235         GPS_NMEA_FROM_GPS    iGPS            $GPGGA,184706.000,4144.3405,N,06959.5894,W,2,08,1.24,13.8,M,-34.3,M,0000,0000*69 
192.238         GPS_NMEA_FROM_GPS    iGPS            $GPGGA,184707.000,4144.3405,N,06959.5895,W,2,08,1.24,13.6,M,-34.3,M,0000,0000*67 
193.239         GPS_NMEA_FROM_GPS    iGPS            $GPGGA,184708.000,4144.3405,N,06959.5895,W,2,09,0.98,13.6,M,-34.3,M,0000,0000*6F 
194.241         GPS_NMEA_FROM_GPS    iGPS            $GPGGA,184709.000,4144.3405,N,06959.5894,W,2,09,1.20,13.6,M,-34.3,M,0000,0000*6D 
195.243         GPS_NMEA_FROM_GPS    iGPS            $GPGGA,184710.000,4144.3405,N,06959.5894,W,2,08,1.24,13.6,M,-34.3,M,0000,0000*60 
196.245         GPS_NMEA_FROM_GPS    iGPS            $GPGGA,184711.000,4144.3406,N,06959.5894,W,2,08,1.24,13.6,M,-34.3,M,0000,0000*62 
197.250         GPS_NMEA_FROM_GPS    iGPS            $GPGGA,184712.000,4144.3406,N,06959.5894,W,2,10,0.95,13.6,M,-34.3,M,0000,0000*63 
198.253         GPS_NMEA_FROM_GPS    iGPS            $GPGGA,184713.000,4144.3406,N,06959.5894,W,2,10,0.95,13.5,M,-34.3,M,0000,0000*61 
199.256         GPS_NMEA_FROM_GPS    iGPS            $GPGGA,184714.000,4144.3406,N,06959.5894,W,2,10,0.95,13.5,M,-34.3,M,0000,0000*66 
200.257         GPS_NMEA_FROM_GPS    iGPS            $GPGGA,184715.000,4144.3406,N,06959.5894,W,2,10,0.95,13.5,M,-34.3,M,0000,0000*67 
201.259         GPS_NMEA_FROM_GPS    iGPS            $GPGGA,184716.000,4144.3406,N,06959.5894,W,2,10,0.95,13.5,M,-34.3,M,0000,0000*64 
202.261         GPS_NMEA_FROM_GPS    iGPS            $GPGGA,184717.000,4144.3406,N,06959.5894,W,2,10,0.95,13.5,M,-34.3,M,0000,0000*65 
203.263         GPS_NMEA_FROM_GPS    iGPS            $GPGGA,184718.000,4144.3406,N,06959.5894,W,2,10,0.95,13.5,M,-34.3,M,0000,0000*6A 
204.265         GPS_NMEA_FROM_GPS    iGPS            $GPGGA,184719.000,4144.3406,N,06959.5894,W,2,10,0.95,13.5,M,-34.3,M,0000,0000*6B 
205.272         GPS_NMEA_FROM_GPS    iGPS            $GPGGA,184720.000,4144.3406,N,06959.5894,W,2,10,0.95,13.5,M,-34.3,M,0000,0000*61 
206.273         GPS_NMEA_FROM_GPS    iGPS            $GPRMC,184721.000,A,4144.3406,N,06959.5894,W,0.06,161.10,290321,,,D*7D 
207.275         GPS_NMEA_FROM_GPS    iGPS            $GPGGA,184722.000,4144.3406,N,06959.5894,W,2,10,0.95,13.5,M,-34.3,M,0000,0000*63 
208.279         GPS_NMEA_FROM_GPS    iGPS            $GPGGA,184723.000,4144.3406,N,06959.5894,W,2,10,0.95,13.5,M,-34.3,M,0000,0000*62 
209.281         GPS_NMEA_FROM_GPS    iGPS            $GPGGA,184724.000,4144.3406,N,06959.5894,W,2,10,0.95,13.5,M,-34.3,M,0000,0000*65 
210.383         GPS_NMEA_FROM_GPS    iGPS            $GPGGA,184725.000,4144.3406,N,06959.5894,W,2,10,0.95,13.5,M,-34.3,M,0000,0000*64 
211.286         GPS_NMEA_FROM_GPS    iGPS            $GPRMC,184726.000,A,4144.3406,N,06959.5894,W,0.05,271.63,290321,,,D*7F 
212.288         GPS_NMEA_FROM_GPS    iGPS            $GPRMC,184727.000,A,4144.3406,N,06959.5894,W,0.05,304.44,290321,,,D*78 
213.290         GPS_NMEA_FROM_GPS    iGPS            $GPGGA,184728.000,4144.3406,N,06959.5894,W,2,10,0.95,13.6,M,-34.3,M,0000,0000*6A 
214.292         GPS_NMEA_FROM_GPS    iGPS            $GPGGA,184729.000,4144.3406,N,06959.5894,W,2,10,0.95,13.6,M,-34.3,M,0000,0000*6B 
215.294         GPS_NMEA_FROM_GPS    iGPS            $GPRMC,184730.000,A,4144.3406,N,06959.5894,W,0.01,121.79,290321,,,D*71 
216.195         GPS_NMEA_FROM_GPS    iGPS            $GPGGA,184731.000,4144.3406,N,06959.5894,W,2,10,0.95,13.6,M,-34.3,M,0000,0000*62 
217.297         GPS_NMEA_FROM_GPS    iGPS            $GPGGA,184732.000,4144.3406,N,06959.5894,W,2,10,0.95,13.6,M,-34.3,M,0000,0000*61 
218.199         GPS_NMEA_FROM_GPS    iGPS            $GPGGA,184733.000,4144.3406,N,06959.5894,W,2,10,0.95,13.6,M,-34.3,M,0000,0000*60 
219.201         GPS_NMEA_FROM_GPS    iGPS            $GPGGA,184734.000,4144.3406,N,06959.5894,W,2,10,0.95,13.6,M,-34.3,M,0000,0000*67 
220.306         GPS_NMEA_FROM_GPS    iGPS            $GPRMC,184735.000,A,4144.3406,N,06959.5894,W,0.02,171.22,290321,,,D*7C 
221.309         GPS_NMEA_FROM_GPS    iGPS            $GPGGA,184736.000,4144.3406,N,06959.5894,W,2,10,0.95,13.6,M,-34.3,M,0000,0000*65 
222.314         GPS_NMEA_FROM_GPS    iGPS            $GPRMC,184737.000,A,4144.3406,N,06959.5894,W,0.01,129.17,290321,,,D*76 
223.216         GPS_NMEA_FROM_GPS    iGPS            $GPGGA,184738.000,4144.3406,N,06959.5894,W,2,10,0.95,13.6,M,-34.3,M,0000,0000*6B 
224.221         GPS_NMEA_FROM_GPS    iGPS            $GPGGA,184739.000,4144.3406,N,06959.5894,W,2,10,0.95,13.6,M,-34.3,M,0000,0000*6A 
225.324         GPS_NMEA_FROM_GPS    iGPS            $GPGGA,184740.000,4144.3406,N,06959.5894,W,2,10,0.95,13.6,M,-34.3,M,0000,0000*64 
226.226         GPS_NMEA_FROM_GPS    iGPS            $GPGGA,184741.000,4144.3406,N,06959.5894,W,2,10,0.95,13.6,M,-34.3,M,0000,0000*65 
227.227         GPS_NMEA_FROM_GPS    iGPS            $GPGGA,184742.000,4144.3406,N,06959.5894,W,2,09,0.99,13.6,M,-34.3,M,0000,0000*62 
228.329         GPS_NMEA_FROM_GPS    iGPS            $GPGGA,184743.000,4144.3406,N,06959.5894,W,2,09,0.99,13.6,M,-34.3,M,0000,0000*63 
229.231         GPS_NMEA_FROM_GPS    iGPS            $GPGGA,184744.000,4144.3406,N,06959.5894,W,2,10,0.95,13.6,M,-34.3,M,0000,0000*60 
230.333         GPS_NMEA_FROM_GPS    iGPS            $GPGGA,184745.000,4144.3406,N,06959.5894,W,2,10,0.95,13.6,M,-34.3,M,0000,0000*61 
231.335         GPS_NMEA_FROM_GPS    iGPS            $GPGGA,184746.000,4144.3406,N,06959.5894,W,2,10,0.95,13.6,M,-34.3,M,0000,0000*62 
232.336         GPS_NMEA_FROM_GPS    iGPS            $GPGGA,184747.000,4144.3406,N,06959.5894,W,2,10,0.95,13.6,M,-34.3,M,0000,0000*63 
233.338         GPS_NMEA_FROM_GPS    iGPS            $GPGGA,184748.000,4144.3406,N,06959.5894,W,2,10,0.95,13.6,M,-34.3,M,0000,0000*6C 
234.240         GPS_NMEA_FROM_GPS    iGPS            $GPGGA,184749.000,4144.3406,N,06959.5894,W,2,10,0.95,13.6,M,-34.3,M,0000,0000*6D 
235.342         GPS_NMEA_FROM_GPS    iGPS            $GPRMC,184750.000,A,4144.3406,N,06959.5894,W,0.02,121.42,290321,,,D*7C 
236.344         GPS_NMEA_FROM_GPS    iGPS            $GPRMC,184751.000,A,4144.3406,N,06959.5894,W,0.01,103.92,290321,,,D*73 
237.246         GPS_NMEA_FROM_GPS    iGPS            $GPGGA,184752.000,4144.3406,N,06959.5894,W,2,10,0.95,13.6,M,-34.3,M,0000,0000*67 
238.247         GPS_NMEA_FROM_GPS    iGPS            $GPGGA,184753.000,4144.3406,N,06959.5894,W,2,10,0.95,13.6,M,-34.3,M,0000,0000*66 
239.249         GPS_NMEA_FROM_GPS    iGPS            $GPGGA,184754.000,4144.3406,N,06959.5894,W,2,10,0.95,13.6,M,-34.3,M,0000,0000*61 
240.252         GPS_NMEA_FROM_GPS    iGPS            $GPGGA,184755.000,4144.3406,N,06959.5894,W,2,10,0.95,13.6,M,-34.3,M,0000,0000*60 
241.254         GPS_NMEA_FROM_GPS    iGPS            $GPGGA,184756.000,4144.3406,N,06959.5894,W,2,10,0.95,13.6,M,-34.3,M,0000,0000*63 
242.257         GPS_NMEA_FROM_GPS    iGPS            $GPGGA,184757.000,4144.3406,N,06959.5894,W,2,10,0.95,13.6,M,-34.3,M,0000,0000*62 
243.258         GPS_NMEA_FROM_GPS    iGPS            $GPGGA,184758.000,4144.3406,N,06959.5894,W,2,10,0.95,13.6,M,-34.3,M,0000,0000*6D 
244.360         GPS_NMEA_FROM_GPS    iGPS            $GPRMC,184759.000,A,4144.3406,N,06959.5893,W,0.03,6.29,290321,,,D*7A 
245.262         GPS_NMEA_FROM_GPS    iGPS            $GPGGA,184800.000,4144.3406,N,06959.5893,W,2,10,0.95,13.6,M,-34.3,M,0000,0000*68 
246.364         GPS_NMEA_FROM_GPS    iGPS            $GPRMC,184801.000,A,4144.3406,N,06959.5893,W,0.02,20.94,290321,,,D*4B 
247.265         GPS_NMEA_FROM_GPS    iGPS            $GPGGA,184802.000,4144.3406,N,06959.5893,W,2,10,0.95,13.6,M,-34.3,M,0000,0000*6A 
248.267         GPS_NMEA_FROM_GPS    iGPS            $GPGGA,184803.000,4144.3406,N,06959.5893,W,2,10,0.95,13.6,M,-34.3,M,0000,0000*6B 
249.269         GPS_NMEA_FROM_GPS    iGPS            $GPRMC,184804.000,A,4144.3406,N,06959.5893,W,0.02,41.99,290321,,,D*44 
250.270         GPS_NMEA_FROM_GPS    iGPS            $GPGGA,184805.000,4144.3406,N,06959.5893,W,2,10,0.95,13.7,M,-34.3,M,0000,0000*6C 
251.272         GPS_NMEA_FROM_GPS    iGPS            $GPGGA,184806.000,4144.3405,N,06959.5893,W,2,10,0.95,13.8,M,-34.3,M,0000,0000*63 
252.274         GPS_NMEA_FROM_GPS    iGPS            $GPGGA,184807.000,4144.3405,N,06959.5893,W,2,10,0.95,13.9,M,-34.3,M,0000,0000*63 
253.276         GPS_NMEA_FROM_GPS    iGPS            $GPGGA,184808.000,4144.3405,N,06959.5893,W,2,10,0.95,13.7,M,-34.3,M,0000,0000*62 
254.277         GPS_NMEA_FROM_GPS    iGPS            $GPGGA,184809.000,4144.3404,N,06959.5892,W,2,10,0.95,13.6,M,-34.3,M,0000,0000*62 
255.279         GPS_NMEA_FROM_GPS    iGPS            $GPGGA,184810.000,4144.3404,N,06959.5892,W,2,10,0.95,13.7,M,-34.3,M,0000,0000*6B 
256.281         GPS_NMEA_FROM_GPS    iGPS            $GPGGA,184811.000,4144.3404,N,06959.5892,W,2,10,0.95,13.7,M,-34.3,M,0000,0000*6A 
257.284         GPS_NMEA_FROM_GPS    iGPS            $GPRMC,184812.000,A,4144.3404,N,06959.5892,W,0.01,31.10,290321,,,D*45 
258.285         GPS_NMEA_FROM_GPS    iGPS            $GPGGA,184813.000,4144.3404,N,06959.5892,W,2,10,0.95,13.7,M,-34.3,M,0000,0000*68 
259.187         GPS_NMEA_FROM_GPS    iGPS            $GPGGA,184814.000,4144.3404,N,06959.5892,W,2,10,0.95,13.7,M,-34.3,M,0000,0000*6F 
260.189         GPS_NMEA_FROM_GPS    iGPS            $GPGGA,184815.000,4144.3404,N,06959.5892,W,2,10,0.95,13.7,M,-34.3,M,0000,0000*6E 
261.291         GPS_NMEA_FROM_GPS    iGPS            $GPRMC,184816.000,A,4144.3404,N,06959.5892,W,0.02,97.34,290321,,,D*48 
262.292         GPS_NMEA_FROM_GPS    iGPS            $GPRMC,184817.000,A,4144.3404,N,06959.5892,W,0.02,93.67,290321,,,D*4B 
263.294         GPS_NMEA_FROM_GPS    iGPS            $GPRMC,184818.000,A,4144.3404,N,06959.5892,W,0.04,109.80,290321,,,D*79 
264.296         GPS_NMEA_FROM_GPS    iGPS            $GPGGA,184819.000,4144.3404,N,06959.5892,W,2,10,0.95,13.7,M,-34.3,M,0000,0000*62 
265.298         GPS_NMEA_FROM_GPS    iGPS            $GPRMC,184820.000,A,4144.3404,N,06959.5892,W,0.03,83.53,290321,,,D*48 
266.301         GPS_NMEA_FROM_GPS    iGPS            $GPGGA,184821.000,4144.3404,N,06959.5892,W,2,10,0.95,13.7,M,-34.3,M,0000,0000*69 
267.203         GPS_NMEA_FROM_GPS    iGPS            $GPGGA,184822.000,4144.3404,N,06959.5892,W,2,09,0.99,13.7,M,-34.3,M,0000,0000*6E 
268.204         GPS_NMEA_FROM_GPS    iGPS            $GPGGA,184823.000,4144.3404,N,06959.5892,W,2,09,0.99,13.6,M,-34.3,M,0000,0000*6E 
269.206         GPS_NMEA_FROM_GPS    iGPS            $GPGGA,184824.000,4144.3404,N,06959.5892,W,2,09,0.99,13.6,M,-34.3,M,0000,0000*69 
270.208         GPS_NMEA_FROM_GPS    iGPS            $GPGGA,184825.000,4144.3404,N,06959.5892,W,2,09,0.99,13.6,M,-34.3,M,0000,0000*68 
271.211         GPS_NMEA_FROM_GPS    iGPS            $GPGGA,184826.000,4144.3404,N,06959.5892,W,2,09,0.99,13.6,M,-34.3,M,0000,0000*6B 
272.213         GPS_NMEA_FROM_GPS    iGPS            $GPGGA,184827.000,4144.3404,N,06959.5892,W,2,09,0.99,13.6,M,-34.3,M,0000,0000*6A 
273.314         GPS_NMEA_FROM_GPS    iGPS            $GPGGA,184828.000,4144.3404,N,06959.5892,W,2,10,0.95,13.6,M,-34.3,M,0000,0000*61 
274.317         GPS_NMEA_FROM_GPS    iGPS            $GPGGA,184829.000,4144.3404,N,06959.5892,W,2,10,0.95,13.6,M,-34.3,M,0000,0000*60 
275.319         GPS_NMEA_FROM_GPS    iGPS            $GPRMC,184830.000,A,4144.3404,N,06959.5892,W,0.04,75.72,290321,,,D*44 
276.320         GPS_NMEA_FROM_GPS    iGPS            $GPGGA,184831.000,4144.3404,N,06959.5892,W,2,10,0.95,13.6,M,-34.3,M,0000,0000*69 
277.323         GPS_NMEA_FROM_GPS    iGPS            $GPRMC,184832.000,A,4144.3404,N,06959.5892,W,0.04,90.57,290321,,,D*4A 
278.224         GPS_NMEA_FROM_GPS    iGPS            $GPGGA,184833.000,4144.3404,N,06959.5892,W,2,10,0.95,13.6,M,-34.3,M,0000,0000*6B 
279.326         GPS_NMEA_FROM_GPS    iGPS            $GPRMC,184834.000,A,4144.3404,N,06959.5892,W,0.04,92.60,290321,,,D*4A 
280.328         GPS_NMEA_FROM_GPS    iGPS            $GPGGA,184835.000,4144.3404,N,06959.5892,W,2,10,0.95,13.6,M,-34.3,M,0000,0000*6D 
281.229         GPS_NMEA_FROM_GPS    iGPS            $GPGGA,184836.000,4144.3404,N,06959.5892,W,2,10,0.95,13.6,M,-34.3,M,0000,0000*6E 
282.232         GPS_NMEA_FROM_GPS    iGPS            $GPGGA,184837.000,4144.3404,N,06959.5892,W,2,10,0.95,13.6,M,-34.3,M,0000,0000*6F 
283.234         GPS_NMEA_FROM_GPS    iGPS            $GPGGA,184838.000,4144.3404,N,06959.5892,W,2,10,0.95,13.6,M,-34.3,M,0000,0000*60 
284.235         GPS_NMEA_FROM_GPS    iGPS            $GPGGA,184839.000,4144.3404,N,06959.5892,W,2,10,0.95,13.6,M,-34.3,M,0000,0000*61 
285.337         GPS_NMEA_FROM_GPS    iGPS            $GPRMC,184840.000,A,4144.3404,N,06959.5892,W,0.04,87.37,290321,,,D*4F 
286.239         GPS_NMEA_FROM_GPS    iGPS            $GPGGA,184841.000,4144.3404,N,06959.5892,W,2,10,0.95,13.6,M,-34.3,M,0000,0000*6E 
287.341         GPS_NMEA_FROM_GPS    iGPS            $GPRMC,184842.000,A,4144.3404,N,06959.5892,W,0.03,55.75,290321,,,D*43 
288.343         GPS_NMEA_FROM_GPS    iGPS            $GPRMC,184843.000,A,4144.3404,N,06959.5892,W,0.04,67.40,290321,,,D*42 
289.244         GPS_NMEA_FROM_GPS    iGPS            $GPGGA,184844.000,4144.3404,N,06959.5892,W,2,10,0.95,13.6,M,-34.3,M,0000,0000*6B 
290.246         GPS_NMEA_FROM_GPS    iGPS            $GPGGA,184845.000,4144.3404,N,06959.5892,W,2,10,0.95,13.6,M,-34.3,M,0000,0000*6A 
291.249         GPS_NMEA_FROM_GPS    iGPS            $GPGGA,184846.000,4144.3404,N,06959.5892,W,2,10,0.95,13.6,M,-34.3,M,0000,0000*69 
292.354         GPS_NMEA_FROM_GPS    iGPS            $GPGGA,184847.000,4144.3404,N,06959.5892,W,2,10,0.95,13.6,M,-34.3,M,0000,0000*68 
293.256         GPS_NMEA_FROM_GPS    iGPS            $GPGGA,184848.000,4144.3404,N,06959.5892,W,2,10,0.95,13.6,M,-34.3,M,0000,0000*67 
294.359         GPS_NMEA_FROM_GPS    iGPS            $GPRMC,184849.000,A,4144.3404,N,06959.5892,W,0.01,245.92,290321,,,D*70 
295.260         GPS_NMEA_FROM_GPS    iGPS            $GPGGA,184850.000,4144.3404,N,06959.5892,W,2,10,0.95,13.6,M,-34.3,M,0000,0000*6E 
296.363         GPS_NMEA_FROM_GPS    iGPS            $GPRMC,184851.000,A,4144.3404,N,06959.5892,W,0.04,3.55,290321,,,D*77 
297.365         GPS_NMEA_FROM_GPS    iGPS            $GPRMC,184852.000,A,4144.3404,N,06959.5892,W,0.04,31.76,290321,,,D*44 
298.267         GPS_NMEA_FROM_GPS    iGPS            $GPGGA,184853.000,4144.3404,N,06959.5892,W,2,10,0.95,13.6,M,-34.3,M,0000,0000*6D 
299.269         GPS_NMEA_FROM_GPS    iGPS            $GPGGA,184854.000,4144.3404,N,06959.5892,W,2,10,0.95,13.6,M,-34.3,M,0000,0000*6A 
300.271         GPS_NMEA_FROM_GPS    iGPS            $GPGGA,184855.000,4144.3404,N,06959.5892,W,2,10,0.95,13.6,M,-34.3,M,0000,0000*6B 
301.274         GPS_NMEA_FROM_GPS    iGPS            $GPGGA,184856.000,4144.3404,N,06959.5891,W,2,10,0.95,13.6,M,-34.3,M,0000,0000*6B 
302.280         GPS_NMEA_FROM_GPS    iGPS            $GPGGA,184857.000,4144.3404,N,06959.5891,W,2,10,0.95,13.6,M,-34.3,M,0000,0000*6A 
303.282         GPS_NMEA_FROM_GPS    iGPS            $GPRMC,184858.000,A,4144.3404,N,06959.5891,W,0.02,144.88,290321,,,D*79 
304.283         GPS_NMEA_FROM_GPS    iGPS            $GPGGA,184859.000,4144.3404,N,06959.5891,W,2,10,0.95,13.6,M,-34.3,M,0000,0000*64 
305.285         GPS_NMEA_FROM_GPS    iGPS            $GPGGA,184900.000,4144.3404,N,06959.5891,W,2,10,0.95,13.6,M,-34.3,M,0000,0000*69 
306.288         GPS_NMEA_FROM_GPS    iGPS            $GPGGA,184901.000,4144.3404,N,06959.5891,W,2,10,0.95,13.6,M,-34.3,M,0000,0000*68 
307.290         GPS_NMEA_FROM_GPS    iGPS            $GPGGA,184902.000,4144.3404,N,06959.5891,W,2,10,0.95,13.6,M,-34.3,M,0000,0000*6B 
308.292         GPS_NMEA_FROM_GPS    iGPS            $GPGGA,184903.000,4144.3404,N,06959.5891,W,2,10,0.95,13.6,M,-34.3,M,0000,0000*6A 
309.293         GPS_NMEA_FROM_GPS    iGPS            $GPGGA,184904.000,4144.3404,N,06959.5891,W,2,10,0.95,13.6,M,-34.3,M,0000,0000*6D 
310.295         GPS_NMEA_FROM_GPS    iGPS            $GPGGA,184905.000,4144.3404,N,06959.5891,W,2,10,0.95,13.5,M,-34.3,M,0000,0000*6F 
311.298         GPS_NMEA_FROM_GPS    iGPS            $GPRMC,184906.000,A,4144.3404,N,06959.5891,W,0.01,104.12,290321,,,D*77 
312.300         GPS_NMEA_FROM_GPS    iGPS            $GPRMC,184907.000,A,4144.3404,N,06959.5891,W,0.01,150.94,290321,,,D*79 
313.302         GPS_NMEA_FROM_GPS    iGPS            $GPGGA,184908.000,4144.3404,N,06959.5891,W,2,10,0.95,13.5,M,-34.3,M,0000,0000*62 
314.306         GPS_NMEA_FROM_GPS    iGPS            $GPGGA,184909.000,4144.3404,N,06959.5891,W,2,10,0.95,13.5,M,-34.3,M,0000,0000*63 
315.313         GPS_NMEA_FROM_GPS    iGPS            $GPGGA,184910.000,4144.3404,N,06959.5891,W,2,10,0.95,13.5,M,-34.3,M,0000,0000*6B 
316.319         GPS_NMEA_FROM_GPS    iGPS            $GPRMC,184911.000,A,4144.3404,N,06959.5891,W,0.07,208.62,290321,,,D*7F 
317.223         GPS_NMEA_FROM_GPS    iGPS            $GPGGA,184912.000,4144.3404,N,06959.5891,W,2,09,0.99,13.5,M,-34.3,M,0000,0000*6D 
318.330         GPS_NMEA_FROM_GPS    iGPS            $GPRMC,184913.000,A,4144.3404,N,06959.5891,W,0.07,204.34,290321,,,D*72 
319.232         GPS_NMEA_FROM_GPS    iGPS            $GPGGA,184914.000,4144.3404,N,06959.5891,W,2,09,0.99,13.5,M,-34.3,M,0000,0000*6B 
320.234         GPS_NMEA_FROM_GPS    iGPS            $GPGGA,184915.000,4144.3404,N,06959.5891,W,2,09,0.99,13.5,M,-34.3,M,0000,0000*6A 
321.236         GPS_NMEA_FROM_GPS    iGPS            $GPGGA,184916.000,4144.3404,N,06959.5891,W,2,09,0.99,13.5,M,-34.3,M,0000,0000*69 
322.238         GPS_NMEA_FROM_GPS    iGPS            $GPGGA,184917.000,4144.3404,N,06959.5891,W,2,09,0.99,13.5,M,-34.3,M,0000,0000*68 
323.340         GPS_NMEA_FROM_GPS    iGPS            $GPRMC,184918.000,A,4144.3404,N,06959.5891,W,0.03,137.80,290321,,,D*71 
324.241         GPS_NMEA_FROM_GPS    iGPS            $GPRMC,184919.000,A,4144.3404,N,06959.5891,W,0.02,136.98,290321,,,D*79 
325.244         GPS_NMEA_FROM_GPS    iGPS            $GPRMC,184920.000,A,4144.3404,N,06959.5891,W,0.02,127.33,290321,,,D*72 
326.246         GPS_NMEA_FROM_GPS    iGPS            $GPGGA,184921.000,4144.3404,N,06959.5891,W,2,09,0.99,13.5,M,-34.3,M,0000,0000*6D 
327.248         GPS_NMEA_FROM_GPS    iGPS            $GPGGA,184922.000,4144.3404,N,06959.5891,W,2,09,0.99,13.5,M,-34.3,M,0000,0000*6E 
328.250         GPS_NMEA_FROM_GPS    iGPS            $GPRMC,184923.000,A,4144.3404,N,06959.5891,W,0.04,193.71,290321,,,D*7E 
329.252         GPS_NMEA_FROM_GPS    iGPS            $GPGGA,184924.000,4144.3403,N,06959.5891,W,2,09,0.99,13.5,M,-34.3,M,0000,0000*6F 
330.254         GPS_NMEA_FROM_GPS    iGPS            $GPGGA,184925.000,4144.3403,N,06959.5891,W,2,09,0.99,13.5,M,-34.3,M,0000,0000*6E 
331.256         GPS_NMEA_FROM_GPS    iGPS            $GPGGA,184926.000,4144.3403,N,06959.5891,W,2,09,0.99,13.5,M,-34.3,M,0000,0000*6D 
332.160         GPS_NMEA_FROM_GPS    iGPS            $GPGGA,184927.000,4144.3403,N,06959.5891,W,2,09,0.99,13.5,M,-34.3,M,0000,0000*6C 
333.162         GPS_NMEA_FROM_GPS    iGPS            $GPGGA,184928.000,4144.3403,N,06959.5891,W,2,09,0.99,13.5,M,-34.3,M,0000,0000*63 
334.265         GPS_NMEA_FROM_GPS    iGPS            $GPGGA,184929.000,4144.3403,N,06959.5891,W,2,10,0.95,13.5,M,-34.3,M,0000,0000*66 
335.267         GPS_NMEA_FROM_GPS    iGPS            $GPGGA,184930.000,4144.3403,N,06959.5891,W,2,10,0.95,13.5,M,-34.3,M,0000,0000*6E 
336.369         GPS_NMEA_FROM_GPS    iGPS            $GPRMC,184931.000,A,4144.3403,N,06959.5891,W,0.04,165.63,290321,,,D*70 
337.271         GPS_NMEA_FROM_GPS    iGPS            $GPGGA,184932.000,4144.3403,N,06959.5891,W,2,10,0.95,13.5,M,-34.3,M,0000,0000*6C 
338.373         GPS_NMEA_FROM_GPS    iGPS            $GPRMC,184933.000,A,4144.3403,N,06959.5891,W,0.03,131.51,290321,,,D*75 
339.276         GPS_NMEA_FROM_GPS    iGPS            $GPGGA,184934.000,4144.3403,N,06959.5891,W,2,10,0.95,13.5,M,-34.3,M,0000,0000*6A 
340.278         GPS_NMEA_FROM_GPS    iGPS            $GPGGA,184935.000,4144.3403,N,06959.5891,W,2,10,0.95,13.5,M,-34.3,M,0000,0000*6B 
341.280         GPS_NMEA_FROM_GPS    iGPS            $GPGGA,184936.000,4144.3403,N,06959.5891,W,2,10,0.95,13.5,M,-34.3,M,0000,0000*68 
342.282         GPS_NMEA_FROM_GPS    iGPS            $GPGGA,184937.000,4144.3403,N,06959.5891,W,2,10,0.96,13.5,M,-34.3,M,0000,0000*6A 
343.284         GPS_NMEA_FROM_GPS    iGPS            $GPGGA,184938.000,4144.3403,N,06959.5891,W,2,10,0.96,13.5,M,-34.3,M,0000,0000*65 
344.286         GPS_NMEA_FROM_GPS    iGPS            $GPGGA,184939.000,4144.3403,N,06959.5891,W,2,10,0.95,13.5,M,-34.3,M,0000,0000*67 
345.288         GPS_NMEA_FROM_GPS    iGPS            $GPGGA,184940.000,4144.3403,N,06959.5891,W,2,10,0.96,13.5,M,-34.3,M,0000,0000*6A 
346.291         GPS_NMEA_FROM_GPS    iGPS            $GPGGA,184941.000,4144.3403,N,06959.5891,W,2,10,0.96,13.5,M,-34.3,M,0000,0000*6B 
347.294         GPS_NMEA_FROM_GPS    iGPS            $GPGGA,184942.000,4144.3403,N,06959.5891,W,2,10,0.96,13.5,M,-34.3,M,0000,0000*68 
348.299         GPS_NMEA_FROM_GPS    iGPS            $GPGGA,184943.000,4144.3403,N,06959.5891,W,2,10,0.96,13.5,M,-34.3,M,0000,0000*69 
349.301         GPS_NMEA_FROM_GPS    iGPS            $GPRMC,184944.000,A,4144.3403,N,06959.5891,W,0.02,125.87,290321,,,D*7A 
350.405         GPS_NMEA_FROM_GPS    iGPS            $GPGGA,184945.000,4144.3403,N,06959.5891,W,2,10,0.96,13.5,M,-34.3,M,0000,0000*6F 
351.306         GPS_NMEA_FROM_GPS    iGPS            $GPGGA,184946.000,4144.3403,N,06959.5891,W,2,10,0.96,13.5,M,-34.3,M,0000,0000*6C 
352.408         GPS_NMEA_FROM_GPS    iGPS            $GPRMC,184947.000,A,4144.3403,N,06959.5891,W,0.03,178.28,290321,,,D*75 
353.310         GPS_NMEA_FROM_GPS    iGPS            $GPGGA,184948.000,4144.3403,N,06959.5891,W,2,10,0.96,13.5,M,-34.3,M,0000,0000*62 
354.312         GPS_NMEA_FROM_GPS    iGPS            $GPRMC,184949.000,A,4144.3403,N,06959.5891,W,0.05,169.92,290321,,,D*7C 
355.415         GPS_NMEA_FROM_GPS    iGPS            $GPRMC,184950.000,A,4144.3403,N,06959.5891,W,0.05,181.96,290321,,,D*76 
356.317         GPS_NMEA_FROM_GPS    iGPS            $GPGGA,184951.000,4144.3403,N,06959.5891,W,2,10,0.96,13.5,M,-34.3,M,0000,0000*6A 
357.419         GPS_NMEA_FROM_GPS    iGPS            $GPGGA,184952.000,4144.3403,N,06959.5891,W,2,10,0.96,13.5,M,-34.3,M,0000,0000*69 
358.221         GPS_NMEA_FROM_GPS    iGPS            $GPGGA,184953.000,4144.3403,N,06959.5891,W,2,10,0.96,13.5,M,-34.3,M,0000,0000*68 
359.323         GPS_NMEA_FROM_GPS    iGPS            $GPGGA,184954.000,4144.3403,N,06959.5891,W,2,10,0.96,13.5,M,-34.3,M,0000,0000*6F 
360.325         GPS_NMEA_FROM_GPS    iGPS            $GPGGA,184955.000,4144.3403,N,06959.5891,W,2,10,0.96,13.5,M,-34.3,M,0000,0000*6E 
361.328         GPS_NMEA_FROM_GPS    iGPS            $GPRMC,184956.000,A,4144.3403,N,06959.5891,W,0.06,157.53,290321,,,D*71 
362.329         GPS_NMEA_FROM_GPS    iGPS            $GPGGA,184957.000,4144.3403,N,06959.5891,W,2,10,0.96,13.5,M,-34.3,M,0000,0000*6C 
363.331         GPS_NMEA_FROM_GPS    iGPS            $GPGGA,184958.000,4144.3403,N,06959.5891,W,2,10,0.96,13.5,M,-34.3,M,0000,0000*63 
364.333         GPS_NMEA_FROM_GPS    iGPS            $GPRMC,184959.000,A,4144.3403,N,06959.5891,W,0.07,142.34,290321,,,D*7A 
365.237         GPS_NMEA_FROM_GPS    iGPS            $GPGGA,185000.000,4144.3403,N,06959.5890,W,2,10,0.96,13.5,M,-34.3,M,0000,0000*67 
366.241         GPS_NMEA_FROM_GPS    iGPS            $GPGGA,185001.000,4144.3403,N,06959.5890,W,2,10,0.96,13.5,M,-34.3,M,0000,0000*66 
367.243         GPS_NMEA_FROM_GPS    iGPS            $GPGGA,185002.000,4144.3403,N,06959.5890,W,2,10,0.96,13.5,M,-34.3,M,0000,0000*65 
368.250         GPS_NMEA_FROM_GPS    iGPS            $GPGGA,185003.000,4144.3403,N,06959.5890,W,2,10,0.96,13.5,M,-34.3,M,0000,0000*64 
369.348         GPS_NMEA_FROM_GPS    iGPS            $GPRMC,185004.000,A,4144.3402,N,06959.5890,W,0.04,156.89,290321,,,D*7A 
