1.665           GPS_NMEA_FROM_GPS    iGPS            $GPRMC,193205.000,A,4144.3552,N,06959.5669,W,0.01,222.85,300321,,,D*73 
2.666           GPS_NMEA_FROM_GPS    iGPS            $GPGGA,193206.000,4144.3552,N,06959.5669,W,2,09,1.04,4.3,M,-34.3,M,0000,0000*5B 
2.666           GPS_NMEA_FROM_GPS    iGPS            $GPGGA,193206.000,4144.3552,N,06959.5669,W,2,09,1.04,4.3,M,-34.3,M,0000,0000*5B 
3.668           GPS_NMEA_FROM_GPS    iGPS            $GPGGA,193207.000,4144.3552,N,06959.5669,W,2,09,1.04,4.3,M,-34.3,M,0000,0000*5A 
3.668           GPS_NMEA_FROM_GPS    iGPS            $GPGGA,193207.000,4144.3552,N,06959.5669,W,2,09,1.04,4.3,M,-34.3,M,0000,0000*5A 
4.571           GPS_NMEA_FROM_GPS    iGPS            $GPGGA,193208.000,4144.3551,N,06959.5669,W,2,09,1.04,4.3,M,-34.3,M,0000,0000*56 
5.573           GPS_NMEA_FROM_GPS    iGPS            $GPGGA,193209.000,4144.3551,N,06959.5669,W,2,09,1.04,4.3,M,-34.3,M,0000,0000*57 
6.576           GPS_NMEA_FROM_GPS    iGPS            $GPGGA,193210.000,4144.3551,N,06959.5669,W,2,10,0.94,4.3,M,-34.3,M,0000,0000*5F 
7.679           GPS_NMEA_FROM_GPS    iGPS            $GPRMC,193211.000,A,4144.3551,N,06959.5669,W,0.02,244.02,300321,,,D*79 
8.581           GPS_NMEA_FROM_GPS    iGPS            $GPGGA,193212.000,4144.3551,N,06959.5669,W,2,10,0.94,4.3,M,-34.3,M,0000,0000*5D 
9.583           GPS_NMEA_FROM_GPS    iGPS            $GPGGA,193213.000,4144.3551,N,06959.5669,W,2,10,0.94,4.3,M,-34.3,M,0000,0000*5C 
10.686          GPS_NMEA_FROM_GPS    iGPS            $GPRMC,193214.000,A,4144.3551,N,06959.5669,W,0.03,240.52,300321,,,D*7C 
11.688          GPS_NMEA_FROM_GPS    iGPS            $GPRMC,193215.000,A,4144.3551,N,06959.5669,W,0.06,228.68,300321,,,D*7F 
11.688          GPS_NMEA_FROM_GPS    iGPS            $GPRMC,193215.000,A,4144.3551,N,06959.5669,W,0.06,228.68,300321,,,D*7F 
12.590          GPS_NMEA_FROM_GPS    iGPS            $GPGGA,193216.000,4144.3551,N,06959.5669,W,2,10,0.94,4.3,M,-34.3,M,0000,0000*59 
12.590          GPS_NMEA_FROM_GPS    iGPS            $GPGGA,193216.000,4144.3551,N,06959.5669,W,2,10,0.94,4.3,M,-34.3,M,0000,0000*59 
13.594          GPS_NMEA_FROM_GPS    iGPS            $GPRMC,193217.000,A,4144.3551,N,06959.5669,W,0.03,271.64,300321,,,D*78 
14.596          GPS_NMEA_FROM_GPS    iGPS            $GPGGA,193218.000,4144.3551,N,06959.5669,W,2,10,0.94,4.3,M,-34.3,M,0000,0000*57 
15.700          GPS_NMEA_FROM_GPS    iGPS            $GPRMC,193219.000,A,4144.3551,N,06959.5669,W,0.04,265.52,300321,,,D*71 
16.602          GPS_NMEA_FROM_GPS    iGPS            $GPGGA,193220.000,4144.3551,N,06959.5670,W,2,10,0.94,4.3,M,-34.3,M,0000,0000*54 
17.605          GPS_NMEA_FROM_GPS    iGPS            $GPGGA,193221.000,4144.3551,N,06959.5670,W,2,10,0.94,4.3,M,-34.3,M,0000,0000*55 
18.607          GPS_NMEA_FROM_GPS    iGPS            $GPGGA,193222.000,4144.3551,N,06959.5670,W,2,10,0.94,4.3,M,-34.3,M,0000,0000*56 
19.610          GPS_NMEA_FROM_GPS    iGPS            $GPGGA,193223.000,4144.3551,N,06959.5670,W,2,10,0.94,4.3,M,-34.3,M,0000,0000*57 
20.612          GPS_NMEA_FROM_GPS    iGPS            $GPGGA,193224.000,4144.3551,N,06959.5670,W,2,10,0.94,4.3,M,-34.3,M,0000,0000*50 
21.715          GPS_NMEA_FROM_GPS    iGPS            $GPRMC,193225.000,A,4144.3551,N,06959.5670,W,0.04,267.36,300321,,,D*76 
22.618          GPS_NMEA_FROM_GPS    iGPS            $GPGGA,193226.000,4144.3551,N,06959.5670,W,2,09,1.04,4.3,M,-34.3,M,0000,0000*52 
23.621          GPS_NMEA_FROM_GPS    iGPS            $GPGGA,193227.000,4144.3551,N,06959.5670,W,2,09,1.04,4.3,M,-34.3,M,0000,0000*53 
24.624          GPS_NMEA_FROM_GPS    iGPS            $GPGGA,193228.000,4144.3551,N,06959.5670,W,2,09,1.04,4.3,M,-34.3,M,0000,0000*5C 
25.627          GPS_NMEA_FROM_GPS    iGPS            $GPGGA,193229.000,4144.3551,N,06959.5670,W,2,10,0.94,4.3,M,-34.3,M,0000,0000*5D 
26.629          GPS_NMEA_FROM_GPS    iGPS            $GPGGA,193230.000,4144.3551,N,06959.5670,W,2,10,0.94,4.3,M,-34.3,M,0000,0000*55 
26.629          GPS_NMEA_FROM_GPS    iGPS            $GPGGA,193230.000,4144.3551,N,06959.5670,W,2,10,0.94,4.3,M,-34.3,M,0000,0000*55 
27.632          GPS_NMEA_FROM_GPS    iGPS            $GPGGA,193231.000,4144.3551,N,06959.5670,W,2,10,0.94,4.3,M,-34.3,M,0000,0000*54 
28.635          GPS_NMEA_FROM_GPS    iGPS            $GPGGA,193232.000,4144.3551,N,06959.5670,W,2,10,0.94,4.3,M,-34.3,M,0000,0000*57 
29.637          GPS_NMEA_FROM_GPS    iGPS            $GPRMC,193233.000,A,4144.3551,N,06959.5670,W,0.03,307.74,300321,,,D*77 
30.539          GPS_NMEA_FROM_GPS    iGPS            $GPGGA,193234.000,4144.3551,N,06959.5670,W,2,10,0.94,4.3,M,-34.3,M,0000,0000*51 
31.643          GPS_NMEA_FROM_GPS    iGPS            $GPGGA,193235.000,4144.3551,N,06959.5670,W,2,10,0.94,4.3,M,-34.3,M,0000,0000*50 
31.643          GPS_NMEA_FROM_GPS    iGPS            $GPGGA,193235.000,4144.3551,N,06959.5670,W,2,10,0.94,4.3,M,-34.3,M,0000,0000*50 
32.646          GPS_NMEA_FROM_GPS    iGPS            $GPGGA,193236.000,4144.3551,N,06959.5670,W,2,09,1.04,4.3,M,-34.3,M,0000,0000*53 
33.648          GPS_NMEA_FROM_GPS    iGPS            $GPGGA,193237.000,4144.3551,N,06959.5670,W,2,10,0.94,4.3,M,-34.3,M,0000,0000*52 
34.551          GPS_NMEA_FROM_GPS    iGPS            $GPGGA,193238.000,4144.3551,N,06959.5670,W,2,10,0.94,4.3,M,-34.3,M,0000,0000*5D 
35.654          GPS_NMEA_FROM_GPS    iGPS            $GPRMC,193239.000,A,4144.3551,N,06959.5670,W,0.01,153.33,300321,,,D*7F 
36.656          GPS_NMEA_FROM_GPS    iGPS            $GPGGA,193240.000,4144.3551,N,06959.5670,W,2,10,0.94,4.3,M,-34.3,M,0000,0000*52 
37.659          GPS_NMEA_FROM_GPS    iGPS            $GPGGA,193241.000,4144.3551,N,06959.5670,W,2,10,0.94,4.3,M,-34.3,M,0000,0000*53 
38.561          GPS_NMEA_FROM_GPS    iGPS            $GPGGA,193242.000,4144.3551,N,06959.5670,W,2,10,0.94,4.3,M,-34.3,M,0000,0000*50 
39.664          GPS_NMEA_FROM_GPS    iGPS            $GPGGA,193243.000,4144.3551,N,06959.5670,W,2,10,0.94,4.3,M,-34.3,M,0000,0000*51 
40.667          GPS_NMEA_FROM_GPS    iGPS            $GPGGA,193244.000,4144.3551,N,06959.5670,W,2,10,0.94,4.3,M,-34.3,M,0000,0000*56 
41.669          GPS_NMEA_FROM_GPS    iGPS            $GPGGA,193245.000,4144.3551,N,06959.5670,W,2,10,0.94,4.3,M,-34.3,M,0000,0000*57 
42.672          GPS_NMEA_FROM_GPS    iGPS            $GPGGA,193246.000,4144.3551,N,06959.5670,W,2,10,0.94,4.3,M,-34.3,M,0000,0000*54 
43.675          GPS_NMEA_FROM_GPS    iGPS            $GPGGA,193247.000,4144.3551,N,06959.5670,W,2,10,0.94,4.3,M,-34.3,M,0000,0000*55 
44.578          GPS_NMEA_FROM_GPS    iGPS            $GPGGA,193248.000,4144.3551,N,06959.5670,W,2,10,0.94,4.3,M,-34.3,M,0000,0000*5A 
45.682          GPS_NMEA_FROM_GPS    iGPS            $GPGGA,193249.000,4144.3551,N,06959.5670,W,2,10,0.94,4.3,M,-34.3,M,0000,0000*5B 
46.584          GPS_NMEA_FROM_GPS    iGPS            $GPGGA,193250.000,4144.3551,N,06959.5670,W,2,10,0.94,4.3,M,-34.3,M,0000,0000*53 
47.690          GPS_NMEA_FROM_GPS    iGPS            $GPRMC,193251.000,A,4144.3551,N,06959.5670,W,0.16,159.28,300321,,,D*77 
48.592          GPS_NMEA_FROM_GPS    iGPS            $GPGGA,193252.000,4144.3551,N,06959.5669,W,2,10,0.94,4.3,M,-34.3,M,0000,0000*59 
49.695          GPS_NMEA_FROM_GPS    iGPS            $GPRMC,193253.000,A,4144.3551,N,06959.5669,W,0.15,186.81,300321,,,D*7F 
50.698          GPS_NMEA_FROM_GPS    iGPS            $GPRMC,193254.000,A,4144.3551,N,06959.5669,W,0.24,188.79,300321,,,D*73 
51.701          GPS_NMEA_FROM_GPS    iGPS            $GPRMC,193255.000,A,4144.3550,N,06959.5670,W,0.36,180.86,300321,,,D*70 
52.603          GPS_NMEA_FROM_GPS    iGPS            $GPGGA,193256.000,4144.3549,N,06959.5670,W,2,10,0.94,4.4,M,-34.3,M,0000,0000*5B 
53.605          GPS_NMEA_FROM_GPS    iGPS            $GPGGA,193257.000,4144.3548,N,06959.5670,W,2,10,0.94,4.4,M,-34.3,M,0000,0000*5B 
54.710          GPS_NMEA_FROM_GPS    iGPS            $GPRMC,193258.000,A,4144.3545,N,06959.5671,W,0.69,191.97,300321,,,D*72 
55.612          GPS_NMEA_FROM_GPS    iGPS            $GPGGA,193259.000,4144.3543,N,06959.5672,W,2,10,0.94,4.3,M,-34.3,M,0000,0000*5B 
56.614          GPS_NMEA_FROM_GPS    iGPS            $GPGGA,193300.000,4144.3540,N,06959.5672,W,2,10,0.94,4.3,M,-34.3,M,0000,0000*55 
57.717          GPS_NMEA_FROM_GPS    iGPS            $GPRMC,193301.000,A,4144.3538,N,06959.5673,W,0.73,195.20,300321,,,D*74 
58.619          GPS_NMEA_FROM_GPS    iGPS            $GPGGA,193302.000,4144.3535,N,06959.5674,W,2,10,0.94,4.3,M,-34.3,M,0000,0000*53 
59.622          GPS_NMEA_FROM_GPS    iGPS            $GPGGA,193303.000,4144.3532,N,06959.5675,W,2,10,0.94,4.3,M,-34.3,M,0000,0000*54 
60.625          GPS_NMEA_FROM_GPS    iGPS            $GPGGA,193304.000,4144.3530,N,06959.5676,W,2,10,0.94,4.4,M,-34.3,M,0000,0000*55 
61.627          GPS_NMEA_FROM_GPS    iGPS            $GPGGA,193305.000,4144.3527,N,06959.5677,W,2,10,0.94,4.4,M,-34.3,M,0000,0000*53 
62.630          GPS_NMEA_FROM_GPS    iGPS            $GPGGA,193306.000,4144.3524,N,06959.5679,W,2,10,0.94,4.5,M,-34.3,M,0000,0000*5C 
63.632          GPS_NMEA_FROM_GPS    iGPS            $GPGGA,193307.000,4144.3522,N,06959.5680,W,2,10,0.94,4.5,M,-34.3,M,0000,0000*5D 
64.635          GPS_NMEA_FROM_GPS    iGPS            $GPGGA,193308.000,4144.3520,N,06959.5682,W,2,10,0.94,4.5,M,-34.3,M,0000,0000*52 
65.638          GPS_NMEA_FROM_GPS    iGPS            $GPRMC,193309.000,A,4144.3518,N,06959.5683,W,0.68,208.38,300321,,,D*75 
66.640          GPS_NMEA_FROM_GPS    iGPS            $GPGGA,193310.000,4144.3515,N,06959.5684,W,2,10,0.94,4.5,M,-34.3,M,0000,0000*5B 
67.643          GPS_NMEA_FROM_GPS    iGPS            $GPGGA,193311.000,4144.3513,N,06959.5685,W,2,10,0.94,4.5,M,-34.3,M,0000,0000*5D 
68.646          GPS_NMEA_FROM_GPS    iGPS            $GPGGA,193312.000,4144.3511,N,06959.5686,W,2,10,0.94,4.5,M,-34.3,M,0000,0000*5F 
69.648          GPS_NMEA_FROM_GPS    iGPS            $GPGGA,193313.000,4144.3508,N,06959.5688,W,2,10,0.94,4.5,M,-34.3,M,0000,0000*58 
70.651          GPS_NMEA_FROM_GPS    iGPS            $GPGGA,193314.000,4144.3506,N,06959.5689,W,2,10,0.94,4.5,M,-34.3,M,0000,0000*50 
71.553          GPS_NMEA_FROM_GPS    iGPS            $GPGGA,193315.000,4144.3503,N,06959.5690,W,2,10,0.94,4.6,M,-34.3,M,0000,0000*5F 
72.656          GPS_NMEA_FROM_GPS    iGPS            $GPRMC,193316.000,A,4144.3501,N,06959.5691,W,0.81,204.71,300321,,,D*76 
73.659          GPS_NMEA_FROM_GPS    iGPS            $GPGGA,193317.000,4144.3499,N,06959.5693,W,2,10,0.94,4.7,M,-34.3,M,0000,0000*5D 
74.661          GPS_NMEA_FROM_GPS    iGPS            $GPGGA,193318.000,4144.3496,N,06959.5694,W,2,10,0.94,4.8,M,-34.3,M,0000,0000*55 
75.564          GPS_NMEA_FROM_GPS    iGPS            $GPGGA,193319.000,4144.3494,N,06959.5696,W,2,10,0.94,4.9,M,-34.3,M,0000,0000*55 
76.667          GPS_NMEA_FROM_GPS    iGPS            $GPRMC,193320.000,A,4144.3491,N,06959.5698,W,0.81,207.13,300321,,,D*75 
77.669          GPS_NMEA_FROM_GPS    iGPS            $GPGGA,193321.000,4144.3489,N,06959.5699,W,2,10,0.94,5.0,M,-34.3,M,0000,0000*55 
78.672          GPS_NMEA_FROM_GPS    iGPS            $GPRMC,193322.000,A,4144.3487,N,06959.5701,W,0.76,207.95,300321,,,D*77 
79.674          GPS_NMEA_FROM_GPS    iGPS            $GPGGA,193323.000,4144.3485,N,06959.5702,W,2,10,0.94,5.0,M,-34.3,M,0000,0000*58 
80.677          GPS_NMEA_FROM_GPS    iGPS            $GPRMC,193324.000,A,4144.3483,N,06959.5703,W,0.76,208.54,300321,,,D*75 
81.679          GPS_NMEA_FROM_GPS    iGPS            $GPGGA,193325.000,4144.3480,N,06959.5705,W,2,10,0.94,5.0,M,-34.3,M,0000,0000*5C 
82.682          GPS_NMEA_FROM_GPS    iGPS            $GPGGA,193326.000,4144.3478,N,06959.5706,W,2,10,0.94,4.9,M,-34.3,M,0000,0000*53 
83.685          GPS_NMEA_FROM_GPS    iGPS            $GPRMC,193327.000,A,4144.3476,N,06959.5708,W,0.76,209.58,300321,,,D*7A 
84.687          GPS_NMEA_FROM_GPS    iGPS            $GPGGA,193328.000,4144.3473,N,06959.5709,W,2,10,0.94,4.8,M,-34.3,M,0000,0000*58 
85.690          GPS_NMEA_FROM_GPS    iGPS            $GPRMC,193329.000,A,4144.3471,N,06959.5711,W,0.72,211.40,300321,,,D*7F 
86.692          GPS_NMEA_FROM_GPS    iGPS            $GPRMC,193330.000,A,4144.3469,N,06959.5713,W,0.75,212.42,300321,,,D*7A 
87.594          GPS_NMEA_FROM_GPS    iGPS            $GPGGA,193331.000,4144.3467,N,06959.5714,W,2,10,0.94,4.6,M,-34.3,M,0000,0000*57 
88.698          GPS_NMEA_FROM_GPS    iGPS            $GPGGA,193332.000,4144.3465,N,06959.5716,W,2,10,0.94,4.6,M,-34.3,M,0000,0000*54 
89.599          GPS_NMEA_FROM_GPS    iGPS            $GPGGA,193333.000,4144.3463,N,06959.5718,W,2,10,0.94,4.5,M,-34.3,M,0000,0000*5E 
90.601          GPS_NMEA_FROM_GPS    iGPS            $GPGGA,193334.000,4144.3462,N,06959.5720,W,2,10,0.94,4.5,M,-34.3,M,0000,0000*53 
91.603          GPS_NMEA_FROM_GPS    iGPS            $GPGGA,193335.000,4144.3459,N,06959.5721,W,2,10,0.94,4.5,M,-34.3,M,0000,0000*5B 
92.606          GPS_NMEA_FROM_GPS    iGPS            $GPGGA,193336.000,4144.3458,N,06959.5723,W,2,10,0.94,4.4,M,-34.3,M,0000,0000*5A 
93.609          GPS_NMEA_FROM_GPS    iGPS            $GPGGA,193337.000,4144.3456,N,06959.5724,W,2,10,0.94,4.4,M,-34.3,M,0000,0000*52 
94.712          GPS_NMEA_FROM_GPS    iGPS            $GPRMC,193338.000,A,4144.3453,N,06959.5725,W,0.70,205.30,300321,,,D*78 
95.715          GPS_NMEA_FROM_GPS    iGPS            $GPGGA,193339.000,4144.3451,N,06959.5725,W,2,10,0.94,4.3,M,-34.3,M,0000,0000*5D 
96.617          GPS_NMEA_FROM_GPS    iGPS            $GPGGA,193340.000,4144.3449,N,06959.5726,W,2,10,0.94,4.3,M,-34.3,M,0000,0000*59 
97.621          GPS_NMEA_FROM_GPS    iGPS            $GPGGA,193341.000,4144.3447,N,06959.5726,W,2,10,0.94,4.3,M,-34.3,M,0000,0000*56 
98.724          GPS_NMEA_FROM_GPS    iGPS            $GPRMC,193342.000,A,4144.3445,N,06959.5726,W,0.63,191.99,300321,,,D*7E 
99.626          GPS_NMEA_FROM_GPS    iGPS            $GPGGA,193343.000,4144.3443,N,06959.5725,W,2,10,0.94,4.3,M,-34.3,M,0000,0000*53 
100.730         GPS_NMEA_FROM_GPS    iGPS            $GPRMC,193344.000,A,4144.3441,N,06959.5725,W,0.64,182.56,300321,,,D*79 
101.632         GPS_NMEA_FROM_GPS    iGPS            $GPGGA,193345.000,4144.3439,N,06959.5724,W,2,10,0.94,4.3,M,-34.3,M,0000,0000*59 
102.634         GPS_NMEA_FROM_GPS    iGPS            $GPGGA,193346.000,4144.3437,N,06959.5722,W,2,10,0.94,4.3,M,-34.3,M,0000,0000*52 
103.737         GPS_NMEA_FROM_GPS    iGPS            $GPRMC,193347.000,A,4144.3435,N,06959.5721,W,0.59,165.47,300321,,,D*7A 
104.740         GPS_NMEA_FROM_GPS    iGPS            $GPRMC,193348.000,A,4144.3434,N,06959.5719,W,0.64,158.44,300321,,,D*7C 
105.742         GPS_NMEA_FROM_GPS    iGPS            $GPRMC,193349.000,A,4144.3432,N,06959.5717,W,0.59,153.21,300321,,,D*73 
106.745         GPS_NMEA_FROM_GPS    iGPS            $GPRMC,193350.000,A,4144.3430,N,06959.5715,W,0.59,148.75,300321,,,D*70 
107.747         GPS_NMEA_FROM_GPS    iGPS            $GPRMC,193351.000,A,4144.3429,N,06959.5713,W,0.64,145.08,300321,,,D*76 
108.749         GPS_NMEA_FROM_GPS    iGPS            $GPRMC,193352.000,A,4144.3427,N,06959.5711,W,0.61,143.09,300321,,,D*7B 
109.752         GPS_NMEA_FROM_GPS    iGPS            $GPRMC,193353.000,A,4144.3425,N,06959.5709,W,0.65,141.41,300321,,,D*7B 
110.654         GPS_NMEA_FROM_GPS    iGPS            $GPGGA,193354.000,4144.3424,N,06959.5707,W,2,10,0.94,4.1,M,-34.3,M,0000,0000*56 
111.656         GPS_NMEA_FROM_GPS    iGPS            $GPGGA,193355.000,4144.3422,N,06959.5706,W,2,10,0.94,4.2,M,-34.3,M,0000,0000*53 
112.659         GPS_NMEA_FROM_GPS    iGPS            $GPGGA,193356.000,4144.3421,N,06959.5704,W,2,10,0.94,4.3,M,-34.3,M,0000,0000*50 
113.662         GPS_NMEA_FROM_GPS    iGPS            $GPGGA,193357.000,4144.3419,N,06959.5702,W,2,10,0.94,4.4,M,-34.3,M,0000,0000*5B 
114.664         GPS_NMEA_FROM_GPS    iGPS            $GPGGA,193358.000,4144.3418,N,06959.5700,W,2,10,0.94,4.4,M,-34.3,M,0000,0000*57 
115.666         GPS_NMEA_FROM_GPS    iGPS            $GPGGA,193359.000,4144.3417,N,06959.5697,W,2,10,0.94,4.4,M,-34.3,M,0000,0000*56 
116.668         GPS_NMEA_FROM_GPS    iGPS            $GPGGA,193400.000,4144.3415,N,06959.5695,W,2,10,0.94,4.4,M,-34.3,M,0000,0000*5D 
117.771         GPS_NMEA_FROM_GPS    iGPS            $GPRMC,193401.000,A,4144.3414,N,06959.5692,W,0.74,123.75,300321,,,D*79 
118.672         GPS_NMEA_FROM_GPS    iGPS            $GPGGA,193402.000,4144.3412,N,06959.5690,W,2,10,0.94,4.4,M,-34.3,M,0000,0000*5D 
119.675         GPS_NMEA_FROM_GPS    iGPS            $GPGGA,193403.000,4144.3411,N,06959.5688,W,2,10,0.94,4.4,M,-34.3,M,0000,0000*56 
120.677         GPS_NMEA_FROM_GPS    iGPS            $GPGGA,193404.000,4144.3409,N,06959.5685,W,2,10,0.94,4.3,M,-34.3,M,0000,0000*52 
121.680         GPS_NMEA_FROM_GPS    iGPS            $GPGGA,193405.000,4144.3408,N,06959.5683,W,2,10,0.94,4.3,M,-34.3,M,0000,0000*54 
122.683         GPS_NMEA_FROM_GPS    iGPS            $GPGGA,193406.000,4144.3406,N,06959.5680,W,2,10,0.94,4.2,M,-34.3,M,0000,0000*5B 
123.686         GPS_NMEA_FROM_GPS    iGPS            $GPRMC,193407.000,A,4144.3405,N,06959.5678,W,0.76,121.79,300321,,,D*77 
124.688         GPS_NMEA_FROM_GPS    iGPS            $GPGGA,193408.000,4144.3404,N,06959.5675,W,2,10,0.94,4.1,M,-34.3,M,0000,0000*5E 
125.691         GPS_NMEA_FROM_GPS    iGPS            $GPRMC,193409.000,A,4144.3402,N,06959.5672,W,0.69,120.33,300321,,,D*75 
126.694         GPS_NMEA_FROM_GPS    iGPS            $GPGGA,193410.000,4144.3401,N,06959.5670,W,2,10,0.94,4.0,M,-34.3,M,0000,0000*56 
127.696         GPS_NMEA_FROM_GPS    iGPS            $GPGGA,193411.000,4144.3400,N,06959.5667,W,2,10,0.94,4.0,M,-34.3,M,0000,0000*50 
128.699         GPS_NMEA_FROM_GPS    iGPS            $GPRMC,193412.000,A,4144.3399,N,06959.5665,W,0.75,118.40,300321,,,D*7E 
129.702         GPS_NMEA_FROM_GPS    iGPS            $GPRMC,193413.000,A,4144.3398,N,06959.5662,W,0.78,117.85,300321,,,D*72 
130.704         GPS_NMEA_FROM_GPS    iGPS            $GPRMC,193414.000,A,4144.3397,N,06959.5660,W,0.77,117.10,300321,,,D*7B 
131.606         GPS_NMEA_FROM_GPS    iGPS            $GPGGA,193415.000,4144.3396,N,06959.5657,W,2,10,0.94,4.2,M,-34.3,M,0000,0000*5D 
132.709         GPS_NMEA_FROM_GPS    iGPS            $GPGGA,193416.000,4144.3395,N,06959.5655,W,2,10,0.94,4.3,M,-34.3,M,0000,0000*5E 
133.611         GPS_NMEA_FROM_GPS    iGPS            $GPGGA,193417.000,4144.3394,N,06959.5652,W,2,10,0.94,4.4,M,-34.3,M,0000,0000*5E 
134.614         GPS_NMEA_FROM_GPS    iGPS            $GPGGA,193418.000,4144.3393,N,06959.5649,W,2,10,0.94,4.5,M,-34.3,M,0000,0000*5D 
135.617         GPS_NMEA_FROM_GPS    iGPS            $GPGGA,193419.000,4144.3393,N,06959.5647,W,2,10,0.94,4.6,M,-34.3,M,0000,0000*51 
136.619         GPS_NMEA_FROM_GPS    iGPS            $GPGGA,193420.000,4144.3392,N,06959.5644,W,2,11,0.89,4.7,M,-34.3,M,0000,0000*55 
137.622         GPS_NMEA_FROM_GPS    iGPS            $GPGGA,193421.000,4144.3391,N,06959.5642,W,2,10,0.94,4.8,M,-34.3,M,0000,0000*53 
138.725         GPS_NMEA_FROM_GPS    iGPS            $GPRMC,193422.000,A,4144.3390,N,06959.5639,W,0.76,112.72,300321,,,D*75 
139.727         GPS_NMEA_FROM_GPS    iGPS            $GPGGA,193423.000,4144.3389,N,06959.5637,W,2,11,0.89,4.9,M,-34.3,M,0000,0000*56 
140.730         GPS_NMEA_FROM_GPS    iGPS            $GPRMC,193424.000,A,4144.3388,N,06959.5634,W,0.75,115.34,300321,,,D*71 
141.632         GPS_NMEA_FROM_GPS    iGPS            $GPGGA,193425.000,4144.3387,N,06959.5631,W,2,10,0.94,4.9,M,-34.3,M,0000,0000*55 
142.634         GPS_NMEA_FROM_GPS    iGPS            $GPGGA,193426.000,4144.3385,N,06959.5629,W,2,10,0.94,4.9,M,-34.3,M,0000,0000*5D 
143.637         GPS_NMEA_FROM_GPS    iGPS            $GPGGA,193427.000,4144.3384,N,06959.5626,W,2,11,0.89,5.0,M,-34.3,M,0000,0000*57 
144.640         GPS_NMEA_FROM_GPS    iGPS            $GPGGA,193428.000,4144.3383,N,06959.5624,W,2,11,0.89,5.0,M,-34.3,M,0000,0000*5D 
145.743         GPS_NMEA_FROM_GPS    iGPS            $GPRMC,193429.000,A,4144.3382,N,06959.5621,W,0.69,114.14,300321,,,D*7C 
146.645         GPS_NMEA_FROM_GPS    iGPS            $GPGGA,193430.000,4144.3382,N,06959.5619,W,2,10,0.94,5.1,M,-34.3,M,0000,0000*57 
147.647         GPS_NMEA_FROM_GPS    iGPS            $GPGGA,193431.000,4144.3381,N,06959.5617,W,2,10,0.94,5.1,M,-34.3,M,0000,0000*5B 
148.650         GPS_NMEA_FROM_GPS    iGPS            $GPGGA,193432.000,4144.3381,N,06959.5614,W,2,10,0.94,5.1,M,-34.3,M,0000,0000*5B 
149.652         GPS_NMEA_FROM_GPS    iGPS            $GPGGA,193433.000,4144.3381,N,06959.5612,W,2,10,0.94,5.2,M,-34.3,M,0000,0000*5F 
150.655         GPS_NMEA_FROM_GPS    iGPS            $GPRMC,193434.000,A,4144.3380,N,06959.5609,W,0.75,101.48,300321,,,D*78 
151.658         GPS_NMEA_FROM_GPS    iGPS            $GPGGA,193435.000,4144.3380,N,06959.5606,W,2,10,0.94,5.3,M,-34.3,M,0000,0000*5C 
152.660         GPS_NMEA_FROM_GPS    iGPS            $GPRMC,193436.000,A,4144.3381,N,06959.5603,W,0.71,97.21,300321,,,D*44 
153.663         GPS_NMEA_FROM_GPS    iGPS            $GPGGA,193437.000,4144.3381,N,06959.5600,W,2,10,0.94,5.2,M,-34.3,M,0000,0000*58 
154.665         GPS_NMEA_FROM_GPS    iGPS            $GPGGA,193438.000,4144.3381,N,06959.5597,W,2,10,0.94,5.2,M,-34.3,M,0000,0000*5A 
155.668         GPS_NMEA_FROM_GPS    iGPS            $GPRMC,193439.000,A,4144.3380,N,06959.5594,W,0.75,95.82,300321,,,D*48 
156.671         GPS_NMEA_FROM_GPS    iGPS            $GPRMC,193440.000,A,4144.3380,N,06959.5591,W,0.76,96.54,300321,,,D*48 
157.673         GPS_NMEA_FROM_GPS    iGPS            $GPRMC,193441.000,A,4144.3380,N,06959.5588,W,0.76,97.43,300321,,,D*46 
158.675         GPS_NMEA_FROM_GPS    iGPS            $GPGGA,193442.000,4144.3379,N,06959.5585,W,2,11,0.89,5.4,M,-34.3,M,0000,0000*58 
159.678         GPS_NMEA_FROM_GPS    iGPS            $GPGGA,193443.000,4144.3379,N,06959.5582,W,2,11,0.89,5.4,M,-34.3,M,0000,0000*5E 
160.681         GPS_NMEA_FROM_GPS    iGPS            $GPGGA,193444.000,4144.3378,N,06959.5580,W,2,11,0.89,5.4,M,-34.3,M,0000,0000*5A 
161.683         GPS_NMEA_FROM_GPS    iGPS            $GPGGA,193445.000,4144.3378,N,06959.5577,W,2,11,0.89,5.5,M,-34.3,M,0000,0000*52 
162.686         GPS_NMEA_FROM_GPS    iGPS            $GPGGA,193446.000,4144.3377,N,06959.5574,W,2,11,0.89,5.5,M,-34.3,M,0000,0000*5D 
163.689         GPS_NMEA_FROM_GPS    iGPS            $GPRMC,193447.000,A,4144.3377,N,06959.5571,W,0.74,99.61,300321,,,D*42 
164.692         GPS_NMEA_FROM_GPS    iGPS            $GPRMC,193448.000,A,4144.3377,N,06959.5568,W,0.75,99.10,300321,,,D*42 
165.594         GPS_NMEA_FROM_GPS    iGPS            $GPGGA,193449.000,4144.3376,N,06959.5565,W,2,10,0.94,5.5,M,-34.3,M,0000,0000*5E 
166.697         GPS_NMEA_FROM_GPS    iGPS            $GPGGA,193450.000,4144.3376,N,06959.5562,W,2,10,0.94,5.5,M,-34.3,M,0000,0000*51 
167.599         GPS_NMEA_FROM_GPS    iGPS            $GPGGA,193451.000,4144.3376,N,06959.5559,W,2,10,0.94,5.6,M,-34.3,M,0000,0000*5B 
168.602         GPS_NMEA_FROM_GPS    iGPS            $GPGGA,193452.000,4144.3376,N,06959.5557,W,2,10,0.94,5.6,M,-34.3,M,0000,0000*56 
169.705         GPS_NMEA_FROM_GPS    iGPS            $GPRMC,193453.000,A,4144.3376,N,06959.5554,W,0.78,95.58,300321,,,D*4B 
170.707         GPS_NMEA_FROM_GPS    iGPS            $GPRMC,193454.000,A,4144.3376,N,06959.5551,W,0.80,95.11,300321,,,D*43 
171.609         GPS_NMEA_FROM_GPS    iGPS            $GPGGA,193455.000,4144.3376,N,06959.5548,W,2,10,0.94,5.7,M,-34.3,M,0000,0000*5E 
172.612         GPS_NMEA_FROM_GPS    iGPS            $GPRMC,193456.000,A,4144.3376,N,06959.5545,W,0.78,94.47,300321,,,D*41 
173.614         GPS_NMEA_FROM_GPS    iGPS            $GPGGA,193457.000,4144.3376,N,06959.5542,W,2,10,0.94,5.7,M,-34.3,M,0000,0000*56 
174.717         GPS_NMEA_FROM_GPS    iGPS            $GPRMC,193458.000,A,4144.3375,N,06959.5540,W,0.79,94.73,300321,,,D*4F 
175.619         GPS_NMEA_FROM_GPS    iGPS            $GPGGA,193459.000,4144.3375,N,06959.5537,W,2,10,0.94,5.8,M,-34.3,M,0000,0000*56 
176.621         GPS_NMEA_FROM_GPS    iGPS            $GPGGA,193500.000,4144.3375,N,06959.5534,W,2,10,0.94,5.8,M,-34.3,M,0000,0000*58 
177.624         GPS_NMEA_FROM_GPS    iGPS            $GPGGA,193501.000,4144.3374,N,06959.5531,W,2,11,0.89,5.8,M,-34.3,M,0000,0000*50 
178.627         GPS_NMEA_FROM_GPS    iGPS            $GPGGA,193502.000,4144.3374,N,06959.5528,W,2,11,0.89,5.9,M,-34.3,M,0000,0000*5A 
179.729         GPS_NMEA_FROM_GPS    iGPS            $GPRMC,193503.000,A,4144.3374,N,06959.5525,W,0.73,96.08,300321,,,D*46 
180.732         GPS_NMEA_FROM_GPS    iGPS            $GPRMC,193504.000,A,4144.3373,N,06959.5522,W,0.72,96.68,300321,,,D*46 
181.634         GPS_NMEA_FROM_GPS    iGPS            $GPGGA,193505.000,4144.3373,N,06959.5520,W,2,10,0.94,5.9,M,-34.3,M,0000,0000*5F 
182.738         GPS_NMEA_FROM_GPS    iGPS            $GPRMC,193506.000,A,4144.3372,N,06959.5517,W,0.73,97.72,300321,,,D*48 
183.640         GPS_NMEA_FROM_GPS    iGPS            $GPGGA,193507.000,4144.3372,N,06959.5514,W,2,10,0.94,5.8,M,-34.3,M,0000,0000*5A 
184.642         GPS_NMEA_FROM_GPS    iGPS            $GPGGA,193508.000,4144.3371,N,06959.5512,W,2,11,0.89,5.8,M,-34.3,M,0000,0000*5D 
185.645         GPS_NMEA_FROM_GPS    iGPS            $GPGGA,193509.000,4144.3371,N,06959.5509,W,2,10,0.99,5.9,M,-34.3,M,0000,0000*57 
186.647         GPS_NMEA_FROM_GPS    iGPS            $GPGGA,193510.000,4144.3371,N,06959.5506,W,2,10,0.99,5.8,M,-34.3,M,0000,0000*51 
187.750         GPS_NMEA_FROM_GPS    iGPS            $GPRMC,193511.000,A,4144.3371,N,06959.5503,W,0.75,92.71,300321,,,D*48 
188.653         GPS_NMEA_FROM_GPS    iGPS            $GPGGA,193512.000,4144.3371,N,06959.5500,W,2,11,0.89,5.9,M,-34.3,M,0000,0000*54 
189.655         GPS_NMEA_FROM_GPS    iGPS            $GPGGA,193513.000,4144.3371,N,06959.5497,W,2,10,0.94,5.9,M,-34.3,M,0000,0000*57 
190.658         GPS_NMEA_FROM_GPS    iGPS            $GPGGA,193514.000,4144.3372,N,06959.5494,W,2,11,0.89,5.9,M,-34.3,M,0000,0000*5D 
191.661         GPS_NMEA_FROM_GPS    iGPS            $GPGGA,193515.000,4144.3372,N,06959.5491,W,2,10,0.94,5.9,M,-34.3,M,0000,0000*54 
192.664         GPS_NMEA_FROM_GPS    iGPS            $GPGGA,193516.000,4144.3373,N,06959.5488,W,2,10,0.94,5.9,M,-34.3,M,0000,0000*5E 
193.665         GPS_NMEA_FROM_GPS    iGPS            $GPGGA,193517.000,4144.3373,N,06959.5486,W,2,09,1.03,5.9,M,-34.3,M,0000,0000*56 
194.668         GPS_NMEA_FROM_GPS    iGPS            $GPGGA,193518.000,4144.3373,N,06959.5483,W,2,09,1.03,5.9,M,-34.3,M,0000,0000*5C 
195.670         GPS_NMEA_FROM_GPS    iGPS            $GPGGA,193519.000,4144.3374,N,06959.5480,W,2,09,1.03,5.9,M,-34.3,M,0000,0000*59 
196.672         GPS_NMEA_FROM_GPS    iGPS            $GPGGA,193520.000,4144.3374,N,06959.5477,W,2,09,1.03,5.9,M,-34.3,M,0000,0000*5B 
197.675         GPS_NMEA_FROM_GPS    iGPS            $GPGGA,193521.000,4144.3374,N,06959.5474,W,2,10,0.94,5.9,M,-34.3,M,0000,0000*5E 
198.678         GPS_NMEA_FROM_GPS    iGPS            $GPGGA,193522.000,4144.3375,N,06959.5472,W,2,10,0.94,5.9,M,-34.3,M,0000,0000*5A 
199.681         GPS_NMEA_FROM_GPS    iGPS            $GPRMC,193523.000,A,4144.3375,N,06959.5469,W,0.77,88.81,300321,,,D*46 
200.684         GPS_NMEA_FROM_GPS    iGPS            $GPGGA,193524.000,4144.3375,N,06959.5466,W,2,11,0.89,6.0,M,-34.3,M,0000,0000*5E 
201.686         GPS_NMEA_FROM_GPS    iGPS            $GPRMC,193525.000,A,4144.3374,N,06959.5463,W,0.73,91.82,300321,,,D*44 
202.588         GPS_NMEA_FROM_GPS    iGPS            $GPGGA,193526.000,4144.3374,N,06959.5460,W,2,10,0.94,6.0,M,-34.3,M,0000,0000*56 
203.691         GPS_NMEA_FROM_GPS    iGPS            $GPGGA,193527.000,4144.3374,N,06959.5458,W,2,11,0.89,6.0,M,-34.3,M,0000,0000*51 
204.693         GPS_NMEA_FROM_GPS    iGPS            $GPGGA,193528.000,4144.3373,N,06959.5455,W,2,11,0.89,6.0,M,-34.3,M,0000,0000*54 
205.696         GPS_NMEA_FROM_GPS    iGPS            $GPRMC,193529.000,A,4144.3373,N,06959.5452,W,0.73,95.25,300321,,,D*44 
206.699         GPS_NMEA_FROM_GPS    iGPS            $GPRMC,193530.000,A,4144.3372,N,06959.5450,W,0.70,95.38,300321,,,D*40 
207.601         GPS_NMEA_FROM_GPS    iGPS            $GPGGA,193531.000,4144.3372,N,06959.5447,W,2,09,1.03,6.0,M,-34.3,M,0000,0000*54 
208.603         GPS_NMEA_FROM_GPS    iGPS            $GPGGA,193532.000,4144.3372,N,06959.5445,W,2,09,1.03,6.0,M,-34.3,M,0000,0000*55 
209.707         GPS_NMEA_FROM_GPS    iGPS            $GPRMC,193533.000,A,4144.3372,N,06959.5442,W,0.72,93.22,300321,,,D*4F 
210.709         GPS_NMEA_FROM_GPS    iGPS            $GPRMC,193534.000,A,4144.3372,N,06959.5439,W,0.76,91.61,300321,,,D*45 
211.711         GPS_NMEA_FROM_GPS    iGPS            $GPGGA,193535.000,4144.3372,N,06959.5436,W,2,10,0.99,6.0,M,-34.3,M,0000,0000*5C 
212.714         GPS_NMEA_FROM_GPS    iGPS            $GPGGA,193536.000,4144.3372,N,06959.5433,W,2,10,0.99,6.0,M,-34.3,M,0000,0000*5A 
213.717         GPS_NMEA_FROM_GPS    iGPS            $GPRMC,193537.000,A,4144.3373,N,06959.5430,W,0.77,87.10,300321,,,D*4E 
214.619         GPS_NMEA_FROM_GPS    iGPS            $GPGGA,193538.000,4144.3373,N,06959.5427,W,2,09,1.03,6.0,M,-34.3,M,0000,0000*5A 
215.622         GPS_NMEA_FROM_GPS    iGPS            $GPGGA,193539.000,4144.3374,N,06959.5424,W,2,09,1.03,6.0,M,-34.3,M,0000,0000*5F 
216.624         GPS_NMEA_FROM_GPS    iGPS            $GPGGA,193540.000,4144.3374,N,06959.5422,W,2,09,1.03,6.1,M,-34.3,M,0000,0000*56 
217.627         GPS_NMEA_FROM_GPS    iGPS            $GPGGA,193541.000,4144.3375,N,06959.5419,W,2,09,1.03,6.1,M,-34.3,M,0000,0000*5E 
218.730         GPS_NMEA_FROM_GPS    iGPS            $GPGGA,193542.000,4144.3375,N,06959.5416,W,2,11,0.89,6.1,M,-34.3,M,0000,0000*58 
219.632         GPS_NMEA_FROM_GPS    iGPS            $GPGGA,193543.000,4144.3375,N,06959.5413,W,2,11,0.89,6.0,M,-34.3,M,0000,0000*5D 
220.635         GPS_NMEA_FROM_GPS    iGPS            $GPGGA,193544.000,4144.3375,N,06959.5410,W,2,11,0.89,6.0,M,-34.3,M,0000,0000*59 
221.638         GPS_NMEA_FROM_GPS    iGPS            $GPGGA,193545.000,4144.3375,N,06959.5407,W,2,11,0.89,6.0,M,-34.3,M,0000,0000*5E 
222.640         GPS_NMEA_FROM_GPS    iGPS            $GPGGA,193546.000,4144.3375,N,06959.5404,W,2,11,0.89,5.9,M,-34.3,M,0000,0000*54 
223.743         GPS_NMEA_FROM_GPS    iGPS            $GPRMC,193547.000,A,4144.3374,N,06959.5401,W,0.76,93.36,300321,,,D*4C 
224.645         GPS_NMEA_FROM_GPS    iGPS            $GPGGA,193548.000,4144.3374,N,06959.5399,W,2,11,0.89,5.9,M,-34.3,M,0000,0000*58 
225.748         GPS_NMEA_FROM_GPS    iGPS            $GPGGA,193549.000,4144.3373,N,06959.5396,W,2,11,0.89,5.9,M,-34.3,M,0000,0000*51 
226.651         GPS_NMEA_FROM_GPS    iGPS            $GPGGA,193550.000,4144.3373,N,06959.5394,W,2,10,0.94,5.9,M,-34.3,M,0000,0000*56 
227.653         GPS_NMEA_FROM_GPS    iGPS            $GPGGA,193551.000,4144.3372,N,06959.5391,W,2,09,1.03,5.8,M,-34.3,M,0000,0000*55 
228.656         GPS_NMEA_FROM_GPS    iGPS            $GPGGA,193552.000,4144.3372,N,06959.5388,W,2,10,0.99,5.8,M,-34.3,M,0000,0000*54 
229.660         GPS_NMEA_FROM_GPS    iGPS            $GPRMC,193553.000,A,4144.3372,N,06959.5386,W,0.68,94.36,300321,,,D*4F 
230.665         GPS_NMEA_FROM_GPS    iGPS            $GPGGA,193554.000,4144.3372,N,06959.5383,W,2,11,0.89,5.9,M,-34.3,M,0000,0000*58 
231.669         GPS_NMEA_FROM_GPS    iGPS            $GPRMC,193555.000,A,4144.3372,N,06959.5380,W,0.75,89.29,300321,,,D*41 
232.672         GPS_NMEA_FROM_GPS    iGPS            $GPGGA,193556.000,4144.3373,N,06959.5376,W,2,11,0.89,6.1,M,-34.3,M,0000,0000*5A 
233.674         GPS_NMEA_FROM_GPS    iGPS            $GPGGA,193557.000,4144.3373,N,06959.5373,W,2,11,0.89,6.1,M,-34.3,M,0000,0000*5E 
234.676         GPS_NMEA_FROM_GPS    iGPS            $GPGGA,193558.000,4144.3373,N,06959.5370,W,2,11,0.89,6.2,M,-34.3,M,0000,0000*51 
235.679         GPS_NMEA_FROM_GPS    iGPS            $GPGGA,193559.000,4144.3374,N,06959.5367,W,2,11,0.89,6.2,M,-34.3,M,0000,0000*51 
236.681         GPS_NMEA_FROM_GPS    iGPS            $GPGGA,193600.000,4144.3374,N,06959.5364,W,2,11,0.89,6.3,M,-34.3,M,0000,0000*5C 
237.684         GPS_NMEA_FROM_GPS    iGPS            $GPGGA,193601.000,4144.3375,N,06959.5361,W,2,11,0.89,6.3,M,-34.3,M,0000,0000*59 
238.286         GPS_NMEA_FROM_GPS    iGPS            $GPGGA,193602.000,4144.3375,N,06959.5358,W,2,11,0.89,6.3,M,-34.3,M,0000,0000*50 
239.288         GPS_NMEA_FROM_GPS    iGPS            $GPGGA,193603.000,4144.3376,N,06959.5355,W,2,11,0.89,6.4,M,-34.3,M,0000,0000*58 
240.291         GPS_NMEA_FROM_GPS    iGPS            $GPGGA,193604.000,4144.3377,N,06959.5352,W,2,11,0.89,6.4,M,-34.3,M,0000,0000*59 
241.293         GPS_NMEA_FROM_GPS    iGPS            $GPGGA,193605.000,4144.3377,N,06959.5350,W,2,11,0.89,6.4,M,-34.3,M,0000,0000*5A 
242.296         GPS_NMEA_FROM_GPS    iGPS            $GPRMC,193606.000,A,4144.3378,N,06959.5347,W,0.75,74.97,300321,,,D*42 
243.299         GPS_NMEA_FROM_GPS    iGPS            $GPGGA,193607.000,4144.3379,N,06959.5344,W,2,11,0.89,6.4,M,-34.3,M,0000,0000*53 
244.301         GPS_NMEA_FROM_GPS    iGPS            $GPGGA,193608.000,4144.3379,N,06959.5342,W,2,11,0.89,6.4,M,-34.3,M,0000,0000*5A 
245.304         GPS_NMEA_FROM_GPS    iGPS            $GPRMC,193609.000,A,4144.3380,N,06959.5339,W,0.75,74.10,300321,,,D*4C 
246.306         GPS_NMEA_FROM_GPS    iGPS            $GPGGA,193610.000,4144.3380,N,06959.5336,W,2,11,0.89,6.4,M,-34.3,M,0000,0000*56 
247.309         GPS_NMEA_FROM_GPS    iGPS            $GPRMC,193611.000,A,4144.3381,N,06959.5333,W,0.77,73.59,300321,,,D*46 
248.311         GPS_NMEA_FROM_GPS    iGPS            $GPGGA,193612.000,4144.3382,N,06959.5330,W,2,11,0.89,6.5,M,-34.3,M,0000,0000*51 
249.314         GPS_NMEA_FROM_GPS    iGPS            $GPRMC,193613.000,A,4144.3382,N,06959.5327,W,0.78,74.07,300321,,,D*41 
250.317         GPS_NMEA_FROM_GPS    iGPS            $GPRMC,193614.000,A,4144.3383,N,06959.5324,W,0.76,74.07,300321,,,D*4A 
251.319         GPS_NMEA_FROM_GPS    iGPS            $GPRMC,193615.000,A,4144.3383,N,06959.5321,W,0.74,73.79,300321,,,D*42 
252.322         GPS_NMEA_FROM_GPS    iGPS            $GPRMC,193616.000,A,4144.3383,N,06959.5319,W,0.76,73.84,300321,,,D*4A 
253.324         GPS_NMEA_FROM_GPS    iGPS            $GPRMC,193617.000,A,4144.3384,N,06959.5316,W,0.77,73.69,300321,,,D*41 
254.327         GPS_NMEA_FROM_GPS    iGPS            $GPRMC,193618.000,A,4144.3385,N,06959.5313,W,0.77,73.54,300321,,,D*44 
255.329         GPS_NMEA_FROM_GPS    iGPS            $GPRMC,193619.000,A,4144.3385,N,06959.5310,W,0.78,73.00,300321,,,D*48 
256.332         GPS_NMEA_FROM_GPS    iGPS            $GPRMC,193620.000,A,4144.3386,N,06959.5307,W,0.77,72.52,300321,,,D*4E 
257.334         GPS_NMEA_FROM_GPS    iGPS            $GPRMC,193621.000,A,4144.3387,N,06959.5304,W,0.77,72.39,300321,,,D*40 
258.337         GPS_NMEA_FROM_GPS    iGPS            $GPRMC,193622.000,A,4144.3388,N,06959.5301,W,0.78,72.27,300321,,,D*49 
259.339         GPS_NMEA_FROM_GPS    iGPS            $GPRMC,193623.000,A,4144.3388,N,06959.5298,W,0.79,72.01,300321,,,D*4C 
260.341         GPS_NMEA_FROM_GPS    iGPS            $GPRMC,193624.000,A,4144.3389,N,06959.5295,W,0.80,71.62,300321,,,D*47 
261.344         GPS_NMEA_FROM_GPS    iGPS            $GPRMC,193625.000,A,4144.3390,N,06959.5291,W,0.80,71.31,300321,,,D*4C 
262.246         GPS_NMEA_FROM_GPS    iGPS            $GPGGA,193626.000,4144.3391,N,06959.5288,W,2,11,0.89,6.8,M,-34.3,M,0000,0000*5B 
263.249         GPS_NMEA_FROM_GPS    iGPS            $GPGGA,193627.000,4144.3392,N,06959.5285,W,2,11,0.89,6.8,M,-34.3,M,0000,0000*54 
264.251         GPS_NMEA_FROM_GPS    iGPS            $GPGGA,193628.000,4144.3393,N,06959.5282,W,2,11,0.89,6.8,M,-34.3,M,0000,0000*5D 
265.254         GPS_NMEA_FROM_GPS    iGPS            $GPGGA,193629.000,4144.3394,N,06959.5279,W,2,11,0.89,6.8,M,-34.3,M,0000,0000*5F 
266.757         GPS_NMEA_FROM_GPS    iGPS            $GPGGA,193630.000,4144.3395,N,06959.5276,W,2,11,0.89,6.8,M,-34.3,M,0000,0000*59 
267.760         GPS_NMEA_FROM_GPS    iGPS            $GPGGA,193631.000,4144.3396,N,06959.5272,W,2,11,0.89,6.8,M,-34.3,M,0000,0000*5F 
268.762         GPS_NMEA_FROM_GPS    iGPS            $GPGGA,193632.000,4144.3396,N,06959.5269,W,2,11,0.89,6.8,M,-34.3,M,0000,0000*56 
269.765         GPS_NMEA_FROM_GPS    iGPS            $GPGGA,193633.000,4144.3397,N,06959.5266,W,2,11,0.89,6.8,M,-34.3,M,0000,0000*59 
270.768         GPS_NMEA_FROM_GPS    iGPS            $GPGGA,193634.000,4144.3398,N,06959.5263,W,2,11,0.89,6.9,M,-34.3,M,0000,0000*55 
271.770         GPS_NMEA_FROM_GPS    iGPS            $GPRMC,193635.000,A,4144.3398,N,06959.5261,W,0.75,70.50,300321,,,D*46 
272.773         GPS_NMEA_FROM_GPS    iGPS            $GPGGA,193636.000,4144.3399,N,06959.5258,W,2,11,0.89,6.9,M,-34.3,M,0000,0000*5E 
273.775         GPS_NMEA_FROM_GPS    iGPS            $GPGGA,193637.000,4144.3399,N,06959.5255,W,2,11,0.89,6.9,M,-34.3,M,0000,0000*52 
274.778         GPS_NMEA_FROM_GPS    iGPS            $GPGGA,193638.000,4144.3400,N,06959.5252,W,2,11,0.89,6.9,M,-34.3,M,0000,0000*5D 
275.781         GPS_NMEA_FROM_GPS    iGPS            $GPGGA,193639.000,4144.3401,N,06959.5249,W,2,11,0.89,6.9,M,-34.3,M,0000,0000*57 
276.784         GPS_NMEA_FROM_GPS    iGPS            $GPGGA,193640.000,4144.3401,N,06959.5246,W,2,11,0.89,7.0,M,-34.3,M,0000,0000*5E 
277.686         GPS_NMEA_FROM_GPS    iGPS            $GPGGA,193641.000,4144.3402,N,06959.5243,W,2,11,0.89,7.0,M,-34.3,M,0000,0000*59 
278.789         GPS_NMEA_FROM_GPS    iGPS            $GPRMC,193642.000,A,4144.3403,N,06959.5240,W,0.75,72.27,300321,,,D*42 
279.791         GPS_NMEA_FROM_GPS    iGPS            $GPGGA,193643.000,4144.3404,N,06959.5238,W,2,11,0.89,6.9,M,-34.3,M,0000,0000*59 
280.794         GPS_NMEA_FROM_GPS    iGPS            $GPGGA,193644.000,4144.3405,N,06959.5235,W,2,11,0.89,6.9,M,-34.3,M,0000,0000*52 
281.797         GPS_NMEA_FROM_GPS    iGPS            $GPRMC,193645.000,A,4144.3406,N,06959.5232,W,0.78,67.91,300321,,,D*41 
282.799         GPS_NMEA_FROM_GPS    iGPS            $GPGGA,193646.000,4144.3407,N,06959.5230,W,2,11,0.89,6.8,M,-34.3,M,0000,0000*56 
283.801         GPS_NMEA_FROM_GPS    iGPS            $GPRMC,193647.000,A,4144.3408,N,06959.5227,W,0.74,66.11,300321,,,D*4C 
284.704         GPS_NMEA_FROM_GPS    iGPS            $GPGGA,193648.000,4144.3409,N,06959.5224,W,2,11,0.89,6.8,M,-34.3,M,0000,0000*53 
285.807         GPS_NMEA_FROM_GPS    iGPS            $GPRMC,193649.000,A,4144.3410,N,06959.5222,W,0.76,64.89,300321,,,D*4F 
286.709         GPS_NMEA_FROM_GPS    iGPS            $GPGGA,193650.000,4144.3411,N,06959.5219,W,2,11,0.89,6.7,M,-34.3,M,0000,0000*52 
287.712         GPS_NMEA_FROM_GPS    iGPS            $GPGGA,193651.000,4144.3412,N,06959.5217,W,2,11,0.89,6.7,M,-34.3,M,0000,0000*5E 
288.814         GPS_NMEA_FROM_GPS    iGPS            $GPGGA,193652.000,4144.3413,N,06959.5214,W,2,11,0.89,6.6,M,-34.3,M,0000,0000*5E 
289.817         GPS_NMEA_FROM_GPS    iGPS            $GPGGA,193653.000,4144.3415,N,06959.5211,W,2,11,0.89,6.6,M,-34.3,M,0000,0000*5C 
290.719         GPS_NMEA_FROM_GPS    iGPS            $GPGGA,193654.000,4144.3416,N,06959.5208,W,2,11,0.89,6.6,M,-34.3,M,0000,0000*50 
291.721         GPS_NMEA_FROM_GPS    iGPS            $GPGGA,193655.000,4144.3416,N,06959.5205,W,2,11,0.89,6.5,M,-34.3,M,0000,0000*5F 
292.724         GPS_NMEA_FROM_GPS    iGPS            $GPRMC,193656.000,A,4144.3417,N,06959.5202,W,0.82,69.05,300321,,,D*46 
293.827         GPS_NMEA_FROM_GPS    iGPS            $GPRMC,193657.000,A,4144.3418,N,06959.5200,W,0.80,68.65,300321,,,D*4F 
294.729         GPS_NMEA_FROM_GPS    iGPS            $GPGGA,193658.000,4144.3419,N,06959.5197,W,2,11,0.89,6.4,M,-34.3,M,0000,0000*54 
295.832         GPS_NMEA_FROM_GPS    iGPS            $GPRMC,193659.000,A,4144.3420,N,06959.5195,W,0.77,69.45,300321,,,D*4E 
296.734         GPS_NMEA_FROM_GPS    iGPS            $GPGGA,193700.000,4144.3421,N,06959.5192,W,2,11,0.89,6.3,M,-34.3,M,0000,0000*51 
297.837         GPS_NMEA_FROM_GPS    iGPS            $GPRMC,193701.000,A,4144.3421,N,06959.5190,W,0.79,70.17,300321,,,D*47 
298.840         GPS_NMEA_FROM_GPS    iGPS            $GPRMC,193702.000,A,4144.3422,N,06959.5187,W,0.80,70.35,300321,,,D*47 
299.742         GPS_NMEA_FROM_GPS    iGPS            $GPGGA,193703.000,4144.3423,N,06959.5184,W,2,11,0.89,6.2,M,-34.3,M,0000,0000*56 
300.744         GPS_NMEA_FROM_GPS    iGPS            $GPRMC,193704.000,A,4144.3423,N,06959.5181,W,0.78,71.73,300321,,,D*42 
301.746         GPS_NMEA_FROM_GPS    iGPS            $GPGGA,193705.000,4144.3424,N,06959.5179,W,2,11,0.89,6.3,M,-34.3,M,0000,0000*54 
302.749         GPS_NMEA_FROM_GPS    iGPS            $GPGGA,193706.000,4144.3425,N,06959.5177,W,2,11,0.89,6.2,M,-34.3,M,0000,0000*59 
303.751         GPS_NMEA_FROM_GPS    iGPS            $GPGGA,193707.000,4144.3426,N,06959.5175,W,2,11,0.89,6.2,M,-34.3,M,0000,0000*59 
304.654         GPS_NMEA_FROM_GPS    iGPS            $GPGGA,193708.000,4144.3427,N,06959.5172,W,2,11,0.89,6.2,M,-34.3,M,0000,0000*50 
305.656         GPS_NMEA_FROM_GPS    iGPS            $GPGGA,193709.000,4144.3428,N,06959.5170,W,2,11,0.89,6.2,M,-34.3,M,0000,0000*5C 
306.659         GPS_NMEA_FROM_GPS    iGPS            $GPGGA,193710.000,4144.3430,N,06959.5168,W,2,11,0.89,6.1,M,-34.3,M,0000,0000*57 
307.662         GPS_NMEA_FROM_GPS    iGPS            $GPGGA,193711.000,4144.3431,N,06959.5165,W,2,11,0.89,6.0,M,-34.3,M,0000,0000*5B 
308.664         GPS_NMEA_FROM_GPS    iGPS            $GPGGA,193712.000,4144.3433,N,06959.5163,W,2,11,0.89,6.0,M,-34.3,M,0000,0000*5C 
309.667         GPS_NMEA_FROM_GPS    iGPS            $GPGGA,193713.000,4144.3435,N,06959.5161,W,2,11,0.89,5.9,M,-34.3,M,0000,0000*53 
310.669         GPS_NMEA_FROM_GPS    iGPS            $GPGGA,193714.000,4144.3436,N,06959.5159,W,2,11,0.89,5.9,M,-34.3,M,0000,0000*5C 
311.672         GPS_NMEA_FROM_GPS    iGPS            $GPGGA,193715.000,4144.3438,N,06959.5157,W,2,11,0.89,5.9,M,-34.3,M,0000,0000*5D 
312.674         GPS_NMEA_FROM_GPS    iGPS            $GPGGA,193716.000,4144.3439,N,06959.5155,W,2,11,0.89,5.9,M,-34.3,M,0000,0000*5D 
313.677         GPS_NMEA_FROM_GPS    iGPS            $GPGGA,193717.000,4144.3441,N,06959.5154,W,2,11,0.89,5.9,M,-34.3,M,0000,0000*52 
314.681         GPS_NMEA_FROM_GPS    iGPS            $GPRMC,193718.000,A,4144.3443,N,06959.5152,W,0.75,41.25,300321,,,D*4A 
315.684         GPS_NMEA_FROM_GPS    iGPS            $GPGGA,193719.000,4144.3444,N,06959.5150,W,2,11,0.89,5.8,M,-34.3,M,0000,0000*5C 
316.787         GPS_NMEA_FROM_GPS    iGPS            $GPGGA,193720.000,4144.3446,N,06959.5148,W,2,11,0.89,5.8,M,-34.3,M,0000,0000*5D 
317.789         GPS_NMEA_FROM_GPS    iGPS            $GPGGA,193721.000,4144.3447,N,06959.5146,W,2,11,0.89,5.8,M,-34.3,M,0000,0000*53 
318.692         GPS_NMEA_FROM_GPS    iGPS            $GPGGA,193722.000,4144.3449,N,06959.5145,W,2,11,0.89,5.8,M,-34.3,M,0000,0000*5D 
319.694         GPS_NMEA_FROM_GPS    iGPS            $GPGGA,193723.000,4144.3450,N,06959.5143,W,2,11,0.89,5.8,M,-34.3,M,0000,0000*52 
320.797         GPS_NMEA_FROM_GPS    iGPS            $GPGGA,193724.000,4144.3452,N,06959.5141,W,2,11,0.89,5.8,M,-34.3,M,0000,0000*55 
321.800         GPS_NMEA_FROM_GPS    iGPS            $GPGGA,193725.000,4144.3453,N,06959.5140,W,2,11,0.89,5.8,M,-34.3,M,0000,0000*54 
322.702         GPS_NMEA_FROM_GPS    iGPS            $GPGGA,193726.000,4144.3455,N,06959.5138,W,2,11,0.89,5.8,M,-34.3,M,0000,0000*5E 
323.805         GPS_NMEA_FROM_GPS    iGPS            $GPRMC,193727.000,A,4144.3456,N,06959.5136,W,0.76,39.39,300321,,,D*41 
324.808         GPS_NMEA_FROM_GPS    iGPS            $GPRMC,193728.000,A,4144.3458,N,06959.5135,W,0.75,39.02,300321,,,D*48 
325.811         GPS_NMEA_FROM_GPS    iGPS            $GPRMC,193729.000,A,4144.3460,N,06959.5133,W,0.77,38.62,300321,,,D*41 
326.713         GPS_NMEA_FROM_GPS    iGPS            $GPGGA,193730.000,4144.3461,N,06959.5131,W,2,11,0.89,5.7,M,-34.3,M,0000,0000*58 
327.716         GPS_NMEA_FROM_GPS    iGPS            $GPGGA,193731.000,4144.3463,N,06959.5130,W,2,11,0.89,5.7,M,-34.3,M,0000,0000*5A 
328.718         GPS_NMEA_FROM_GPS    iGPS            $GPGGA,193732.000,4144.3464,N,06959.5128,W,2,11,0.89,5.7,M,-34.3,M,0000,0000*57 
329.721         GPS_NMEA_FROM_GPS    iGPS            $GPGGA,193733.000,4144.3466,N,06959.5127,W,2,11,0.89,5.7,M,-34.3,M,0000,0000*5B 
330.724         GPS_NMEA_FROM_GPS    iGPS            $GPGGA,193734.000,4144.3468,N,06959.5125,W,2,11,0.89,5.7,M,-34.3,M,0000,0000*50 
331.726         GPS_NMEA_FROM_GPS    iGPS            $GPGGA,193735.000,4144.3469,N,06959.5123,W,2,11,0.89,5.7,M,-34.3,M,0000,0000*56 
332.729         GPS_NMEA_FROM_GPS    iGPS            $GPGGA,193736.000,4144.3471,N,06959.5122,W,2,11,0.89,5.7,M,-34.3,M,0000,0000*5D 
333.731         GPS_NMEA_FROM_GPS    iGPS            $GPGGA,193737.000,4144.3472,N,06959.5120,W,2,11,0.89,5.7,M,-34.3,M,0000,0000*5D 
334.734         GPS_NMEA_FROM_GPS    iGPS            $GPGGA,193738.000,4144.3474,N,06959.5118,W,2,11,0.89,5.8,M,-34.3,M,0000,0000*50 
335.737         GPS_NMEA_FROM_GPS    iGPS            $GPRMC,193739.000,A,4144.3476,N,06959.5117,W,0.78,35.35,300321,,,D*41 
336.740         GPS_NMEA_FROM_GPS    iGPS            $GPGGA,193740.000,4144.3478,N,06959.5115,W,2,11,0.89,5.8,M,-34.3,M,0000,0000*5E 
337.742         GPS_NMEA_FROM_GPS    iGPS            $GPRMC,193741.000,A,4144.3479,N,06959.5113,W,0.78,36.00,300321,,,D*40 
338.744         GPS_NMEA_FROM_GPS    iGPS            $GPGGA,193742.000,4144.3481,N,06959.5111,W,2,11,0.89,5.8,M,-34.3,M,0000,0000*5E 
339.747         GPS_NMEA_FROM_GPS    iGPS            $GPGGA,193743.000,4144.3483,N,06959.5110,W,2,11,0.89,5.8,M,-34.3,M,0000,0000*5C 
340.750         GPS_NMEA_FROM_GPS    iGPS            $GPGGA,193744.000,4144.3484,N,06959.5108,W,2,11,0.89,5.7,M,-34.3,M,0000,0000*5A 
341.752         GPS_NMEA_FROM_GPS    iGPS            $GPGGA,193745.000,4144.3486,N,06959.5106,W,2,11,0.89,5.7,M,-34.3,M,0000,0000*57 
342.755         GPS_NMEA_FROM_GPS    iGPS            $GPGGA,193746.000,4144.3488,N,06959.5105,W,2,11,0.89,5.6,M,-34.3,M,0000,0000*58 
343.758         GPS_NMEA_FROM_GPS    iGPS            $GPGGA,193747.000,4144.3490,N,06959.5103,W,2,11,0.89,5.6,M,-34.3,M,0000,0000*56 
344.760         GPS_NMEA_FROM_GPS    iGPS            $GPGGA,193748.000,4144.3491,N,06959.5102,W,2,11,0.89,5.6,M,-34.3,M,0000,0000*59 
345.763         GPS_NMEA_FROM_GPS    iGPS            $GPGGA,193749.000,4144.3493,N,06959.5100,W,2,11,0.89,5.6,M,-34.3,M,0000,0000*58 
346.766         GPS_NMEA_FROM_GPS    iGPS            $GPGGA,193750.000,4144.3495,N,06959.5099,W,2,11,0.89,5.6,M,-34.3,M,0000,0000*57 
347.668         GPS_NMEA_FROM_GPS    iGPS            $GPGGA,193751.000,4144.3497,N,06959.5098,W,2,11,0.89,5.6,M,-34.3,M,0000,0000*55 
348.671         GPS_NMEA_FROM_GPS    iGPS            $GPGGA,193752.000,4144.3499,N,06959.5096,W,2,11,0.89,5.5,M,-34.3,M,0000,0000*55 
349.774         GPS_NMEA_FROM_GPS    iGPS            $GPRMC,193753.000,A,4144.3502,N,06959.5095,W,0.79,28.47,300321,,,D*4C 
350.776         GPS_NMEA_FROM_GPS    iGPS            $GPGGA,193754.000,4144.3504,N,06959.5094,W,2,11,0.89,5.6,M,-34.3,M,0000,0000*57 
351.678         GPS_NMEA_FROM_GPS    iGPS            $GPGGA,193755.000,4144.3506,N,06959.5093,W,2,11,0.89,5.6,M,-34.3,M,0000,0000*53 
352.681         GPS_NMEA_FROM_GPS    iGPS            $GPGGA,193756.000,4144.3508,N,06959.5092,W,2,11,0.89,5.6,M,-34.3,M,0000,0000*5F 
353.784         GPS_NMEA_FROM_GPS    iGPS            $GPGGA,193757.000,4144.3510,N,06959.5091,W,2,11,0.89,5.7,M,-34.3,M,0000,0000*55 
354.786         GPS_NMEA_FROM_GPS    iGPS            $GPGGA,193758.000,4144.3512,N,06959.5089,W,2,11,0.89,5.7,M,-34.3,M,0000,0000*51 
355.688         GPS_NMEA_FROM_GPS    iGPS            $GPGGA,193759.000,4144.3514,N,06959.5088,W,2,11,0.89,5.7,M,-34.3,M,0000,0000*57 
356.691         GPS_NMEA_FROM_GPS    iGPS            $GPRMC,193800.000,A,4144.3516,N,06959.5086,W,0.78,32.50,300321,,,D*4E 
357.693         GPS_NMEA_FROM_GPS    iGPS            $GPGGA,193801.000,4144.3518,N,06959.5085,W,2,11,0.89,5.6,M,-34.3,M,0000,0000*55 
358.796         GPS_NMEA_FROM_GPS    iGPS            $GPGGA,193802.000,4144.3520,N,06959.5083,W,2,11,0.89,5.6,M,-34.3,M,0000,0000*5B 
359.799         GPS_NMEA_FROM_GPS    iGPS            $GPRMC,193803.000,A,4144.3521,N,06959.5081,W,0.79,35.67,300321,,,D*4C 
360.801         GPS_NMEA_FROM_GPS    iGPS            $GPRMC,193804.000,A,4144.3524,N,06959.5080,W,0.77,36.14,300321,,,D*46 
361.804         GPS_NMEA_FROM_GPS    iGPS            $GPRMC,193805.000,A,4144.3526,N,06959.5078,W,0.74,36.53,300321,,,D*42 
362.706         GPS_NMEA_FROM_GPS    iGPS            $GPGGA,193806.000,4144.3527,N,06959.5076,W,2,11,0.89,5.6,M,-34.3,M,0000,0000*52 
363.809         GPS_NMEA_FROM_GPS    iGPS            $GPRMC,193807.000,A,4144.3529,N,06959.5075,W,0.76,36.54,300321,,,D*47 
364.611         GPS_NMEA_FROM_GPS    iGPS            $GPGGA,193808.000,4144.3531,N,06959.5073,W,2,11,0.89,5.7,M,-34.3,M,0000,0000*5F 
365.814         GPS_NMEA_FROM_GPS    iGPS            $GPRMC,193809.000,A,4144.3533,N,06959.5071,W,0.75,35.88,300321,,,D*47 
366.816         GPS_NMEA_FROM_GPS    iGPS            $GPRMC,193810.000,A,4144.3535,N,06959.5070,W,0.75,34.89,300321,,,D*48 
367.819         GPS_NMEA_FROM_GPS    iGPS            $GPRMC,193811.000,A,4144.3537,N,06959.5068,W,0.76,34.16,300321,,,D*47 
368.821         GPS_NMEA_FROM_GPS    iGPS            $GPRMC,193812.000,A,4144.3539,N,06959.5067,W,0.78,33.14,300321,,,D*4E 
369.723         GPS_NMEA_FROM_GPS    iGPS            $GPGGA,193813.000,4144.3541,N,06959.5065,W,2,11,0.89,5.7,M,-34.3,M,0000,0000*55 
370.725         GPS_NMEA_FROM_GPS    iGPS            $GPGGA,193814.000,4144.3543,N,06959.5064,W,2,11,0.89,5.8,M,-34.3,M,0000,0000*5E 
371.728         GPS_NMEA_FROM_GPS    iGPS            $GPGGA,193815.000,4144.3544,N,06959.5063,W,2,11,0.89,5.8,M,-34.3,M,0000,0000*5F 
372.731         GPS_NMEA_FROM_GPS    iGPS            $GPGGA,193816.000,4144.3546,N,06959.5062,W,2,11,0.89,5.8,M,-34.3,M,0000,0000*5F 
373.733         GPS_NMEA_FROM_GPS    iGPS            $GPGGA,193817.000,4144.3548,N,06959.5061,W,2,11,0.89,5.8,M,-34.3,M,0000,0000*53 
374.736         GPS_NMEA_FROM_GPS    iGPS            $GPGGA,193818.000,4144.3550,N,06959.5059,W,2,11,0.89,5.8,M,-34.3,M,0000,0000*5E 
375.738         GPS_NMEA_FROM_GPS    iGPS            $GPGGA,193819.000,4144.3552,N,06959.5058,W,2,11,0.89,5.8,M,-34.3,M,0000,0000*5C 
376.741         GPS_NMEA_FROM_GPS    iGPS            $GPGGA,193820.000,4144.3554,N,06959.5057,W,2,11,0.89,5.8,M,-34.3,M,0000,0000*5F 
377.744         GPS_NMEA_FROM_GPS    iGPS            $GPRMC,193821.000,A,4144.3556,N,06959.5057,W,0.62,25.15,300321,,,D*49 
378.646         GPS_NMEA_FROM_GPS    iGPS            $GPGGA,193822.000,4144.3557,N,06959.5056,W,2,10,0.99,5.8,M,-34.3,M,0000,0000*5F 
379.648         GPS_NMEA_FROM_GPS    iGPS            $GPGGA,193823.000,4144.3559,N,06959.5055,W,2,11,0.89,5.9,M,-34.3,M,0000,0000*52 
380.751         GPS_NMEA_FROM_GPS    iGPS            $GPRMC,193824.000,A,4144.3562,N,06959.5055,W,0.64,15.99,300321,,,D*48 
381.653         GPS_NMEA_FROM_GPS    iGPS            $GPGGA,193825.000,4144.3564,N,06959.5055,W,2,11,0.90,6.0,M,-34.3,M,0000,0000*58 
382.655         GPS_NMEA_FROM_GPS    iGPS            $GPGGA,193826.000,4144.3566,N,06959.5055,W,2,11,0.90,6.0,M,-34.3,M,0000,0000*59 
383.658         GPS_NMEA_FROM_GPS    iGPS            $GPGGA,193827.000,4144.3568,N,06959.5056,W,2,11,0.90,6.0,M,-34.3,M,0000,0000*55 
384.761         GPS_NMEA_FROM_GPS    iGPS            $GPRMC,193828.000,A,4144.3570,N,06959.5057,W,0.71,356.86,300321,,,D*7B 
385.763         GPS_NMEA_FROM_GPS    iGPS            $GPGGA,193829.000,4144.3572,N,06959.5058,W,2,11,0.89,6.1,M,-34.3,M,0000,0000*57 
386.766         GPS_NMEA_FROM_GPS    iGPS            $GPGGA,193830.000,4144.3574,N,06959.5060,W,2,11,0.89,6.1,M,-34.3,M,0000,0000*52 
387.668         GPS_NMEA_FROM_GPS    iGPS            $GPGGA,193831.000,4144.3577,N,06959.5061,W,2,11,0.89,6.2,M,-34.3,M,0000,0000*52 
388.570         GPS_NMEA_FROM_GPS    iGPS            $GPGGA,193832.000,4144.3579,N,06959.5062,W,2,11,0.89,6.3,M,-34.3,M,0000,0000*5D 
389.673         GPS_NMEA_FROM_GPS    iGPS            $GPGGA,193833.000,4144.3581,N,06959.5063,W,2,11,0.89,6.3,M,-34.3,M,0000,0000*5A 
390.576         GPS_NMEA_FROM_GPS    iGPS            $GPGGA,193834.000,4144.3583,N,06959.5065,W,2,11,0.89,6.4,M,-34.3,M,0000,0000*5E 
391.578         GPS_NMEA_FROM_GPS    iGPS            $GPGGA,193835.000,4144.3586,N,06959.5066,W,2,11,0.89,6.4,M,-34.3,M,0000,0000*59 
392.581         GPS_NMEA_FROM_GPS    iGPS            $GPGGA,193836.000,4144.3588,N,06959.5067,W,2,11,0.89,6.5,M,-34.3,M,0000,0000*54 
393.584         GPS_NMEA_FROM_GPS    iGPS            $GPGGA,193837.000,4144.3590,N,06959.5068,W,2,11,0.89,6.5,M,-34.3,M,0000,0000*53 
394.586         GPS_NMEA_FROM_GPS    iGPS            $GPGGA,193838.000,4144.3593,N,06959.5070,W,2,11,0.89,6.6,M,-34.3,M,0000,0000*55 
395.589         GPS_NMEA_FROM_GPS    iGPS            $GPGGA,193839.000,4144.3595,N,06959.5071,W,2,11,0.89,6.7,M,-34.3,M,0000,0000*52 
396.592         GPS_NMEA_FROM_GPS    iGPS            $GPGGA,193840.000,4144.3597,N,06959.5072,W,2,11,0.89,6.7,M,-34.3,M,0000,0000*5D 
397.695         GPS_NMEA_FROM_GPS    iGPS            $GPRMC,193841.000,A,4144.3600,N,06959.5074,W,0.77,336.95,300321,,,D*73 
398.597         GPS_NMEA_FROM_GPS    iGPS            $GPGGA,193842.000,4144.3602,N,06959.5075,W,2,11,0.89,6.8,M,-34.3,M,0000,0000*58 
399.599         GPS_NMEA_FROM_GPS    iGPS            $GPGGA,193843.000,4144.3604,N,06959.5076,W,2,11,0.89,6.8,M,-34.3,M,0000,0000*5C 
400.702         GPS_NMEA_FROM_GPS    iGPS            $GPRMC,193844.000,A,4144.3607,N,06959.5077,W,0.76,335.92,300321,,,D*77 
401.604         GPS_NMEA_FROM_GPS    iGPS            $GPGGA,193845.000,4144.3609,N,06959.5078,W,2,11,0.89,6.8,M,-34.3,M,0000,0000*59 
402.707         GPS_NMEA_FROM_GPS    iGPS            $GPRMC,193846.000,A,4144.3611,N,06959.5079,W,0.75,335.17,300321,,,D*72 
403.710         GPS_NMEA_FROM_GPS    iGPS            $GPRMC,193847.000,A,4144.3613,N,06959.5080,W,0.75,334.67,300321,,,D*71 
404.712         GPS_NMEA_FROM_GPS    iGPS            $GPRMC,193848.000,A,4144.3615,N,06959.5081,W,0.74,333.75,300321,,,D*7C 
405.614         GPS_NMEA_FROM_GPS    iGPS            $GPGGA,193849.000,4144.3617,N,06959.5082,W,2,11,0.89,6.8,M,-34.3,M,0000,0000*5F 
406.617         GPS_NMEA_FROM_GPS    iGPS            $GPGGA,193850.000,4144.3619,N,06959.5083,W,2,11,0.89,6.8,M,-34.3,M,0000,0000*58 
407.619         GPS_NMEA_FROM_GPS    iGPS            $GPGGA,193851.000,4144.3621,N,06959.5084,W,2,11,0.89,6.8,M,-34.3,M,0000,0000*55 
408.623         GPS_NMEA_FROM_GPS    iGPS            $GPGGA,193852.000,4144.3623,N,06959.5085,W,2,11,0.89,6.7,M,-34.3,M,0000,0000*5A 
409.626         GPS_NMEA_FROM_GPS    iGPS            $GPGGA,193853.000,4144.3625,N,06959.5087,W,2,11,0.89,6.7,M,-34.3,M,0000,0000*5F 
410.628         GPS_NMEA_FROM_GPS    iGPS            $GPGGA,193854.000,4144.3626,N,06959.5088,W,2,11,0.89,6.7,M,-34.3,M,0000,0000*54 
411.631         GPS_NMEA_FROM_GPS    iGPS            $GPRMC,193855.000,A,4144.3628,N,06959.5090,W,0.76,322.86,300321,,,D*70 
412.634         GPS_NMEA_FROM_GPS    iGPS            $GPRMC,193856.000,A,4144.3630,N,06959.5091,W,0.78,321.28,300321,,,D*72 
413.636         GPS_NMEA_FROM_GPS    iGPS            $GPGGA,193857.000,4144.3631,N,06959.5092,W,2,11,0.89,6.8,M,-34.3,M,0000,0000*55 
414.637         GPS_NMEA_FROM_GPS    iGPS            $GPRMC,193858.000,A,4144.3633,N,06959.5094,W,0.73,319.47,300321,,,D*73 
415.640         GPS_NMEA_FROM_GPS    iGPS            $GPRMC,193859.000,A,4144.3635,N,06959.5095,W,0.74,318.78,300321,,,D*7F 
416.642         GPS_NMEA_FROM_GPS    iGPS            $GPGGA,193900.000,4144.3636,N,06959.5097,W,2,11,0.89,6.8,M,-34.3,M,0000,0000*54 
417.645         GPS_NMEA_FROM_GPS    iGPS            $GPGGA,193901.000,4144.3638,N,06959.5098,W,2,11,0.89,6.8,M,-34.3,M,0000,0000*54 
418.647         GPS_NMEA_FROM_GPS    iGPS            $GPGGA,193902.000,4144.3639,N,06959.5099,W,2,11,0.89,6.9,M,-34.3,M,0000,0000*56 
419.549         GPS_NMEA_FROM_GPS    iGPS            $GPGGA,193903.000,4144.3641,N,06959.5101,W,2,11,0.89,6.9,M,-34.3,M,0000,0000*58 
420.652         GPS_NMEA_FROM_GPS    iGPS            $GPRMC,193904.000,A,4144.3642,N,06959.5103,W,0.71,312.44,300321,,,D*78 
421.654         GPS_NMEA_FROM_GPS    iGPS            $GPGGA,193905.000,4144.3643,N,06959.5105,W,2,11,0.89,6.8,M,-34.3,M,0000,0000*59 
422.657         GPS_NMEA_FROM_GPS    iGPS            $GPGGA,193906.000,4144.3645,N,06959.5108,W,2,11,0.89,6.7,M,-34.3,M,0000,0000*5E 
423.659         GPS_NMEA_FROM_GPS    iGPS            $GPGGA,193907.000,4144.3646,N,06959.5110,W,2,11,0.89,6.7,M,-34.3,M,0000,0000*55 
424.662         GPS_NMEA_FROM_GPS    iGPS            $GPGGA,193908.000,4144.3647,N,06959.5112,W,2,11,0.89,6.6,M,-34.3,M,0000,0000*58 
425.664         GPS_NMEA_FROM_GPS    iGPS            $GPGGA,193909.000,4144.3648,N,06959.5115,W,2,11,0.89,6.5,M,-34.3,M,0000,0000*52 
426.667         GPS_NMEA_FROM_GPS    iGPS            $GPGGA,193910.000,4144.3648,N,06959.5118,W,2,11,0.89,6.5,M,-34.3,M,0000,0000*57 
427.670         GPS_NMEA_FROM_GPS    iGPS            $GPGGA,193911.000,4144.3649,N,06959.5121,W,2,11,0.89,6.5,M,-34.3,M,0000,0000*5D 
428.572         GPS_NMEA_FROM_GPS    iGPS            $GPGGA,193912.000,4144.3650,N,06959.5124,W,2,11,0.89,6.5,M,-34.3,M,0000,0000*53 
429.676         GPS_NMEA_FROM_GPS    iGPS            $GPRMC,193913.000,A,4144.3651,N,06959.5127,W,0.76,291.99,300321,,,D*77 
430.678         GPS_NMEA_FROM_GPS    iGPS            $GPGGA,193914.000,4144.3651,N,06959.5130,W,2,11,0.89,6.5,M,-34.3,M,0000,0000*51 
431.681         GPS_NMEA_FROM_GPS    iGPS            $GPRMC,193915.000,A,4144.3652,N,06959.5133,W,0.75,290.64,300321,,,D*77 
432.583         GPS_NMEA_FROM_GPS    iGPS            $GPGGA,193916.000,4144.3653,N,06959.5136,W,2,11,0.89,6.5,M,-34.3,M,0000,0000*57 
433.586         GPS_NMEA_FROM_GPS    iGPS            $GPGGA,193917.000,4144.3654,N,06959.5139,W,2,11,0.89,6.5,M,-34.3,M,0000,0000*5E 
434.689         GPS_NMEA_FROM_GPS    iGPS            $GPRMC,193918.000,A,4144.3654,N,06959.5141,W,0.76,289.24,300321,,,D*76 
435.591         GPS_NMEA_FROM_GPS    iGPS            $GPGGA,193919.000,4144.3655,N,06959.5144,W,2,11,0.89,6.4,M,-34.3,M,0000,0000*5A 
436.594         GPS_NMEA_FROM_GPS    iGPS            $GPGGA,193920.000,4144.3656,N,06959.5147,W,2,11,0.89,6.4,M,-34.3,M,0000,0000*50 
437.597         GPS_NMEA_FROM_GPS    iGPS            $GPGGA,193921.000,4144.3657,N,06959.5150,W,2,11,0.89,6.4,M,-34.3,M,0000,0000*56 
438.699         GPS_NMEA_FROM_GPS    iGPS            $GPRMC,193922.000,A,4144.3658,N,06959.5153,W,0.73,290.39,300321,,,D*71 
439.702         GPS_NMEA_FROM_GPS    iGPS            $GPRMC,193923.000,A,4144.3658,N,06959.5155,W,0.77,290.41,300321,,,D*7D 
440.604         GPS_NMEA_FROM_GPS    iGPS            $GPGGA,193924.000,4144.3659,N,06959.5158,W,2,11,0.89,6.3,M,-34.3,M,0000,0000*52 
441.607         GPS_NMEA_FROM_GPS    iGPS            $GPGGA,193925.000,4144.3660,N,06959.5161,W,2,11,0.89,6.2,M,-34.3,M,0000,0000*52 
442.609         GPS_NMEA_FROM_GPS    iGPS            $GPGGA,193926.000,4144.3661,N,06959.5164,W,2,11,0.89,6.2,M,-34.3,M,0000,0000*55 
443.612         GPS_NMEA_FROM_GPS    iGPS            $GPGGA,193927.000,4144.3662,N,06959.5167,W,2,11,0.89,6.2,M,-34.3,M,0000,0000*54 
444.615         GPS_NMEA_FROM_GPS    iGPS            $GPGGA,193928.000,4144.3662,N,06959.5170,W,2,11,0.89,6.2,M,-34.3,M,0000,0000*5D 
445.617         GPS_NMEA_FROM_GPS    iGPS            $GPGGA,193929.000,4144.3663,N,06959.5173,W,2,10,0.96,6.2,M,-34.3,M,0000,0000*51 
446.620         GPS_NMEA_FROM_GPS    iGPS            $GPGGA,193930.000,4144.3663,N,06959.5176,W,2,10,0.96,6.2,M,-34.3,M,0000,0000*5C 
447.624         GPS_NMEA_FROM_GPS    iGPS            $GPGGA,193931.000,4144.3663,N,06959.5180,W,2,10,0.96,6.2,M,-34.3,M,0000,0000*54 
448.626         GPS_NMEA_FROM_GPS    iGPS            $GPGGA,193932.000,4144.3664,N,06959.5183,W,2,10,0.96,6.1,M,-34.3,M,0000,0000*50 
449.629         GPS_NMEA_FROM_GPS    iGPS            $GPGGA,193933.000,4144.3664,N,06959.5186,W,2,10,0.96,6.1,M,-34.3,M,0000,0000*54 
450.631         GPS_NMEA_FROM_GPS    iGPS            $GPGGA,193934.000,4144.3664,N,06959.5189,W,2,10,0.96,6.1,M,-34.3,M,0000,0000*5C 
