1.677           GPS_NMEA_FROM_GPS    iGPS            $GPGGA,194621.000,4144.3578,N,06959.5657,W,2,10,1.12,0.0,M,-34.3,M,0000,0000*50 
2.680           GPS_NMEA_FROM_GPS    iGPS            $GPRMC,194622.000,A,4144.3578,N,06959.5657,W,0.08,41.51,310321,,,D*46 
2.680           GPS_NMEA_FROM_GPS    iGPS            $GPRMC,194622.000,A,4144.3578,N,06959.5657,W,0.08,41.51,310321,,,D*46 
3.683           GPS_NMEA_FROM_GPS    iGPS            $GPGGA,194623.000,4144.3578,N,06959.5657,W,2,10,1.12,0.0,M,-34.3,M,0000,0000*52 
3.683           GPS_NMEA_FROM_GPS    iGPS            $GPGGA,194623.000,4144.3578,N,06959.5657,W,2,10,1.12,0.0,M,-34.3,M,0000,0000*52 
4.685           GPS_NMEA_FROM_GPS    iGPS            $GPGGA,194624.000,4144.3578,N,06959.5657,W,2,10,1.12,0.0,M,-34.3,M,0000,0000*55 
5.688           GPS_NMEA_FROM_GPS    iGPS            $GPGGA,194625.000,4144.3578,N,06959.5657,W,2,10,1.12,0.0,M,-34.3,M,0000,0000*54 
6.691           GPS_NMEA_FROM_GPS    iGPS            $GPGGA,194626.000,4144.3578,N,06959.5657,W,2,10,1.12,0.0,M,-34.3,M,0000,0000*57 
7.693           GPS_NMEA_FROM_GPS    iGPS            $GPGGA,194627.000,4144.3578,N,06959.5657,W,2,10,1.12,0.0,M,-34.3,M,0000,0000*56 
8.696           GPS_NMEA_FROM_GPS    iGPS            $GPGGA,194628.000,4144.3578,N,06959.5657,W,2,10,1.12,0.0,M,-34.3,M,0000,0000*59 
9.698           GPS_NMEA_FROM_GPS    iGPS            $GPRMC,194629.000,A,4144.3578,N,06959.5656,W,0.03,39.75,310321,,,D*4E 
10.700          GPS_NMEA_FROM_GPS    iGPS            $GPGGA,194630.000,4144.3578,N,06959.5656,W,2,11,0.98,0.0,M,-34.3,M,0000,0000*53 
11.703          GPS_NMEA_FROM_GPS    iGPS            $GPGGA,194631.000,4144.3578,N,06959.5656,W,2,10,1.12,0.0,M,-34.3,M,0000,0000*50 
12.605          GPS_NMEA_FROM_GPS    iGPS            $GPGGA,194632.000,4144.3578,N,06959.5656,W,2,11,0.98,0.1,M,-34.3,M,0000,0000*50 
12.605          GPS_NMEA_FROM_GPS    iGPS            $GPGGA,194632.000,4144.3578,N,06959.5656,W,2,11,0.98,0.1,M,-34.3,M,0000,0000*50 
13.608          GPS_NMEA_FROM_GPS    iGPS            $GPGGA,194633.000,4144.3578,N,06959.5656,W,2,10,1.12,0.1,M,-34.3,M,0000,0000*53 
14.711          GPS_NMEA_FROM_GPS    iGPS            $GPGGA,194634.000,4144.3578,N,06959.5656,W,2,10,1.12,0.1,M,-34.3,M,0000,0000*54 
15.614          GPS_NMEA_FROM_GPS    iGPS            $GPGGA,194635.000,4144.3578,N,06959.5656,W,2,10,1.12,0.1,M,-34.3,M,0000,0000*55 
16.617          GPS_NMEA_FROM_GPS    iGPS            $GPGGA,194636.000,4144.3578,N,06959.5656,W,2,10,1.12,0.1,M,-34.3,M,0000,0000*56 
17.720          GPS_NMEA_FROM_GPS    iGPS            $GPRMC,194637.000,A,4144.3578,N,06959.5656,W,0.05,41.73,310321,,,D*4E 
18.622          GPS_NMEA_FROM_GPS    iGPS            $GPGGA,194638.000,4144.3578,N,06959.5656,W,2,11,0.98,0.1,M,-34.3,M,0000,0000*5A 
19.725          GPS_NMEA_FROM_GPS    iGPS            $GPGGA,194639.000,4144.3579,N,06959.5656,W,2,10,1.13,0.1,M,-34.3,M,0000,0000*59 
20.727          GPS_NMEA_FROM_GPS    iGPS            $GPRMC,194640.000,A,4144.3579,N,06959.5656,W,0.03,21.22,310321,,,D*4B 
21.729          GPS_NMEA_FROM_GPS    iGPS            $GPGGA,194641.000,4144.3579,N,06959.5656,W,2,11,0.98,0.1,M,-34.3,M,0000,0000*55 
22.732          GPS_NMEA_FROM_GPS    iGPS            $GPGGA,194642.000,4144.3579,N,06959.5656,W,2,11,0.98,0.1,M,-34.3,M,0000,0000*56 
23.634          GPS_NMEA_FROM_GPS    iGPS            $GPGGA,194643.000,4144.3579,N,06959.5656,W,2,11,0.98,0.1,M,-34.3,M,0000,0000*57 
24.737          GPS_NMEA_FROM_GPS    iGPS            $GPRMC,194644.000,A,4144.3579,N,06959.5656,W,0.03,44.46,310321,,,D*4E 
24.737          GPS_NMEA_FROM_GPS    iGPS            $GPRMC,194644.000,A,4144.3579,N,06959.5656,W,0.03,44.46,310321,,,D*4E 
25.740          GPS_NMEA_FROM_GPS    iGPS            $GPRMC,194645.000,A,4144.3579,N,06959.5656,W,0.05,26.16,310321,,,D*48 
26.742          GPS_NMEA_FROM_GPS    iGPS            $GPRMC,194646.000,A,4144.3579,N,06959.5656,W,0.05,44.21,310321,,,D*4B 
27.745          GPS_NMEA_FROM_GPS    iGPS            $GPRMC,194647.000,A,4144.3579,N,06959.5656,W,0.04,30.34,310321,,,D*4C 
28.647          GPS_NMEA_FROM_GPS    iGPS            $GPGGA,194648.000,4144.3579,N,06959.5656,W,2,11,0.98,0.1,M,-34.3,M,0000,0000*5C 
29.750          GPS_NMEA_FROM_GPS    iGPS            $GPRMC,194649.000,A,4144.3579,N,06959.5656,W,0.03,35.90,310321,,,D*4E 
30.652          GPS_NMEA_FROM_GPS    iGPS            $GPGGA,194650.000,4144.3579,N,06959.5656,W,2,11,0.98,0.1,M,-34.3,M,0000,0000*55 
30.652          GPS_NMEA_FROM_GPS    iGPS            $GPGGA,194650.000,4144.3579,N,06959.5656,W,2,11,0.98,0.1,M,-34.3,M,0000,0000*55 
31.755          GPS_NMEA_FROM_GPS    iGPS            $GPRMC,194651.000,A,4144.3579,N,06959.5656,W,0.07,36.40,310321,,,D*4D 
32.657          GPS_NMEA_FROM_GPS    iGPS            $GPGGA,194652.000,4144.3579,N,06959.5656,W,2,11,0.98,0.1,M,-34.3,M,0000,0000*57 
33.659          GPS_NMEA_FROM_GPS    iGPS            $GPGGA,194653.000,4144.3579,N,06959.5656,W,2,11,0.98,0.1,M,-34.3,M,0000,0000*56 
34.662          GPS_NMEA_FROM_GPS    iGPS            $GPGGA,194654.000,4144.3579,N,06959.5656,W,2,11,0.98,0.1,M,-34.3,M,0000,0000*51 
35.765          GPS_NMEA_FROM_GPS    iGPS            $GPRMC,194655.000,A,4144.3579,N,06959.5656,W,0.05,12.42,310321,,,D*4F 
36.667          GPS_NMEA_FROM_GPS    iGPS            $GPGGA,194656.000,4144.3579,N,06959.5656,W,2,11,0.98,0.1,M,-34.3,M,0000,0000*53 
37.670          GPS_NMEA_FROM_GPS    iGPS            $GPGGA,194657.000,4144.3579,N,06959.5656,W,2,10,1.13,0.1,M,-34.3,M,0000,0000*51 
38.672          GPS_NMEA_FROM_GPS    iGPS            $GPGGA,194658.000,4144.3579,N,06959.5655,W,2,09,1.14,0.1,M,-34.3,M,0000,0000*52 
39.675          GPS_NMEA_FROM_GPS    iGPS            $GPRMC,194659.000,A,4144.3579,N,06959.5655,W,0.11,25.25,310321,,,D*40 
40.677          GPS_NMEA_FROM_GPS    iGPS            $GPGGA,194700.000,4144.3579,N,06959.5655,W,2,10,1.02,0.1,M,-34.3,M,0000,0000*51 
41.680          GPS_NMEA_FROM_GPS    iGPS            $GPGGA,194701.000,4144.3579,N,06959.5655,W,2,10,1.02,0.1,M,-34.3,M,0000,0000*50 
42.682          GPS_NMEA_FROM_GPS    iGPS            $GPGGA,194702.000,4144.3579,N,06959.5655,W,2,10,1.02,0.1,M,-34.3,M,0000,0000*53 
43.685          GPS_NMEA_FROM_GPS    iGPS            $GPGGA,194703.000,4144.3580,N,06959.5655,W,2,10,1.02,0.1,M,-34.3,M,0000,0000*54 
44.687          GPS_NMEA_FROM_GPS    iGPS            $GPGGA,194704.000,4144.3580,N,06959.5655,W,2,11,0.98,0.1,M,-34.3,M,0000,0000*50 
45.690          GPS_NMEA_FROM_GPS    iGPS            $GPGGA,194705.000,4144.3580,N,06959.5655,W,2,11,0.98,0.1,M,-34.3,M,0000,0000*51 
46.693          GPS_NMEA_FROM_GPS    iGPS            $GPGGA,194706.000,4144.3581,N,06959.5654,W,2,11,0.98,0.1,M,-34.3,M,0000,0000*52 
47.695          GPS_NMEA_FROM_GPS    iGPS            $GPGGA,194707.000,4144.3582,N,06959.5653,W,2,11,0.98,0.1,M,-34.3,M,0000,0000*57 
48.698          GPS_NMEA_FROM_GPS    iGPS            $GPGGA,194708.000,4144.3582,N,06959.5651,W,2,11,0.90,0.1,M,-34.3,M,0000,0000*52 
49.700          GPS_NMEA_FROM_GPS    iGPS            $GPGGA,194709.000,4144.3584,N,06959.5649,W,2,11,0.90,0.2,M,-34.3,M,0000,0000*5F 
50.703          GPS_NMEA_FROM_GPS    iGPS            $GPGGA,194710.000,4144.3585,N,06959.5645,W,2,11,0.90,0.2,M,-34.3,M,0000,0000*5A 
51.706          GPS_NMEA_FROM_GPS    iGPS            $GPGGA,194711.000,4144.3586,N,06959.5642,W,2,11,0.90,0.2,M,-34.3,M,0000,0000*5F 
52.708          GPS_NMEA_FROM_GPS    iGPS            $GPGGA,194712.000,4144.3587,N,06959.5638,W,2,11,0.90,0.2,M,-34.3,M,0000,0000*50 
53.711          GPS_NMEA_FROM_GPS    iGPS            $GPGGA,194713.000,4144.3588,N,06959.5634,W,2,11,0.90,0.2,M,-34.3,M,0000,0000*52 
54.714          GPS_NMEA_FROM_GPS    iGPS            $GPGGA,194714.000,4144.3589,N,06959.5630,W,2,11,0.90,0.3,M,-34.3,M,0000,0000*51 
55.616          GPS_NMEA_FROM_GPS    iGPS            $GPGGA,194715.000,4144.3590,N,06959.5626,W,2,11,0.90,0.3,M,-34.3,M,0000,0000*5F 
56.719          GPS_NMEA_FROM_GPS    iGPS            $GPGGA,194716.000,4144.3591,N,06959.5622,W,2,11,0.90,0.4,M,-34.3,M,0000,0000*5E 
57.722          GPS_NMEA_FROM_GPS    iGPS            $GPRMC,194717.000,A,4144.3593,N,06959.5617,W,0.73,75.41,310321,,,D*4A 
58.625          GPS_NMEA_FROM_GPS    iGPS            $GPGGA,194718.000,4144.3594,N,06959.5613,W,2,11,0.90,0.5,M,-34.3,M,0000,0000*56 
59.627          GPS_NMEA_FROM_GPS    iGPS            $GPGGA,194719.000,4144.3595,N,06959.5608,W,2,11,0.90,0.6,M,-34.3,M,0000,0000*5F 
60.630          GPS_NMEA_FROM_GPS    iGPS            $GPGGA,194720.000,4144.3595,N,06959.5603,W,2,11,0.90,0.7,M,-34.3,M,0000,0000*5F 
61.633          GPS_NMEA_FROM_GPS    iGPS            $GPGGA,194721.000,4144.3596,N,06959.5598,W,2,11,0.90,0.7,M,-34.3,M,0000,0000*5C 
62.635          GPS_NMEA_FROM_GPS    iGPS            $GPGGA,194722.000,4144.3597,N,06959.5594,W,2,11,0.90,0.8,M,-34.3,M,0000,0000*5D 
63.638          GPS_NMEA_FROM_GPS    iGPS            $GPGGA,194723.000,4144.3598,N,06959.5589,W,2,11,0.90,0.8,M,-34.3,M,0000,0000*5F 
64.640          GPS_NMEA_FROM_GPS    iGPS            $GPGGA,194724.000,4144.3599,N,06959.5585,W,2,11,0.90,0.8,M,-34.3,M,0000,0000*55 
65.743          GPS_NMEA_FROM_GPS    iGPS            $GPGGA,194725.000,4144.3600,N,06959.5580,W,2,11,0.90,0.9,M,-34.3,M,0000,0000*53 
66.746          GPS_NMEA_FROM_GPS    iGPS            $GPGGA,194726.000,4144.3601,N,06959.5577,W,2,11,0.90,1.0,M,-34.3,M,0000,0000*51 
67.749          GPS_NMEA_FROM_GPS    iGPS            $GPRMC,194727.000,A,4144.3601,N,06959.5573,W,0.78,86.43,310321,,,D*45 
68.751          GPS_NMEA_FROM_GPS    iGPS            $GPRMC,194728.000,A,4144.3602,N,06959.5569,W,0.77,88.42,310321,,,D*42 
69.653          GPS_NMEA_FROM_GPS    iGPS            $GPGGA,194729.000,4144.3602,N,06959.5565,W,2,11,0.90,1.2,M,-34.3,M,0000,0000*5C 
70.756          GPS_NMEA_FROM_GPS    iGPS            $GPRMC,194730.000,A,4144.3603,N,06959.5561,W,0.76,91.66,310321,,,D*4D 
71.759          GPS_NMEA_FROM_GPS    iGPS            $GPRMC,194731.000,A,4144.3603,N,06959.5557,W,0.75,92.90,310321,,,D*40 
72.761          GPS_NMEA_FROM_GPS    iGPS            $GPRMC,194732.000,A,4144.3604,N,06959.5553,W,0.74,94.25,310321,,,D*49 
73.763          GPS_NMEA_FROM_GPS    iGPS            $GPRMC,194733.000,A,4144.3604,N,06959.5550,W,0.77,95.18,310321,,,D*47 
74.766          GPS_NMEA_FROM_GPS    iGPS            $GPRMC,194734.000,A,4144.3604,N,06959.5546,W,0.76,95.90,310321,,,D*46 
75.768          GPS_NMEA_FROM_GPS    iGPS            $GPRMC,194735.000,A,4144.3604,N,06959.5543,W,0.77,96.19,310321,,,D*41 
76.670          GPS_NMEA_FROM_GPS    iGPS            $GPGGA,194736.000,4144.3604,N,06959.5539,W,2,12,0.83,1.5,M,-34.3,M,0000,0000*5B 
77.773          GPS_NMEA_FROM_GPS    iGPS            $GPRMC,194737.000,A,4144.3604,N,06959.5536,W,0.76,96.49,310321,,,D*45 
78.675          GPS_NMEA_FROM_GPS    iGPS            $GPGGA,194738.000,4144.3605,N,06959.5532,W,2,11,0.90,1.6,M,-34.3,M,0000,0000*5D 
79.678          GPS_NMEA_FROM_GPS    iGPS            $GPGGA,194739.000,4144.3605,N,06959.5529,W,2,11,0.90,1.6,M,-34.3,M,0000,0000*56 
80.681          GPS_NMEA_FROM_GPS    iGPS            $GPGGA,194740.000,4144.3605,N,06959.5525,W,2,11,0.90,1.6,M,-34.3,M,0000,0000*54 
81.683          GPS_NMEA_FROM_GPS    iGPS            $GPRMC,194741.000,A,4144.3605,N,06959.5522,W,0.76,95.27,310321,,,D*4B 
82.686          GPS_NMEA_FROM_GPS    iGPS            $GPRMC,194742.000,A,4144.3605,N,06959.5519,W,0.75,95.23,310321,,,D*47 
83.688          GPS_NMEA_FROM_GPS    iGPS            $GPGGA,194743.000,4144.3605,N,06959.5516,W,2,11,0.90,1.6,M,-34.3,M,0000,0000*57 
84.691          GPS_NMEA_FROM_GPS    iGPS            $GPRMC,194744.000,A,4144.3606,N,06959.5512,W,0.78,95.08,310321,,,D*4D 
85.693          GPS_NMEA_FROM_GPS    iGPS            $GPRMC,194745.000,A,4144.3606,N,06959.5509,W,0.78,95.49,310321,,,D*43 
86.696          GPS_NMEA_FROM_GPS    iGPS            $GPGGA,194746.000,4144.3606,N,06959.5506,W,2,11,0.90,1.8,M,-34.3,M,0000,0000*5E 
87.698          GPS_NMEA_FROM_GPS    iGPS            $GPGGA,194747.000,4144.3606,N,06959.5502,W,2,11,0.90,1.9,M,-34.3,M,0000,0000*5A 
88.702          GPS_NMEA_FROM_GPS    iGPS            $GPGGA,194748.000,4144.3606,N,06959.5499,W,2,11,0.90,1.9,M,-34.3,M,0000,0000*56 
89.704          GPS_NMEA_FROM_GPS    iGPS            $GPGGA,194749.000,4144.3606,N,06959.5496,W,2,11,0.90,1.9,M,-34.3,M,0000,0000*58 
90.707          GPS_NMEA_FROM_GPS    iGPS            $GPRMC,194750.000,A,4144.3606,N,06959.5493,W,0.79,97.10,310321,,,D*4A 
91.709          GPS_NMEA_FROM_GPS    iGPS            $GPGGA,194751.000,4144.3606,N,06959.5489,W,2,11,0.90,1.9,M,-34.3,M,0000,0000*5F 
92.712          GPS_NMEA_FROM_GPS    iGPS            $GPGGA,194752.000,4144.3606,N,06959.5486,W,2,10,0.97,2.0,M,-34.3,M,0000,0000*5F 
93.714          GPS_NMEA_FROM_GPS    iGPS            $GPGGA,194753.000,4144.3606,N,06959.5483,W,2,10,0.97,2.0,M,-34.3,M,0000,0000*5B 
94.617          GPS_NMEA_FROM_GPS    iGPS            $GPGGA,194754.000,4144.3606,N,06959.5480,W,2,10,0.97,2.0,M,-34.3,M,0000,0000*5F 
95.720          GPS_NMEA_FROM_GPS    iGPS            $GPRMC,194755.000,A,4144.3606,N,06959.5477,W,0.75,97.90,310321,,,D*41 
96.721          GPS_NMEA_FROM_GPS    iGPS            $GPGGA,194756.000,4144.3606,N,06959.5474,W,2,10,0.97,2.0,M,-34.3,M,0000,0000*56 
97.724          GPS_NMEA_FROM_GPS    iGPS            $GPGGA,194757.000,4144.3606,N,06959.5470,W,2,10,0.97,2.1,M,-34.3,M,0000,0000*52 
98.727          GPS_NMEA_FROM_GPS    iGPS            $GPGGA,194758.000,4144.3605,N,06959.5467,W,2,10,0.97,2.1,M,-34.3,M,0000,0000*58 
99.729          GPS_NMEA_FROM_GPS    iGPS            $GPRMC,194759.000,A,4144.3605,N,06959.5464,W,0.76,98.91,310321,,,D*41 
100.731         GPS_NMEA_FROM_GPS    iGPS            $GPRMC,194800.000,A,4144.3605,N,06959.5461,W,0.74,98.84,310321,,,D*41 
101.634         GPS_NMEA_FROM_GPS    iGPS            $GPGGA,194801.000,4144.3605,N,06959.5458,W,2,10,0.97,2.2,M,-34.3,M,0000,0000*54 
102.637         GPS_NMEA_FROM_GPS    iGPS            $GPGGA,194802.000,4144.3605,N,06959.5456,W,2,11,0.90,2.3,M,-34.3,M,0000,0000*5E 
103.639         GPS_NMEA_FROM_GPS    iGPS            $GPGGA,194803.000,4144.3605,N,06959.5453,W,2,11,0.90,2.3,M,-34.3,M,0000,0000*5A 
104.642         GPS_NMEA_FROM_GPS    iGPS            $GPGGA,194804.000,4144.3605,N,06959.5450,W,2,11,0.90,2.4,M,-34.3,M,0000,0000*59 
105.645         GPS_NMEA_FROM_GPS    iGPS            $GPGGA,194805.000,4144.3605,N,06959.5447,W,2,11,0.90,2.5,M,-34.3,M,0000,0000*5F 
106.647         GPS_NMEA_FROM_GPS    iGPS            $GPGGA,194806.000,4144.3604,N,06959.5444,W,2,12,0.83,2.5,M,-34.3,M,0000,0000*5F 
107.750         GPS_NMEA_FROM_GPS    iGPS            $GPGGA,194807.000,4144.3604,N,06959.5441,W,2,11,0.90,2.5,M,-34.3,M,0000,0000*5A 
108.753         GPS_NMEA_FROM_GPS    iGPS            $GPGGA,194808.000,4144.3604,N,06959.5438,W,2,12,0.83,2.6,M,-34.3,M,0000,0000*59 
109.756         GPS_NMEA_FROM_GPS    iGPS            $GPGGA,194809.000,4144.3604,N,06959.5435,W,2,12,0.83,2.6,M,-34.3,M,0000,0000*55 
110.759         GPS_NMEA_FROM_GPS    iGPS            $GPRMC,194810.000,A,4144.3604,N,06959.5432,W,0.79,98.51,310321,,,D*42 
111.661         GPS_NMEA_FROM_GPS    iGPS            $GPGGA,194811.000,4144.3604,N,06959.5429,W,2,12,0.83,2.7,M,-34.3,M,0000,0000*50 
112.764         GPS_NMEA_FROM_GPS    iGPS            $GPRMC,194812.000,A,4144.3604,N,06959.5426,W,0.80,97.92,310321,,,D*43 
113.766         GPS_NMEA_FROM_GPS    iGPS            $GPRMC,194813.000,A,4144.3603,N,06959.5423,W,0.79,97.30,310321,,,D*4E 
114.768         GPS_NMEA_FROM_GPS    iGPS            $GPRMC,194814.000,A,4144.3603,N,06959.5419,W,0.80,97.60,310321,,,D*43 
115.771         GPS_NMEA_FROM_GPS    iGPS            $GPRMC,194815.000,A,4144.3603,N,06959.5416,W,0.80,97.25,310321,,,D*4C 
116.673         GPS_NMEA_FROM_GPS    iGPS            $GPGGA,194816.000,4144.3603,N,06959.5413,W,2,12,0.83,2.9,M,-34.3,M,0000,0000*57 
117.676         GPS_NMEA_FROM_GPS    iGPS            $GPGGA,194817.000,4144.3603,N,06959.5410,W,2,11,0.90,3.0,M,-34.3,M,0000,0000*5C 
118.678         GPS_NMEA_FROM_GPS    iGPS            $GPGGA,194818.000,4144.3602,N,06959.5407,W,2,11,0.90,3.0,M,-34.3,M,0000,0000*54 
119.681         GPS_NMEA_FROM_GPS    iGPS            $GPGGA,194819.000,4144.3602,N,06959.5404,W,2,11,0.90,3.1,M,-34.3,M,0000,0000*57 
120.685         GPS_NMEA_FROM_GPS    iGPS            $GPGGA,194820.000,4144.3602,N,06959.5400,W,2,11,0.90,3.1,M,-34.3,M,0000,0000*59 
121.687         GPS_NMEA_FROM_GPS    iGPS            $GPGGA,194821.000,4144.3602,N,06959.5397,W,2,11,0.90,3.2,M,-34.3,M,0000,0000*52 
122.690         GPS_NMEA_FROM_GPS    iGPS            $GPRMC,194822.000,A,4144.3601,N,06959.5395,W,0.79,98.72,310321,,,D*4D 
123.693         GPS_NMEA_FROM_GPS    iGPS            $GPRMC,194823.000,A,4144.3601,N,06959.5392,W,0.77,99.02,310321,,,D*43 
124.695         GPS_NMEA_FROM_GPS    iGPS            $GPRMC,194824.000,A,4144.3601,N,06959.5389,W,0.78,99.20,310321,,,D*41 
125.698         GPS_NMEA_FROM_GPS    iGPS            $GPRMC,194825.000,A,4144.3601,N,06959.5386,W,0.77,99.64,310321,,,D*40 
126.700         GPS_NMEA_FROM_GPS    iGPS            $GPRMC,194826.000,A,4144.3601,N,06959.5383,W,0.77,99.69,310321,,,D*4B 
127.703         GPS_NMEA_FROM_GPS    iGPS            $GPRMC,194827.000,A,4144.3600,N,06959.5380,W,0.77,100.02,310321,,,D*74 
128.705         GPS_NMEA_FROM_GPS    iGPS            $GPRMC,194828.000,A,4144.3600,N,06959.5377,W,0.77,100.21,310321,,,D*72 
129.708         GPS_NMEA_FROM_GPS    iGPS            $GPGGA,194829.000,4144.3600,N,06959.5375,W,2,11,0.90,3.5,M,-34.3,M,0000,0000*53 
130.710         GPS_NMEA_FROM_GPS    iGPS            $GPGGA,194830.000,4144.3600,N,06959.5372,W,2,11,0.90,3.5,M,-34.3,M,0000,0000*5C 
131.713         GPS_NMEA_FROM_GPS    iGPS            $GPGGA,194831.000,4144.3599,N,06959.5369,W,2,11,0.90,3.6,M,-34.3,M,0000,0000*57 
132.716         GPS_NMEA_FROM_GPS    iGPS            $GPRMC,194832.000,A,4144.3599,N,06959.5366,W,0.77,99.66,310321,,,D*48 
133.718         GPS_NMEA_FROM_GPS    iGPS            $GPGGA,194833.000,4144.3599,N,06959.5364,W,2,11,0.90,3.6,M,-34.3,M,0000,0000*58 
134.620         GPS_NMEA_FROM_GPS    iGPS            $GPGGA,194834.000,4144.3599,N,06959.5361,W,2,10,0.97,3.7,M,-34.3,M,0000,0000*5D 
135.723         GPS_NMEA_FROM_GPS    iGPS            $GPRMC,194835.000,A,4144.3599,N,06959.5358,W,0.78,99.41,310321,,,D*48 
136.726         GPS_NMEA_FROM_GPS    iGPS            $GPGGA,194836.000,4144.3599,N,06959.5355,W,2,10,0.97,3.7,M,-34.3,M,0000,0000*58 
137.628         GPS_NMEA_FROM_GPS    iGPS            $GPGGA,194837.000,4144.3598,N,06959.5352,W,2,10,0.97,3.7,M,-34.3,M,0000,0000*5F 
138.731         GPS_NMEA_FROM_GPS    iGPS            $GPGGA,194838.000,4144.3598,N,06959.5350,W,2,10,0.97,3.7,M,-34.3,M,0000,0000*52 
139.734         GPS_NMEA_FROM_GPS    iGPS            $GPGGA,194839.000,4144.3598,N,06959.5347,W,2,10,0.97,3.7,M,-34.3,M,0000,0000*55 
140.736         GPS_NMEA_FROM_GPS    iGPS            $GPRMC,194840.000,A,4144.3598,N,06959.5344,W,0.78,99.57,310321,,,D*41 
141.739         GPS_NMEA_FROM_GPS    iGPS            $GPRMC,194841.000,A,4144.3597,N,06959.5341,W,0.77,99.17,310321,,,D*41 
142.741         GPS_NMEA_FROM_GPS    iGPS            $GPRMC,194842.000,A,4144.3597,N,06959.5339,W,0.78,98.93,310321,,,D*4F 
143.744         GPS_NMEA_FROM_GPS    iGPS            $GPRMC,194843.000,A,4144.3597,N,06959.5336,W,0.77,98.97,310321,,,D*4A 
144.746         GPS_NMEA_FROM_GPS    iGPS            $GPRMC,194844.000,A,4144.3596,N,06959.5333,W,0.78,98.91,310321,,,D*40 
145.749         GPS_NMEA_FROM_GPS    iGPS            $GPRMC,194845.000,A,4144.3596,N,06959.5330,W,0.79,98.92,310321,,,D*40 
146.752         GPS_NMEA_FROM_GPS    iGPS            $GPRMC,194846.000,A,4144.3596,N,06959.5327,W,0.74,98.68,310321,,,D*4D 
147.654         GPS_NMEA_FROM_GPS    iGPS            $GPGGA,194847.000,4144.3596,N,06959.5324,W,2,10,0.97,3.8,M,-34.3,M,0000,0000*58 
148.756         GPS_NMEA_FROM_GPS    iGPS            $GPRMC,194848.000,A,4144.3596,N,06959.5322,W,0.77,98.17,310321,,,D*4D 
149.759         GPS_NMEA_FROM_GPS    iGPS            $GPRMC,194849.000,A,4144.3596,N,06959.5319,W,0.77,98.16,310321,,,D*45 
150.661         GPS_NMEA_FROM_GPS    iGPS            $GPGGA,194850.000,4144.3596,N,06959.5316,W,2,10,0.97,3.9,M,-34.3,M,0000,0000*5E 
151.664         GPS_NMEA_FROM_GPS    iGPS            $GPGGA,194851.000,4144.3595,N,06959.5313,W,2,10,0.97,3.9,M,-34.3,M,0000,0000*59 
152.666         GPS_NMEA_FROM_GPS    iGPS            $GPGGA,194852.000,4144.3595,N,06959.5310,W,2,10,0.97,4.0,M,-34.3,M,0000,0000*57 
153.669         GPS_NMEA_FROM_GPS    iGPS            $GPGGA,194853.000,4144.3595,N,06959.5308,W,2,10,0.97,4.0,M,-34.3,M,0000,0000*5F 
154.672         GPS_NMEA_FROM_GPS    iGPS            $GPGGA,194854.000,4144.3594,N,06959.5305,W,2,10,0.97,4.0,M,-34.3,M,0000,0000*54 
155.675         GPS_NMEA_FROM_GPS    iGPS            $GPGGA,194855.000,4144.3594,N,06959.5302,W,2,10,0.97,4.0,M,-34.3,M,0000,0000*52 
156.678         GPS_NMEA_FROM_GPS    iGPS            $GPGGA,194856.000,4144.3594,N,06959.5299,W,2,10,0.97,4.1,M,-34.3,M,0000,0000*53 
157.680         GPS_NMEA_FROM_GPS    iGPS            $GPGGA,194857.000,4144.3594,N,06959.5296,W,2,10,0.97,4.1,M,-34.3,M,0000,0000*5D 
158.683         GPS_NMEA_FROM_GPS    iGPS            $GPGGA,194858.000,4144.3593,N,06959.5294,W,2,11,0.90,4.1,M,-34.3,M,0000,0000*51 
159.685         GPS_NMEA_FROM_GPS    iGPS            $GPGGA,194859.000,4144.3593,N,06959.5291,W,2,11,0.90,4.1,M,-34.3,M,0000,0000*55 
160.687         GPS_NMEA_FROM_GPS    iGPS            $GPGGA,194900.000,4144.3593,N,06959.5288,W,2,11,0.90,4.2,M,-34.3,M,0000,0000*53 
161.690         GPS_NMEA_FROM_GPS    iGPS            $GPGGA,194901.000,4144.3593,N,06959.5285,W,2,11,0.90,4.2,M,-34.3,M,0000,0000*5F 
162.692         GPS_NMEA_FROM_GPS    iGPS            $GPGGA,194902.000,4144.3593,N,06959.5281,W,2,11,0.90,4.2,M,-34.3,M,0000,0000*58 
163.695         GPS_NMEA_FROM_GPS    iGPS            $GPRMC,194903.000,A,4144.3593,N,06959.5278,W,0.78,96.86,310321,,,D*41 
164.697         GPS_NMEA_FROM_GPS    iGPS            $GPGGA,194904.000,4144.3592,N,06959.5275,W,2,11,0.90,4.2,M,-34.3,M,0000,0000*54 
165.700         GPS_NMEA_FROM_GPS    iGPS            $GPRMC,194905.000,A,4144.3592,N,06959.5273,W,0.77,96.39,310321,,,D*46 
166.702         GPS_NMEA_FROM_GPS    iGPS            $GPGGA,194906.000,4144.3592,N,06959.5270,W,2,11,0.90,4.2,M,-34.3,M,0000,0000*53 
167.705         GPS_NMEA_FROM_GPS    iGPS            $GPRMC,194907.000,A,4144.3592,N,06959.5267,W,0.78,96.06,310321,,,D*42 
168.708         GPS_NMEA_FROM_GPS    iGPS            $GPRMC,194908.000,A,4144.3592,N,06959.5264,W,0.78,96.06,310321,,,D*4E 
169.710         GPS_NMEA_FROM_GPS    iGPS            $GPRMC,194909.000,A,4144.3592,N,06959.5261,W,0.77,96.34,310321,,,D*44 
170.712         GPS_NMEA_FROM_GPS    iGPS            $GPGGA,194910.000,4144.3591,N,06959.5258,W,2,11,0.90,4.2,M,-34.3,M,0000,0000*5D 
171.715         GPS_NMEA_FROM_GPS    iGPS            $GPGGA,194911.000,4144.3591,N,06959.5255,W,2,11,0.90,4.2,M,-34.3,M,0000,0000*51 
172.717         GPS_NMEA_FROM_GPS    iGPS            $GPGGA,194912.000,4144.3591,N,06959.5252,W,2,12,0.83,4.2,M,-34.3,M,0000,0000*54 
173.720         GPS_NMEA_FROM_GPS    iGPS            $GPGGA,194913.000,4144.3591,N,06959.5250,W,2,12,0.83,4.2,M,-34.3,M,0000,0000*57 
174.622         GPS_NMEA_FROM_GPS    iGPS            $GPGGA,194914.000,4144.3591,N,06959.5247,W,2,12,0.83,4.2,M,-34.3,M,0000,0000*56 
175.725         GPS_NMEA_FROM_GPS    iGPS            $GPGGA,194915.000,4144.3590,N,06959.5244,W,2,12,0.83,4.2,M,-34.3,M,0000,0000*55 
176.628         GPS_NMEA_FROM_GPS    iGPS            $GPGGA,194916.000,4144.3590,N,06959.5241,W,2,12,0.83,4.2,M,-34.3,M,0000,0000*53 
177.731         GPS_NMEA_FROM_GPS    iGPS            $GPRMC,194917.000,A,4144.3590,N,06959.5239,W,0.76,95.48,310321,,,D*4D 
178.734         GPS_NMEA_FROM_GPS    iGPS            $GPRMC,194918.000,A,4144.3590,N,06959.5236,W,0.76,95.54,310321,,,D*40 
179.736         GPS_NMEA_FROM_GPS    iGPS            $GPGGA,194919.000,4144.3589,N,06959.5233,W,2,12,0.83,4.2,M,-34.3,M,0000,0000*51 
180.739         GPS_NMEA_FROM_GPS    iGPS            $GPRMC,194920.000,A,4144.3589,N,06959.5230,W,0.78,95.28,310321,,,D*40 
181.641         GPS_NMEA_FROM_GPS    iGPS            $GPGGA,194921.000,4144.3589,N,06959.5228,W,2,12,0.83,4.3,M,-34.3,M,0000,0000*51 
182.744         GPS_NMEA_FROM_GPS    iGPS            $GPRMC,194922.000,A,4144.3589,N,06959.5225,W,0.77,94.98,310321,,,D*43 
183.746         GPS_NMEA_FROM_GPS    iGPS            $GPRMC,194923.000,A,4144.3589,N,06959.5222,W,0.76,94.95,310321,,,D*49 
184.749         GPS_NMEA_FROM_GPS    iGPS            $GPRMC,194924.000,A,4144.3589,N,06959.5219,W,0.76,94.82,310321,,,D*40 
185.651         GPS_NMEA_FROM_GPS    iGPS            $GPGGA,194925.000,4144.3589,N,06959.5216,W,2,12,0.83,4.3,M,-34.3,M,0000,0000*58 
186.754         GPS_NMEA_FROM_GPS    iGPS            $GPRMC,194926.000,A,4144.3589,N,06959.5213,W,0.77,94.13,310321,,,D*41 
187.756         GPS_NMEA_FROM_GPS    iGPS            $GPRMC,194927.000,A,4144.3589,N,06959.5210,W,0.77,93.44,310321,,,D*46 
188.658         GPS_NMEA_FROM_GPS    iGPS            $GPGGA,194928.000,4144.3589,N,06959.5207,W,2,12,0.83,4.3,M,-34.3,M,0000,0000*55 
189.661         GPS_NMEA_FROM_GPS    iGPS            $GPGGA,194929.000,4144.3588,N,06959.5204,W,2,12,0.83,4.3,M,-34.3,M,0000,0000*56 
190.664         GPS_NMEA_FROM_GPS    iGPS            $GPGGA,194930.000,4144.3588,N,06959.5201,W,2,12,0.83,4.4,M,-34.3,M,0000,0000*5C 
191.767         GPS_NMEA_FROM_GPS    iGPS            $GPRMC,194931.000,A,4144.3588,N,06959.5197,W,0.76,91.33,310321,,,D*4F 
192.669         GPS_NMEA_FROM_GPS    iGPS            $GPGGA,194932.000,4144.3589,N,06959.5194,W,2,12,0.83,4.4,M,-34.3,M,0000,0000*50 
193.671         GPS_NMEA_FROM_GPS    iGPS            $GPGGA,194933.000,4144.3589,N,06959.5191,W,2,12,0.83,4.4,M,-34.3,M,0000,0000*54 
194.674         GPS_NMEA_FROM_GPS    iGPS            $GPGGA,194934.000,4144.3589,N,06959.5188,W,2,12,0.83,4.4,M,-34.3,M,0000,0000*5B 
195.676         GPS_NMEA_FROM_GPS    iGPS            $GPGGA,194935.000,4144.3589,N,06959.5184,W,2,12,0.83,4.4,M,-34.3,M,0000,0000*56 
196.679         GPS_NMEA_FROM_GPS    iGPS            $GPGGA,194936.000,4144.3589,N,06959.5181,W,2,12,0.83,4.4,M,-34.3,M,0000,0000*50 
197.681         GPS_NMEA_FROM_GPS    iGPS            $GPGGA,194937.000,4144.3590,N,06959.5178,W,2,11,0.90,4.4,M,-34.3,M,0000,0000*5E 
198.684         GPS_NMEA_FROM_GPS    iGPS            $GPGGA,194938.000,4144.3590,N,06959.5175,W,2,11,0.90,4.4,M,-34.3,M,0000,0000*5C 
199.686         GPS_NMEA_FROM_GPS    iGPS            $GPGGA,194939.000,4144.3590,N,06959.5171,W,2,11,0.90,4.4,M,-34.3,M,0000,0000*59 
200.690         GPS_NMEA_FROM_GPS    iGPS            $GPRMC,194940.000,A,4144.3590,N,06959.5168,W,0.78,88.39,310321,,,D*4C 
201.692         GPS_NMEA_FROM_GPS    iGPS            $GPGGA,194941.000,4144.3590,N,06959.5166,W,2,11,0.90,4.4,M,-34.3,M,0000,0000*50 
202.694         GPS_NMEA_FROM_GPS    iGPS            $GPRMC,194942.000,A,4144.3590,N,06959.5163,W,0.75,88.53,310321,,,D*44 
203.697         GPS_NMEA_FROM_GPS    iGPS            $GPRMC,194943.000,A,4144.3590,N,06959.5160,W,0.76,88.91,310321,,,D*4B 
204.699         GPS_NMEA_FROM_GPS    iGPS            $GPGGA,194944.000,4144.3590,N,06959.5157,W,2,11,0.90,4.4,M,-34.3,M,0000,0000*57 
205.701         GPS_NMEA_FROM_GPS    iGPS            $GPGGA,194945.000,4144.3590,N,06959.5154,W,2,11,0.90,4.4,M,-34.3,M,0000,0000*55 
206.704         GPS_NMEA_FROM_GPS    iGPS            $GPRMC,194946.000,A,4144.3590,N,06959.5151,W,0.72,88.27,310321,,,D*45 
207.706         GPS_NMEA_FROM_GPS    iGPS            $GPGGA,194947.000,4144.3591,N,06959.5148,W,2,11,0.90,4.4,M,-34.3,M,0000,0000*5B 
208.708         GPS_NMEA_FROM_GPS    iGPS            $GPGGA,194948.000,4144.3591,N,06959.5146,W,2,11,0.90,4.4,M,-34.3,M,0000,0000*5A 
209.711         GPS_NMEA_FROM_GPS    iGPS            $GPRMC,194949.000,A,4144.3591,N,06959.5143,W,0.60,89.01,310321,,,D*4E 
210.613         GPS_NMEA_FROM_GPS    iGPS            $GPGGA,194950.000,4144.3590,N,06959.5141,W,2,11,0.90,4.4,M,-34.3,M,0000,0000*55 
211.615         GPS_NMEA_FROM_GPS    iGPS            $GPGGA,194951.000,4144.3590,N,06959.5139,W,2,11,0.90,4.4,M,-34.3,M,0000,0000*5B 
212.718         GPS_NMEA_FROM_GPS    iGPS            $GPGGA,194952.000,4144.3589,N,06959.5138,W,2,11,0.90,4.3,M,-34.3,M,0000,0000*56 
213.620         GPS_NMEA_FROM_GPS    iGPS            $GPGGA,194953.000,4144.3588,N,06959.5137,W,2,11,0.90,4.3,M,-34.3,M,0000,0000*59 
214.723         GPS_NMEA_FROM_GPS    iGPS            $GPGGA,194954.000,4144.3588,N,06959.5135,W,2,11,0.90,4.3,M,-34.3,M,0000,0000*5C 
215.626         GPS_NMEA_FROM_GPS    iGPS            $GPGGA,194955.000,4144.3587,N,06959.5134,W,2,11,0.90,4.3,M,-34.3,M,0000,0000*53 
216.729         GPS_NMEA_FROM_GPS    iGPS            $GPGGA,194956.000,4144.3586,N,06959.5134,W,2,11,0.90,4.3,M,-34.3,M,0000,0000*51 
217.731         GPS_NMEA_FROM_GPS    iGPS            $GPRMC,194957.000,A,4144.3585,N,06959.5133,W,0.34,144.71,310321,,,D*75 
218.734         GPS_NMEA_FROM_GPS    iGPS            $GPRMC,194958.000,A,4144.3584,N,06959.5134,W,0.41,161.85,310321,,,D*72 
219.736         GPS_NMEA_FROM_GPS    iGPS            $GPRMC,194959.000,A,4144.3583,N,06959.5135,W,0.39,177.98,310321,,,D*71 
220.637         GPS_NMEA_FROM_GPS    iGPS            $GPGGA,195000.000,4144.3582,N,06959.5136,W,2,11,0.90,4.4,M,-34.3,M,0000,0000*5B 
221.740         GPS_NMEA_FROM_GPS    iGPS            $GPRMC,195001.000,A,4144.3581,N,06959.5137,W,0.45,210.92,310321,,,D*77 
222.743         GPS_NMEA_FROM_GPS    iGPS            $GPRMC,195002.000,A,4144.3581,N,06959.5138,W,0.48,224.66,310321,,,D*7A 
223.745         GPS_NMEA_FROM_GPS    iGPS            $GPRMC,195003.000,A,4144.3580,N,06959.5140,W,0.47,233.01,310321,,,D*7D 
224.647         GPS_NMEA_FROM_GPS    iGPS            $GPGGA,195004.000,4144.3580,N,06959.5142,W,2,10,0.98,4.4,M,-34.3,M,0000,0000*57 
225.650         GPS_NMEA_FROM_GPS    iGPS            $GPGGA,195005.000,4144.3580,N,06959.5144,W,2,11,0.90,4.4,M,-34.3,M,0000,0000*59 
226.755         GPS_NMEA_FROM_GPS    iGPS            $GPRMC,195006.000,A,4144.3579,N,06959.5146,W,0.60,251.57,310321,,,D*7A 
227.657         GPS_NMEA_FROM_GPS    iGPS            $GPGGA,195007.000,4144.3579,N,06959.5149,W,2,11,0.90,4.3,M,-34.3,M,0000,0000*57 
228.760         GPS_NMEA_FROM_GPS    iGPS            $GPRMC,195008.000,A,4144.3579,N,06959.5153,W,0.55,255.40,310321,,,D*74 
229.662         GPS_NMEA_FROM_GPS    iGPS            $GPGGA,195009.000,4144.3579,N,06959.5157,W,2,11,0.90,4.2,M,-34.3,M,0000,0000*57 
230.664         GPS_NMEA_FROM_GPS    iGPS            $GPGGA,195010.000,4144.3579,N,06959.5161,W,2,11,0.90,4.1,M,-34.3,M,0000,0000*59 
231.667         GPS_NMEA_FROM_GPS    iGPS            $GPGGA,195011.000,4144.3579,N,06959.5165,W,2,11,0.90,4.1,M,-34.3,M,0000,0000*5C 
232.669         GPS_NMEA_FROM_GPS    iGPS            $GPGGA,195012.000,4144.3579,N,06959.5168,W,2,11,0.90,4.0,M,-34.3,M,0000,0000*53 
233.772         GPS_NMEA_FROM_GPS    iGPS            $GPRMC,195013.000,A,4144.3578,N,06959.5171,W,0.69,250.38,310321,,,D*7A 
234.674         GPS_NMEA_FROM_GPS    iGPS            $GPGGA,195014.000,4144.3578,N,06959.5174,W,2,11,0.90,3.9,M,-34.3,M,0000,0000*57 
235.676         GPS_NMEA_FROM_GPS    iGPS            $GPGGA,195015.000,4144.3577,N,06959.5176,W,2,11,0.90,3.9,M,-34.3,M,0000,0000*5B 
236.679         GPS_NMEA_FROM_GPS    iGPS            $GPRMC,195016.000,A,4144.3577,N,06959.5179,W,0.65,243.00,310321,,,D*7D 
237.681         GPS_NMEA_FROM_GPS    iGPS            $GPGGA,195017.000,4144.3576,N,06959.5180,W,2,11,0.99,3.9,M,-34.3,M,0000,0000*58 
238.684         GPS_NMEA_FROM_GPS    iGPS            $GPGGA,195018.000,4144.3576,N,06959.5182,W,2,11,0.99,3.9,M,-34.3,M,0000,0000*55 
239.687         GPS_NMEA_FROM_GPS    iGPS            $GPGGA,195019.000,4144.3575,N,06959.5184,W,2,11,0.90,3.9,M,-34.3,M,0000,0000*58 
240.689         GPS_NMEA_FROM_GPS    iGPS            $GPGGA,195020.000,4144.3575,N,06959.5186,W,2,11,0.90,3.9,M,-34.3,M,0000,0000*50 
241.692         GPS_NMEA_FROM_GPS    iGPS            $GPGGA,195021.000,4144.3574,N,06959.5189,W,2,11,0.99,3.8,M,-34.3,M,0000,0000*57 
242.695         GPS_NMEA_FROM_GPS    iGPS            $GPGGA,195022.000,4144.3574,N,06959.5192,W,2,11,0.90,3.8,M,-34.3,M,0000,0000*57 
243.697         GPS_NMEA_FROM_GPS    iGPS            $GPGGA,195023.000,4144.3573,N,06959.5195,W,2,11,0.90,3.7,M,-34.3,M,0000,0000*59 
244.700         GPS_NMEA_FROM_GPS    iGPS            $GPGGA,195024.000,4144.3572,N,06959.5198,W,2,10,0.98,3.6,M,-34.3,M,0000,0000*5A 
245.703         GPS_NMEA_FROM_GPS    iGPS            $GPGGA,195025.000,4144.3572,N,06959.5202,W,2,10,0.98,3.6,M,-34.3,M,0000,0000*5B 
246.705         GPS_NMEA_FROM_GPS    iGPS            $GPRMC,195026.000,A,4144.3571,N,06959.5206,W,0.74,248.88,310321,,,D*78 
247.707         GPS_NMEA_FROM_GPS    iGPS            $GPGGA,195027.000,4144.3571,N,06959.5209,W,2,10,0.98,3.4,M,-34.3,M,0000,0000*53 
248.710         GPS_NMEA_FROM_GPS    iGPS            $GPGGA,195028.000,4144.3571,N,06959.5213,W,2,11,0.99,3.4,M,-34.3,M,0000,0000*57 
249.713         GPS_NMEA_FROM_GPS    iGPS            $GPGGA,195029.000,4144.3571,N,06959.5216,W,2,11,0.90,3.4,M,-34.3,M,0000,0000*5A 
250.715         GPS_NMEA_FROM_GPS    iGPS            $GPGGA,195030.000,4144.3571,N,06959.5219,W,2,11,0.90,3.5,M,-34.3,M,0000,0000*5C 
251.718         GPS_NMEA_FROM_GPS    iGPS            $GPGGA,195031.000,4144.3571,N,06959.5223,W,2,11,0.90,3.5,M,-34.3,M,0000,0000*54 
252.620         GPS_NMEA_FROM_GPS    iGPS            $GPGGA,195032.000,4144.3570,N,06959.5225,W,2,11,0.99,3.5,M,-34.3,M,0000,0000*59 
253.723         GPS_NMEA_FROM_GPS    iGPS            $GPRMC,195033.000,A,4144.3570,N,06959.5228,W,0.58,252.46,310321,,,D*76 
254.725         GPS_NMEA_FROM_GPS    iGPS            $GPGGA,195034.000,4144.3570,N,06959.5231,W,2,11,0.99,3.4,M,-34.3,M,0000,0000*5B 
255.728         GPS_NMEA_FROM_GPS    iGPS            $GPRMC,195035.000,A,4144.3570,N,06959.5233,W,0.74,249.26,310321,,,D*78 
256.731         GPS_NMEA_FROM_GPS    iGPS            $GPRMC,195036.000,A,4144.3569,N,06959.5236,W,0.75,247.16,310321,,,D*7A 
257.733         GPS_NMEA_FROM_GPS    iGPS            $GPGGA,195037.000,4144.3568,N,06959.5238,W,2,11,0.99,3.4,M,-34.3,M,0000,0000*58 
258.735         GPS_NMEA_FROM_GPS    iGPS            $GPGGA,195038.000,4144.3567,N,06959.5241,W,2,11,0.90,3.4,M,-34.3,M,0000,0000*5F 
259.738         GPS_NMEA_FROM_GPS    iGPS            $GPRMC,195039.000,A,4144.3566,N,06959.5243,W,0.72,241.06,310321,,,D*78 
260.741         GPS_NMEA_FROM_GPS    iGPS            $GPRMC,195040.000,A,4144.3565,N,06959.5245,W,0.67,239.12,310321,,,D*7D 
261.643         GPS_NMEA_FROM_GPS    iGPS            $GPGGA,195041.000,4144.3565,N,06959.5247,W,2,11,0.90,3.5,M,-34.3,M,0000,0000*54 
262.646         GPS_NMEA_FROM_GPS    iGPS            $GPGGA,195042.000,4144.3564,N,06959.5248,W,2,11,0.99,3.5,M,-34.3,M,0000,0000*50 
263.749         GPS_NMEA_FROM_GPS    iGPS            $GPRMC,195043.000,A,4144.3563,N,06959.5250,W,0.62,238.13,310321,,,D*79 
264.651         GPS_NMEA_FROM_GPS    iGPS            $GPGGA,195044.000,4144.3562,N,06959.5252,W,2,11,0.90,3.5,M,-34.3,M,0000,0000*52 
265.754         GPS_NMEA_FROM_GPS    iGPS            $GPRMC,195045.000,A,4144.3562,N,06959.5254,W,0.66,238.76,310321,,,D*7D 
266.656         GPS_NMEA_FROM_GPS    iGPS            $GPGGA,195046.000,4144.3561,N,06959.5256,W,2,11,0.90,3.4,M,-34.3,M,0000,0000*56 
267.658         GPS_NMEA_FROM_GPS    iGPS            $GPGGA,195047.000,4144.3560,N,06959.5258,W,2,11,0.90,3.4,M,-34.3,M,0000,0000*58 
268.762         GPS_NMEA_FROM_GPS    iGPS            $GPRMC,195048.000,A,4144.3559,N,06959.5261,W,0.77,241.54,310321,,,D*70 
269.664         GPS_NMEA_FROM_GPS    iGPS            $GPGGA,195049.000,4144.3558,N,06959.5264,W,2,10,0.98,3.5,M,-34.3,M,0000,0000*5A 
270.666         GPS_NMEA_FROM_GPS    iGPS            $GPGGA,195050.000,4144.3557,N,06959.5266,W,2,10,0.98,3.5,M,-34.3,M,0000,0000*5F 
271.668         GPS_NMEA_FROM_GPS    iGPS            $GPGGA,195051.000,4144.3556,N,06959.5269,W,2,10,0.98,3.5,M,-34.3,M,0000,0000*50 
272.670         GPS_NMEA_FROM_GPS    iGPS            $GPGGA,195052.000,4144.3555,N,06959.5272,W,2,11,0.90,3.6,M,-34.3,M,0000,0000*50 
273.673         GPS_NMEA_FROM_GPS    iGPS            $GPGGA,195053.000,4144.3555,N,06959.5274,W,2,11,0.90,3.5,M,-34.3,M,0000,0000*54 
274.676         GPS_NMEA_FROM_GPS    iGPS            $GPGGA,195054.000,4144.3554,N,06959.5277,W,2,11,0.90,3.5,M,-34.3,M,0000,0000*51 
275.678         GPS_NMEA_FROM_GPS    iGPS            $GPGGA,195055.000,4144.3554,N,06959.5279,W,2,11,0.90,3.5,M,-34.3,M,0000,0000*5E 
276.681         GPS_NMEA_FROM_GPS    iGPS            $GPGGA,195056.000,4144.3554,N,06959.5282,W,2,10,0.98,3.5,M,-34.3,M,0000,0000*50 
277.683         GPS_NMEA_FROM_GPS    iGPS            $GPGGA,195057.000,4144.3553,N,06959.5285,W,2,11,0.90,3.5,M,-34.3,M,0000,0000*58 
278.686         GPS_NMEA_FROM_GPS    iGPS            $GPRMC,195058.000,A,4144.3553,N,06959.5288,W,0.69,248.55,310321,,,D*7B 
279.688         GPS_NMEA_FROM_GPS    iGPS            $GPGGA,195059.000,4144.3552,N,06959.5290,W,2,11,0.90,3.4,M,-34.3,M,0000,0000*52 
280.690         GPS_NMEA_FROM_GPS    iGPS            $GPGGA,195100.000,4144.3551,N,06959.5293,W,2,11,0.90,3.4,M,-34.3,M,0000,0000*5F 
281.693         GPS_NMEA_FROM_GPS    iGPS            $GPGGA,195101.000,4144.3550,N,06959.5295,W,2,11,0.90,3.4,M,-34.3,M,0000,0000*59 
282.695         GPS_NMEA_FROM_GPS    iGPS            $GPGGA,195102.000,4144.3549,N,06959.5297,W,2,11,0.90,3.4,M,-34.3,M,0000,0000*50 
283.698         GPS_NMEA_FROM_GPS    iGPS            $GPRMC,195103.000,A,4144.3548,N,06959.5300,W,0.75,240.73,310321,,,D*7E 
284.701         GPS_NMEA_FROM_GPS    iGPS            $GPGGA,195104.000,4144.3547,N,06959.5302,W,2,11,0.90,3.6,M,-34.3,M,0000,0000*57 
285.703         GPS_NMEA_FROM_GPS    iGPS            $GPGGA,195105.000,4144.3547,N,06959.5303,W,2,11,0.90,3.5,M,-34.3,M,0000,0000*54 
286.706         GPS_NMEA_FROM_GPS    iGPS            $GPGGA,195106.000,4144.3546,N,06959.5305,W,2,11,0.90,3.5,M,-34.3,M,0000,0000*50 
287.708         GPS_NMEA_FROM_GPS    iGPS            $GPGGA,195107.000,4144.3545,N,06959.5307,W,2,11,0.99,3.5,M,-34.3,M,0000,0000*59 
288.712         GPS_NMEA_FROM_GPS    iGPS            $GPRMC,195108.000,A,4144.3544,N,06959.5309,W,0.68,240.33,310321,,,D*78 
289.714         GPS_NMEA_FROM_GPS    iGPS            $GPGGA,195109.000,4144.3543,N,06959.5311,W,2,11,0.90,3.5,M,-34.3,M,0000,0000*5F 
290.717         GPS_NMEA_FROM_GPS    iGPS            $GPRMC,195110.000,A,4144.3542,N,06959.5313,W,0.74,242.44,310321,,,D*73 
291.719         GPS_NMEA_FROM_GPS    iGPS            $GPGGA,195111.000,4144.3541,N,06959.5316,W,2,10,0.98,3.4,M,-34.3,M,0000,0000*5B 
292.722         GPS_NMEA_FROM_GPS    iGPS            $GPRMC,195112.000,A,4144.3541,N,06959.5318,W,0.75,244.58,310321,,,D*73 
293.724         GPS_NMEA_FROM_GPS    iGPS            $GPGGA,195113.000,4144.3540,N,06959.5321,W,2,11,0.90,3.4,M,-34.3,M,0000,0000*55 
294.627         GPS_NMEA_FROM_GPS    iGPS            $GPGGA,195114.000,4144.3539,N,06959.5324,W,2,11,0.90,3.4,M,-34.3,M,0000,0000*59 
295.629         GPS_NMEA_FROM_GPS    iGPS            $GPGGA,195115.000,4144.3538,N,06959.5327,W,2,11,0.90,3.4,M,-34.3,M,0000,0000*5A 
296.632         GPS_NMEA_FROM_GPS    iGPS            $GPGGA,195116.000,4144.3538,N,06959.5329,W,2,10,0.98,3.4,M,-34.3,M,0000,0000*5E 
297.735         GPS_NMEA_FROM_GPS    iGPS            $GPGGA,195117.000,4144.3537,N,06959.5332,W,2,11,0.90,3.4,M,-34.3,M,0000,0000*53 
298.738         GPS_NMEA_FROM_GPS    iGPS            $GPRMC,195118.000,A,4144.3536,N,06959.5334,W,0.65,246.74,310321,,,D*7A 
299.640         GPS_NMEA_FROM_GPS    iGPS            $GPGGA,195119.000,4144.3536,N,06959.5336,W,2,11,0.90,3.3,M,-34.3,M,0000,0000*5F 
300.743         GPS_NMEA_FROM_GPS    iGPS            $GPRMC,195120.000,A,4144.3535,N,06959.5338,W,0.63,245.36,310321,,,D*7D 
301.746         GPS_NMEA_FROM_GPS    iGPS            $GPRMC,195121.000,A,4144.3534,N,06959.5340,W,0.68,243.57,310321,,,D*78 
302.748         GPS_NMEA_FROM_GPS    iGPS            $GPRMC,195122.000,A,4144.3533,N,06959.5342,W,0.69,241.97,310321,,,D*71 
303.650         GPS_NMEA_FROM_GPS    iGPS            $GPGGA,195123.000,4144.3532,N,06959.5345,W,2,11,0.90,3.2,M,-34.3,M,0000,0000*57 
304.653         GPS_NMEA_FROM_GPS    iGPS            $GPGGA,195124.000,4144.3531,N,06959.5347,W,2,11,0.90,3.2,M,-34.3,M,0000,0000*51 
305.756         GPS_NMEA_FROM_GPS    iGPS            $GPRMC,195125.000,A,4144.3530,N,06959.5349,W,0.71,239.23,310321,,,D*77 
306.658         GPS_NMEA_FROM_GPS    iGPS            $GPGGA,195126.000,4144.3529,N,06959.5351,W,2,11,0.90,3.1,M,-34.3,M,0000,0000*5E 
307.761         GPS_NMEA_FROM_GPS    iGPS            $GPRMC,195127.000,A,4144.3529,N,06959.5353,W,0.59,241.16,310321,,,D*75 
308.763         GPS_NMEA_FROM_GPS    iGPS            $GPRMC,195128.000,A,4144.3528,N,06959.5355,W,0.53,242.58,310321,,,D*7E 
309.665         GPS_NMEA_FROM_GPS    iGPS            $GPGGA,195129.000,4144.3528,N,06959.5356,W,2,10,1.03,3.1,M,-34.3,M,0000,0000*5D 
310.668         GPS_NMEA_FROM_GPS    iGPS            $GPGGA,195130.000,4144.3528,N,06959.5358,W,2,11,0.99,3.0,M,-34.3,M,0000,0000*59 
311.671         GPS_NMEA_FROM_GPS    iGPS            $GPGGA,195131.000,4144.3528,N,06959.5359,W,2,11,0.99,3.0,M,-34.3,M,0000,0000*59 
312.673         GPS_NMEA_FROM_GPS    iGPS            $GPGGA,195132.000,4144.3528,N,06959.5361,W,2,11,0.99,3.0,M,-34.3,M,0000,0000*51 
313.676         GPS_NMEA_FROM_GPS    iGPS            $GPRMC,195133.000,A,4144.3528,N,06959.5362,W,0.45,267.80,310321,,,D*75 
314.678         GPS_NMEA_FROM_GPS    iGPS            $GPGGA,195134.000,4144.3529,N,06959.5364,W,2,11,0.99,2.9,M,-34.3,M,0000,0000*5B 
315.681         GPS_NMEA_FROM_GPS    iGPS            $GPRMC,195135.000,A,4144.3530,N,06959.5365,W,0.50,285.02,310321,,,D*7F 
316.684         GPS_NMEA_FROM_GPS    iGPS            $GPRMC,195136.000,A,4144.3531,N,06959.5366,W,0.52,292.94,310321,,,D*75 
317.687         GPS_NMEA_FROM_GPS    iGPS            $GPRMC,195137.000,A,4144.3532,N,06959.5368,W,0.51,300.24,310321,,,D*7B 
318.689         GPS_NMEA_FROM_GPS    iGPS            $GPGGA,195138.000,4144.3533,N,06959.5369,W,2,11,0.99,2.9,M,-34.3,M,0000,0000*51 
319.691         GPS_NMEA_FROM_GPS    iGPS            $GPGGA,195139.000,4144.3534,N,06959.5370,W,2,11,0.99,2.9,M,-34.3,M,0000,0000*5F 
320.694         GPS_NMEA_FROM_GPS    iGPS            $GPGGA,195140.000,4144.3535,N,06959.5371,W,2,11,0.99,2.9,M,-34.3,M,0000,0000*51 
321.696         GPS_NMEA_FROM_GPS    iGPS            $GPGGA,195141.000,4144.3537,N,06959.5372,W,2,11,0.90,2.9,M,-34.3,M,0000,0000*58 
322.699         GPS_NMEA_FROM_GPS    iGPS            $GPGGA,195142.000,4144.3539,N,06959.5373,W,2,11,0.90,2.9,M,-34.3,M,0000,0000*54 
323.702         GPS_NMEA_FROM_GPS    iGPS            $GPRMC,195143.000,A,4144.3541,N,06959.5373,W,0.70,329.01,310321,,,D*79 
324.704         GPS_NMEA_FROM_GPS    iGPS            $GPGGA,195144.000,4144.3543,N,06959.5373,W,2,11,0.99,3.0,M,-34.3,M,0000,0000*5E 
325.707         GPS_NMEA_FROM_GPS    iGPS            $GPGGA,195145.000,4144.3545,N,06959.5374,W,2,11,0.90,3.0,M,-34.3,M,0000,0000*57 
326.710         GPS_NMEA_FROM_GPS    iGPS            $GPGGA,195146.000,4144.3547,N,06959.5375,W,2,11,0.90,3.1,M,-34.3,M,0000,0000*56 
327.712         GPS_NMEA_FROM_GPS    iGPS            $GPGGA,195147.000,4144.3548,N,06959.5376,W,2,11,0.99,3.0,M,-34.3,M,0000,0000*53 
328.715         GPS_NMEA_FROM_GPS    iGPS            $GPGGA,195148.000,4144.3549,N,06959.5378,W,2,11,0.90,3.0,M,-34.3,M,0000,0000*5A 
329.718         GPS_NMEA_FROM_GPS    iGPS            $GPGGA,195149.000,4144.3551,N,06959.5380,W,2,11,0.90,3.0,M,-34.3,M,0000,0000*55 
330.721         GPS_NMEA_FROM_GPS    iGPS            $GPRMC,195150.000,A,4144.3552,N,06959.5383,W,0.68,309.54,310321,,,D*7D 
331.723         GPS_NMEA_FROM_GPS    iGPS            $GPGGA,195151.000,4144.3553,N,06959.5385,W,2,11,0.99,2.9,M,-34.3,M,0000,0000*5A 
332.625         GPS_NMEA_FROM_GPS    iGPS            $GPGGA,195152.000,4144.3554,N,06959.5387,W,2,11,0.99,2.8,M,-34.3,M,0000,0000*5D 
333.728         GPS_NMEA_FROM_GPS    iGPS            $GPGGA,195153.000,4144.3555,N,06959.5388,W,2,11,0.90,2.7,M,-34.3,M,0000,0000*54 
334.630         GPS_NMEA_FROM_GPS    iGPS            $GPGGA,195154.000,4144.3556,N,06959.5390,W,2,11,0.90,2.7,M,-34.3,M,0000,0000*59 
335.733         GPS_NMEA_FROM_GPS    iGPS            $GPGGA,195155.000,4144.3557,N,06959.5392,W,2,11,0.99,2.8,M,-34.3,M,0000,0000*5D 
336.635         GPS_NMEA_FROM_GPS    iGPS            $GPGGA,195156.000,4144.3559,N,06959.5393,W,2,11,0.90,2.8,M,-34.3,M,0000,0000*58 
337.638         GPS_NMEA_FROM_GPS    iGPS            $GPGGA,195157.000,4144.3560,N,06959.5394,W,2,11,0.90,2.8,M,-34.3,M,0000,0000*54 
338.642         GPS_NMEA_FROM_GPS    iGPS            $GPGGA,195158.000,4144.3562,N,06959.5395,W,2,11,0.90,2.8,M,-34.3,M,0000,0000*58 
339.643         GPS_NMEA_FROM_GPS    iGPS            $GPGGA,195159.000,4144.3563,N,06959.5397,W,2,11,0.90,2.8,M,-34.3,M,0000,0000*5A 
340.746         GPS_NMEA_FROM_GPS    iGPS            $GPRMC,195200.000,A,4144.3564,N,06959.5398,W,0.67,312.08,310321,,,D*78 
341.648         GPS_NMEA_FROM_GPS    iGPS            $GPGGA,195201.000,4144.3566,N,06959.5399,W,2,11,0.99,2.7,M,-34.3,M,0000,0000*59 
342.751         GPS_NMEA_FROM_GPS    iGPS            $GPRMC,195202.000,A,4144.3567,N,06959.5401,W,0.66,316.58,310321,,,D*7E 
343.653         GPS_NMEA_FROM_GPS    iGPS            $GPGGA,195203.000,4144.3569,N,06959.5402,W,2,11,0.90,2.7,M,-34.3,M,0000,0000*58 
344.656         GPS_NMEA_FROM_GPS    iGPS            $GPGGA,195204.000,4144.3570,N,06959.5404,W,2,11,0.99,2.7,M,-34.3,M,0000,0000*58 
345.658         GPS_NMEA_FROM_GPS    iGPS            $GPGGA,195205.000,4144.3572,N,06959.5405,W,2,11,0.90,2.7,M,-34.3,M,0000,0000*53 
346.762         GPS_NMEA_FROM_GPS    iGPS            $GPRMC,195206.000,A,4144.3574,N,06959.5406,W,0.81,327.94,310321,,,D*74 
347.764         GPS_NMEA_FROM_GPS    iGPS            $GPRMC,195207.000,A,4144.3576,N,06959.5407,W,0.77,330.28,310321,,,D*7E 
348.767         GPS_NMEA_FROM_GPS    iGPS            $GPRMC,195208.000,A,4144.3578,N,06959.5407,W,0.73,331.74,310321,,,D*73 
349.669         GPS_NMEA_FROM_GPS    iGPS            $GPGGA,195209.000,4144.3580,N,06959.5408,W,2,11,0.90,2.9,M,-34.3,M,0000,0000*51 
350.672         GPS_NMEA_FROM_GPS    iGPS            $GPGGA,195210.000,4144.3582,N,06959.5408,W,2,11,0.90,3.0,M,-34.3,M,0000,0000*53 
351.674         GPS_NMEA_FROM_GPS    iGPS            $GPGGA,195211.000,4144.3583,N,06959.5410,W,2,11,0.90,3.0,M,-34.3,M,0000,0000*5A 
352.677         GPS_NMEA_FROM_GPS    iGPS            $GPGGA,195212.000,4144.3584,N,06959.5411,W,2,11,0.99,3.0,M,-34.3,M,0000,0000*56 
353.679         GPS_NMEA_FROM_GPS    iGPS            $GPGGA,195213.000,4144.3586,N,06959.5412,W,2,11,0.99,3.0,M,-34.3,M,0000,0000*56 
354.682         GPS_NMEA_FROM_GPS    iGPS            $GPGGA,195214.000,4144.3587,N,06959.5414,W,2,11,0.90,3.0,M,-34.3,M,0000,0000*5F 
355.685         GPS_NMEA_FROM_GPS    iGPS            $GPGGA,195215.000,4144.3588,N,06959.5416,W,2,11,0.90,3.1,M,-34.3,M,0000,0000*52 
356.687         GPS_NMEA_FROM_GPS    iGPS            $GPGGA,195216.000,4144.3589,N,06959.5418,W,2,11,0.99,3.2,M,-34.3,M,0000,0000*54 
357.690         GPS_NMEA_FROM_GPS    iGPS            $GPGGA,195217.000,4144.3591,N,06959.5419,W,2,11,0.90,3.2,M,-34.3,M,0000,0000*54 
358.693         GPS_NMEA_FROM_GPS    iGPS            $GPRMC,195218.000,A,4144.3593,N,06959.5421,W,0.74,314.19,310321,,,D*78 
359.695         GPS_NMEA_FROM_GPS    iGPS            $GPGGA,195219.000,4144.3595,N,06959.5422,W,2,11,0.90,3.2,M,-34.3,M,0000,0000*56 
360.698         GPS_NMEA_FROM_GPS    iGPS            $GPGGA,195220.000,4144.3597,N,06959.5424,W,2,11,0.90,3.2,M,-34.3,M,0000,0000*58 
361.700         GPS_NMEA_FROM_GPS    iGPS            $GPGGA,195221.000,4144.3599,N,06959.5425,W,2,11,0.90,3.3,M,-34.3,M,0000,0000*57 
362.703         GPS_NMEA_FROM_GPS    iGPS            $GPRMC,195222.000,A,4144.3600,N,06959.5427,W,0.76,320.86,310321,,,D*7D 
363.706         GPS_NMEA_FROM_GPS    iGPS            $GPGGA,195223.000,4144.3602,N,06959.5428,W,2,11,0.90,3.2,M,-34.3,M,0000,0000*58 
364.708         GPS_NMEA_FROM_GPS    iGPS            $GPRMC,195224.000,A,4144.3604,N,06959.5429,W,0.65,319.28,310321,,,D*7D 
365.711         GPS_NMEA_FROM_GPS    iGPS            $GPGGA,195225.000,4144.3605,N,06959.5431,W,2,11,0.90,3.2,M,-34.3,M,0000,0000*51 
366.613         GPS_NMEA_FROM_GPS    iGPS            $GPGGA,195226.000,4144.3607,N,06959.5432,W,2,11,0.90,3.2,M,-34.3,M,0000,0000*53 
367.716         GPS_NMEA_FROM_GPS    iGPS            $GPGGA,195227.000,4144.3609,N,06959.5433,W,2,11,0.99,3.2,M,-34.3,M,0000,0000*54 
368.718         GPS_NMEA_FROM_GPS    iGPS            $GPGGA,195228.000,4144.3610,N,06959.5434,W,2,11,0.90,3.2,M,-34.3,M,0000,0000*5D 
369.721         GPS_NMEA_FROM_GPS    iGPS            $GPGGA,195229.000,4144.3612,N,06959.5435,W,2,11,0.90,3.1,M,-34.3,M,0000,0000*5C 
370.724         GPS_NMEA_FROM_GPS    iGPS            $GPGGA,195230.000,4144.3615,N,06959.5437,W,2,11,0.90,3.1,M,-34.3,M,0000,0000*51 
371.727         GPS_NMEA_FROM_GPS    iGPS            $GPRMC,195231.000,A,4144.3617,N,06959.5438,W,0.82,326.08,310321,,,D*7C 
372.730         GPS_NMEA_FROM_GPS    iGPS            $GPGGA,195232.000,4144.3619,N,06959.5439,W,2,10,1.04,3.0,M,-34.3,M,0000,0000*5D 
373.732         GPS_NMEA_FROM_GPS    iGPS            $GPGGA,195233.000,4144.3621,N,06959.5441,W,2,11,0.90,3.0,M,-34.3,M,0000,0000*55 
374.735         GPS_NMEA_FROM_GPS    iGPS            $GPGGA,195234.000,4144.3623,N,06959.5443,W,2,11,0.90,2.9,M,-34.3,M,0000,0000*5A 
375.638         GPS_NMEA_FROM_GPS    iGPS            $GPGGA,195235.000,4144.3624,N,06959.5444,W,2,11,0.90,2.9,M,-34.3,M,0000,0000*5B 
376.741         GPS_NMEA_FROM_GPS    iGPS            $GPGGA,195236.000,4144.3626,N,06959.5446,W,2,11,0.90,2.9,M,-34.3,M,0000,0000*58 
377.643         GPS_NMEA_FROM_GPS    iGPS            $GPGGA,195237.000,4144.3627,N,06959.5449,W,2,11,0.90,3.0,M,-34.3,M,0000,0000*5F 
378.746         GPS_NMEA_FROM_GPS    iGPS            $GPRMC,195238.000,A,4144.3628,N,06959.5451,W,0.77,315.87,310321,,,D*7B 
379.648         GPS_NMEA_FROM_GPS    iGPS            $GPGGA,195239.000,4144.3630,N,06959.5453,W,2,11,0.90,3.0,M,-34.3,M,0000,0000*5C 
380.651         GPS_NMEA_FROM_GPS    iGPS            $GPGGA,195240.000,4144.3631,N,06959.5455,W,2,11,0.99,3.0,M,-34.3,M,0000,0000*5C 
381.653         GPS_NMEA_FROM_GPS    iGPS            $GPGGA,195241.000,4144.3632,N,06959.5457,W,2,11,0.90,3.1,M,-34.3,M,0000,0000*54 
382.756         GPS_NMEA_FROM_GPS    iGPS            $GPRMC,195242.000,A,4144.3634,N,06959.5458,W,0.67,313.04,310321,,,D*7E 
383.658         GPS_NMEA_FROM_GPS    iGPS            $GPGGA,195243.000,4144.3635,N,06959.5460,W,2,11,0.90,3.2,M,-34.3,M,0000,0000*56 
384.661         GPS_NMEA_FROM_GPS    iGPS            $GPGGA,195244.000,4144.3636,N,06959.5462,W,2,11,0.90,3.2,M,-34.3,M,0000,0000*50 
385.664         GPS_NMEA_FROM_GPS    iGPS            $GPGGA,195245.000,4144.3637,N,06959.5463,W,2,11,0.99,3.2,M,-34.3,M,0000,0000*58 
386.666         GPS_NMEA_FROM_GPS    iGPS            $GPGGA,195246.000,4144.3638,N,06959.5465,W,2,11,0.90,3.2,M,-34.3,M,0000,0000*5B 
387.669         GPS_NMEA_FROM_GPS    iGPS            $GPGGA,195247.000,4144.3638,N,06959.5468,W,2,11,0.90,3.2,M,-34.3,M,0000,0000*57 
388.672         GPS_NMEA_FROM_GPS    iGPS            $GPGGA,195248.000,4144.3639,N,06959.5469,W,2,11,0.90,3.2,M,-34.3,M,0000,0000*58 
389.775         GPS_NMEA_FROM_GPS    iGPS            $GPRMC,195249.000,A,4144.3639,N,06959.5471,W,0.41,293.99,310321,,,D*7A 
390.677         GPS_NMEA_FROM_GPS    iGPS            $GPGGA,195250.000,4144.3639,N,06959.5472,W,2,11,0.99,3.2,M,-34.3,M,0000,0000*52 
391.679         GPS_NMEA_FROM_GPS    iGPS            $GPGGA,195251.000,4144.3639,N,06959.5474,W,2,11,0.99,3.3,M,-34.3,M,0000,0000*54 
392.682         GPS_NMEA_FROM_GPS    iGPS            $GPGGA,195252.000,4144.3639,N,06959.5475,W,2,11,0.99,3.3,M,-34.3,M,0000,0000*56 
393.684         GPS_NMEA_FROM_GPS    iGPS            $GPGGA,195253.000,4144.3638,N,06959.5477,W,2,11,0.99,3.3,M,-34.3,M,0000,0000*54 
394.687         GPS_NMEA_FROM_GPS    iGPS            $GPGGA,195254.000,4144.3638,N,06959.5478,W,2,11,0.99,3.3,M,-34.3,M,0000,0000*5C 
395.690         GPS_NMEA_FROM_GPS    iGPS            $GPGGA,195255.000,4144.3637,N,06959.5478,W,2,11,0.99,3.3,M,-34.3,M,0000,0000*52 
396.693         GPS_NMEA_FROM_GPS    iGPS            $GPGGA,195256.000,4144.3636,N,06959.5479,W,2,11,0.99,3.3,M,-34.3,M,0000,0000*51 
397.695         GPS_NMEA_FROM_GPS    iGPS            $GPGGA,195257.000,4144.3635,N,06959.5479,W,2,11,0.99,3.3,M,-34.3,M,0000,0000*53 
398.698         GPS_NMEA_FROM_GPS    iGPS            $GPGGA,195258.000,4144.3634,N,06959.5479,W,2,11,0.99,3.2,M,-34.3,M,0000,0000*5C 
399.700         GPS_NMEA_FROM_GPS    iGPS            $GPGGA,195259.000,4144.3633,N,06959.5479,W,2,11,0.90,3.2,M,-34.3,M,0000,0000*53 
400.703         GPS_NMEA_FROM_GPS    iGPS            $GPGGA,195300.000,4144.3631,N,06959.5478,W,2,11,0.90,3.2,M,-34.3,M,0000,0000*5D 
401.705         GPS_NMEA_FROM_GPS    iGPS            $GPRMC,195301.000,A,4144.3628,N,06959.5478,W,0.56,165.23,310321,,,D*73 
402.708         GPS_NMEA_FROM_GPS    iGPS            $GPRMC,195302.000,A,4144.3626,N,06959.5478,W,0.56,162.08,310321,,,D*70 
403.710         GPS_NMEA_FROM_GPS    iGPS            $GPRMC,195303.000,A,4144.3624,N,06959.5477,W,0.54,160.99,310321,,,D*74 
404.712         GPS_NMEA_FROM_GPS    iGPS            $GPGGA,195304.000,4144.3623,N,06959.5476,W,2,11,0.90,3.2,M,-34.3,M,0000,0000*54 
405.715         GPS_NMEA_FROM_GPS    iGPS            $GPGGA,195305.000,4144.3621,N,06959.5475,W,2,11,0.90,3.2,M,-34.3,M,0000,0000*54 
406.718         GPS_NMEA_FROM_GPS    iGPS            $GPRMC,195306.000,A,4144.3620,N,06959.5475,W,0.58,160.34,310321,,,D*7C 
407.720         GPS_NMEA_FROM_GPS    iGPS            $GPGGA,195307.000,4144.3618,N,06959.5474,W,2,11,0.99,3.2,M,-34.3,M,0000,0000*54 
408.623         GPS_NMEA_FROM_GPS    iGPS            $GPGGA,195308.000,4144.3617,N,06959.5473,W,2,11,0.99,3.2,M,-34.3,M,0000,0000*53 
409.726         GPS_NMEA_FROM_GPS    iGPS            $GPGGA,195309.000,4144.3615,N,06959.5473,W,2,11,0.99,3.2,M,-34.3,M,0000,0000*50 
410.728         GPS_NMEA_FROM_GPS    iGPS            $GPGGA,195310.000,4144.3614,N,06959.5472,W,2,11,0.99,3.2,M,-34.3,M,0000,0000*58 
411.731         GPS_NMEA_FROM_GPS    iGPS            $GPRMC,195311.000,A,4144.3611,N,06959.5472,W,0.72,161.44,310321,,,D*71 
412.633         GPS_NMEA_FROM_GPS    iGPS            $GPGGA,195312.000,4144.3609,N,06959.5472,W,2,11,0.90,3.2,M,-34.3,M,0000,0000*5F 
413.636         GPS_NMEA_FROM_GPS    iGPS            $GPGGA,195313.000,4144.3606,N,06959.5471,W,2,11,0.90,3.2,M,-34.3,M,0000,0000*52 
414.739         GPS_NMEA_FROM_GPS    iGPS            $GPRMC,195314.000,A,4144.3604,N,06959.5470,W,0.65,157.23,310321,,,D*70 
415.641         GPS_NMEA_FROM_GPS    iGPS            $GPGGA,195315.000,4144.3601,N,06959.5469,W,2,11,0.90,3.0,M,-34.3,M,0000,0000*58 
416.743         GPS_NMEA_FROM_GPS    iGPS            $GPGGA,195316.000,4144.3599,N,06959.5468,W,2,11,0.90,3.1,M,-34.3,M,0000,0000*59 
417.746         GPS_NMEA_FROM_GPS    iGPS            $GPRMC,195317.000,A,4144.3597,N,06959.5466,W,0.67,144.83,310321,,,D*77 
418.648         GPS_NMEA_FROM_GPS    iGPS            $GPGGA,195318.000,4144.3595,N,06959.5464,W,2,11,0.99,2.9,M,-34.3,M,0000,0000*57 
419.751         GPS_NMEA_FROM_GPS    iGPS            $GPRMC,195319.000,A,4144.3593,N,06959.5462,W,0.68,137.69,310321,,,D*76 
420.754         GPS_NMEA_FROM_GPS    iGPS            $GPRMC,195320.000,A,4144.3592,N,06959.5460,W,0.69,134.96,310321,,,D*7D 
421.756         GPS_NMEA_FROM_GPS    iGPS            $GPRMC,195321.000,A,4144.3590,N,06959.5458,W,0.66,132.59,310321,,,D*7F 
422.658         GPS_NMEA_FROM_GPS    iGPS            $GPGGA,195322.000,4144.3588,N,06959.5455,W,2,11,0.90,2.7,M,-34.3,M,0000,0000*57 
423.661         GPS_NMEA_FROM_GPS    iGPS            $GPGGA,195323.000,4144.3586,N,06959.5453,W,2,11,0.90,2.6,M,-34.3,M,0000,0000*5F 
424.664         GPS_NMEA_FROM_GPS    iGPS            $GPGGA,195324.000,4144.3584,N,06959.5452,W,2,11,0.90,2.5,M,-34.3,M,0000,0000*58 
425.767         GPS_NMEA_FROM_GPS    iGPS            $GPRMC,195325.000,A,4144.3582,N,06959.5450,W,0.70,136.39,310321,,,D*75 
426.771         GPS_NMEA_FROM_GPS    iGPS            $GPRMC,195326.000,A,4144.3580,N,06959.5448,W,0.71,138.25,310321,,,D*7F 
427.674         GPS_NMEA_FROM_GPS    iGPS            $GPGGA,195327.000,4144.3578,N,06959.5447,W,2,11,0.90,2.2,M,-34.3,M,0000,0000*5B 
428.676         GPS_NMEA_FROM_GPS    iGPS            $GPGGA,195328.000,4144.3576,N,06959.5446,W,2,11,0.90,2.1,M,-34.3,M,0000,0000*58 
429.679         GPS_NMEA_FROM_GPS    iGPS            $GPGGA,195329.000,4144.3574,N,06959.5444,W,2,11,0.90,2.1,M,-34.3,M,0000,0000*59 
430.682         GPS_NMEA_FROM_GPS    iGPS            $GPGGA,195330.000,4144.3573,N,06959.5443,W,2,11,0.90,2.0,M,-34.3,M,0000,0000*50 
431.684         GPS_NMEA_FROM_GPS    iGPS            $GPGGA,195331.000,4144.3571,N,06959.5441,W,2,11,0.90,2.1,M,-34.3,M,0000,0000*50 
432.687         GPS_NMEA_FROM_GPS    iGPS            $GPGGA,195332.000,4144.3569,N,06959.5440,W,2,11,0.90,2.1,M,-34.3,M,0000,0000*5B 
433.690         GPS_NMEA_FROM_GPS    iGPS            $GPGGA,195333.000,4144.3567,N,06959.5438,W,2,11,0.90,2.0,M,-34.3,M,0000,0000*5A 
434.692         GPS_NMEA_FROM_GPS    iGPS            $GPRMC,195334.000,A,4144.3565,N,06959.5436,W,0.78,137.33,310321,,,D*7F 
435.695         GPS_NMEA_FROM_GPS    iGPS            $GPGGA,195335.000,4144.3563,N,06959.5434,W,2,11,0.90,2.0,M,-34.3,M,0000,0000*54 
436.698         GPS_NMEA_FROM_GPS    iGPS            $GPRMC,195336.000,A,4144.3561,N,06959.5432,W,0.76,137.79,310321,,,D*7D 
437.700         GPS_NMEA_FROM_GPS    iGPS            $GPGGA,195337.000,4144.3558,N,06959.5431,W,2,11,0.90,1.7,M,-34.3,M,0000,0000*5F 
438.703         GPS_NMEA_FROM_GPS    iGPS            $GPGGA,195338.000,4144.3556,N,06959.5428,W,2,11,0.90,1.6,M,-34.3,M,0000,0000*57 
439.605         GPS_NMEA_FROM_GPS    iGPS            $GPGGA,195339.000,4144.3554,N,06959.5426,W,2,11,0.90,1.5,M,-34.3,M,0000,0000*59 
440.708         GPS_NMEA_FROM_GPS    iGPS            $GPGGA,195340.000,4144.3553,N,06959.5425,W,2,11,0.90,1.5,M,-34.3,M,0000,0000*53 
441.711         GPS_NMEA_FROM_GPS    iGPS            $GPGGA,195341.000,4144.3551,N,06959.5423,W,2,11,0.90,1.4,M,-34.3,M,0000,0000*57 
442.714         GPS_NMEA_FROM_GPS    iGPS            $GPGGA,195342.000,4144.3549,N,06959.5421,W,2,11,0.90,1.3,M,-34.3,M,0000,0000*58 
443.717         GPS_NMEA_FROM_GPS    iGPS            $GPRMC,195343.000,A,4144.3547,N,06959.5419,W,0.72,136.04,310321,,,D*7D 
444.619         GPS_NMEA_FROM_GPS    iGPS            $GPGGA,195344.000,4144.3545,N,06959.5417,W,2,11,0.90,1.3,M,-34.3,M,0000,0000*57 
445.622         GPS_NMEA_FROM_GPS    iGPS            $GPGGA,195345.000,4144.3543,N,06959.5416,W,2,11,0.90,1.3,M,-34.3,M,0000,0000*51 
446.725         GPS_NMEA_FROM_GPS    iGPS            $GPGGA,195346.000,4144.3540,N,06959.5415,W,2,11,0.90,1.4,M,-34.3,M,0000,0000*55 
447.728         GPS_NMEA_FROM_GPS    iGPS            $GPRMC,195347.000,A,4144.3539,N,06959.5414,W,0.73,142.85,310321,,,D*76 
448.630         GPS_NMEA_FROM_GPS    iGPS            $GPGGA,195348.000,4144.3537,N,06959.5412,W,2,11,0.90,1.2,M,-34.3,M,0000,0000*5A 
449.733         GPS_NMEA_FROM_GPS    iGPS            $GPGGA,195349.000,4144.3536,N,06959.5411,W,2,11,0.90,1.1,M,-34.3,M,0000,0000*5A 
450.635         GPS_NMEA_FROM_GPS    iGPS            $GPGGA,195350.000,4144.3534,N,06959.5410,W,2,11,0.90,0.9,M,-34.3,M,0000,0000*58 
451.738         GPS_NMEA_FROM_GPS    iGPS            $GPRMC,195351.000,A,4144.3533,N,06959.5408,W,0.63,141.24,310321,,,D*7F 
452.641         GPS_NMEA_FROM_GPS    iGPS            $GPGGA,195352.000,4144.3532,N,06959.5406,W,2,11,0.90,0.9,M,-34.3,M,0000,0000*5B 
