1.663           GPS_NMEA_FROM_GPS    iGPS            $GPRMC,185410.000,A,4144.3388,N,06959.5875,W,0.05,127.38,290321,,,D*78 
2.364           GPS_NMEA_FROM_GPS    iGPS            $GPGGA,185411.000,4144.3388,N,06959.5875,W,2,09,1.29,11.9,M,-34.3,M,0000,0000*6F 
2.364           GPS_NMEA_FROM_GPS    iGPS            $GPGGA,185411.000,4144.3388,N,06959.5875,W,2,09,1.29,11.9,M,-34.3,M,0000,0000*6F 
3.367           GPS_NMEA_FROM_GPS    iGPS            $GPRMC,185412.000,A,4144.3388,N,06959.5875,W,0.07,118.63,290321,,,D*7A 
3.367           GPS_NMEA_FROM_GPS    iGPS            $GPRMC,185412.000,A,4144.3388,N,06959.5875,W,0.07,118.63,290321,,,D*7A 
4.369           GPS_NMEA_FROM_GPS    iGPS            $GPGGA,185413.000,4144.3388,N,06959.5875,W,2,09,1.29,11.9,M,-34.3,M,0000,0000*6D 
5.571           GPS_NMEA_FROM_GPS    iGPS            $GPRMC,185414.000,A,4144.3388,N,06959.5875,W,0.09,112.02,290321,,,D*7F 
6.573           GPS_NMEA_FROM_GPS    iGPS            $GPRMC,185415.000,A,4144.3388,N,06959.5874,W,0.10,122.73,290321,,,D*72 
7.475           GPS_NMEA_FROM_GPS    iGPS            $GPGGA,185416.000,4144.3388,N,06959.5874,W,2,10,0.97,11.9,M,-34.3,M,0000,0000*65 
8.478           GPS_NMEA_FROM_GPS    iGPS            $GPGGA,185417.000,4144.3388,N,06959.5874,W,2,10,0.92,11.9,M,-34.3,M,0000,0000*61 
9.480           GPS_NMEA_FROM_GPS    iGPS            $GPRMC,185418.000,A,4144.3388,N,06959.5874,W,0.11,132.14,290321,,,D*7E 
10.482          GPS_NMEA_FROM_GPS    iGPS            $GPGGA,185419.000,4144.3388,N,06959.5874,W,2,10,0.92,11.9,M,-34.3,M,0000,0000*6F 
11.385          GPS_NMEA_FROM_GPS    iGPS            $GPRMC,185420.000,A,4144.3387,N,06959.5874,W,0.10,122.99,290321,,,D*7F 
11.385          GPS_NMEA_FROM_GPS    iGPS            $GPRMC,185420.000,A,4144.3387,N,06959.5874,W,0.10,122.99,290321,,,D*7F 
12.388          GPS_NMEA_FROM_GPS    iGPS            $GPGGA,185421.000,4144.3387,N,06959.5874,W,2,09,1.29,11.9,M,-34.3,M,0000,0000*62 
12.388          GPS_NMEA_FROM_GPS    iGPS            $GPGGA,185421.000,4144.3387,N,06959.5874,W,2,09,1.29,11.9,M,-34.3,M,0000,0000*62 
13.491          GPS_NMEA_FROM_GPS    iGPS            $GPRMC,185422.000,A,4144.3387,N,06959.5874,W,0.11,131.12,290321,,,D*7D 
14.394          GPS_NMEA_FROM_GPS    iGPS            $GPGGA,185423.000,4144.3387,N,06959.5873,W,2,09,1.06,11.9,M,-34.3,M,0000,0000*6A 
15.396          GPS_NMEA_FROM_GPS    iGPS            $GPRMC,185424.000,A,4144.3387,N,06959.5873,W,0.09,122.23,290321,,,D*75 
16.399          GPS_NMEA_FROM_GPS    iGPS            $GPGGA,185425.000,4144.3387,N,06959.5873,W,2,10,0.92,11.9,M,-34.3,M,0000,0000*68 
17.403          GPS_NMEA_FROM_GPS    iGPS            $GPGGA,185426.000,4144.3387,N,06959.5873,W,2,10,0.97,11.9,M,-34.3,M,0000,0000*6E 
18.405          GPS_NMEA_FROM_GPS    iGPS            $GPGGA,185427.000,4144.3387,N,06959.5873,W,2,10,0.97,11.9,M,-34.3,M,0000,0000*6F 
19.407          GPS_NMEA_FROM_GPS    iGPS            $GPGGA,185428.000,4144.3387,N,06959.5873,W,2,10,0.97,11.9,M,-34.3,M,0000,0000*60 
20.410          GPS_NMEA_FROM_GPS    iGPS            $GPGGA,185429.000,4144.3387,N,06959.5872,W,2,09,1.30,11.9,M,-34.3,M,0000,0000*64 
21.413          GPS_NMEA_FROM_GPS    iGPS            $GPGGA,185430.000,4144.3387,N,06959.5872,W,2,09,1.29,11.9,M,-34.3,M,0000,0000*64 
22.415          GPS_NMEA_FROM_GPS    iGPS            $GPGGA,185431.000,4144.3387,N,06959.5872,W,2,09,1.29,11.9,M,-34.3,M,0000,0000*65 
23.318          GPS_NMEA_FROM_GPS    iGPS            $GPGGA,185432.000,4144.3387,N,06959.5872,W,2,09,1.30,11.9,M,-34.3,M,0000,0000*6E 
24.320          GPS_NMEA_FROM_GPS    iGPS            $GPGGA,185433.000,4144.3387,N,06959.5872,W,2,09,1.29,11.9,M,-34.3,M,0000,0000*67 
24.320          GPS_NMEA_FROM_GPS    iGPS            $GPGGA,185433.000,4144.3387,N,06959.5872,W,2,09,1.29,11.9,M,-34.3,M,0000,0000*67 
25.424          GPS_NMEA_FROM_GPS    iGPS            $GPGGA,185434.000,4144.3387,N,06959.5872,W,2,09,1.30,11.9,M,-34.3,M,0000,0000*68 
26.425          GPS_NMEA_FROM_GPS    iGPS            $GPGGA,185435.000,4144.3387,N,06959.5872,W,2,10,0.97,11.9,M,-34.3,M,0000,0000*6D 
27.428          GPS_NMEA_FROM_GPS    iGPS            $GPRMC,185436.000,A,4144.3387,N,06959.5872,W,0.07,126.95,290321,,,D*70 
28.330          GPS_NMEA_FROM_GPS    iGPS            $GPGGA,185437.000,4144.3387,N,06959.5872,W,2,09,1.30,11.9,M,-34.3,M,0000,0000*6B 
29.333          GPS_NMEA_FROM_GPS    iGPS            $GPGGA,185438.000,4144.3387,N,06959.5872,W,2,09,1.30,11.9,M,-34.3,M,0000,0000*64 
30.436          GPS_NMEA_FROM_GPS    iGPS            $GPGGA,185439.000,4144.3387,N,06959.5872,W,2,09,1.30,11.9,M,-34.3,M,0000,0000*65 
31.540          GPS_NMEA_FROM_GPS    iGPS            $GPGGA,185440.000,4144.3387,N,06959.5872,W,2,10,0.97,11.9,M,-34.3,M,0000,0000*6F 
32.443          GPS_NMEA_FROM_GPS    iGPS            $GPGGA,185441.000,4144.3387,N,06959.5872,W,2,09,1.30,11.9,M,-34.3,M,0000,0000*6A 
33.445          GPS_NMEA_FROM_GPS    iGPS            $GPGGA,185442.000,4144.3387,N,06959.5872,W,2,09,1.30,11.9,M,-34.3,M,0000,0000*69 
34.448          GPS_NMEA_FROM_GPS    iGPS            $GPGGA,185443.000,4144.3387,N,06959.5872,W,2,09,1.30,11.9,M,-34.3,M,0000,0000*68 
35.450          GPS_NMEA_FROM_GPS    iGPS            $GPGGA,185444.000,4144.3387,N,06959.5872,W,2,09,1.30,11.9,M,-34.3,M,0000,0000*6F 
36.353          GPS_NMEA_FROM_GPS    iGPS            $GPGGA,185445.000,4144.3387,N,06959.5872,W,2,09,1.30,11.9,M,-34.3,M,0000,0000*6E 
37.356          GPS_NMEA_FROM_GPS    iGPS            $GPGGA,185446.000,4144.3387,N,06959.5872,W,2,09,1.30,11.9,M,-34.3,M,0000,0000*6D 
38.459          GPS_NMEA_FROM_GPS    iGPS            $GPRMC,185447.000,A,4144.3387,N,06959.5872,W,0.03,122.41,290321,,,D*7F 
39.361          GPS_NMEA_FROM_GPS    iGPS            $GPGGA,185448.000,4144.3387,N,06959.5872,W,2,09,1.30,11.9,M,-34.3,M,0000,0000*63 
40.363          GPS_NMEA_FROM_GPS    iGPS            $GPGGA,185449.000,4144.3387,N,06959.5872,W,2,09,1.30,11.9,M,-34.3,M,0000,0000*62 
41.366          GPS_NMEA_FROM_GPS    iGPS            $GPGGA,185450.000,4144.3387,N,06959.5872,W,2,09,1.30,11.9,M,-34.3,M,0000,0000*6A 
42.368          GPS_NMEA_FROM_GPS    iGPS            $GPGGA,185451.000,4144.3387,N,06959.5872,W,2,09,1.30,11.9,M,-34.3,M,0000,0000*6B 
43.371          GPS_NMEA_FROM_GPS    iGPS            $GPGGA,185452.000,4144.3387,N,06959.5872,W,2,09,1.30,11.9,M,-34.3,M,0000,0000*68 
44.373          GPS_NMEA_FROM_GPS    iGPS            $GPGGA,185453.000,4144.3387,N,06959.5872,W,2,09,1.30,11.9,M,-34.3,M,0000,0000*69 
45.376          GPS_NMEA_FROM_GPS    iGPS            $GPGGA,185454.000,4144.3387,N,06959.5872,W,2,09,1.30,11.9,M,-34.3,M,0000,0000*6E 
46.378          GPS_NMEA_FROM_GPS    iGPS            $GPGGA,185455.000,4144.3387,N,06959.5872,W,2,09,1.30,11.9,M,-34.3,M,0000,0000*6F 
47.381          GPS_NMEA_FROM_GPS    iGPS            $GPGGA,185456.000,4144.3387,N,06959.5872,W,2,09,1.30,11.9,M,-34.3,M,0000,0000*6C 
48.484          GPS_NMEA_FROM_GPS    iGPS            $GPGGA,185457.000,4144.3387,N,06959.5872,W,2,09,1.30,11.9,M,-34.3,M,0000,0000*6D 
49.487          GPS_NMEA_FROM_GPS    iGPS            $GPRMC,185458.000,A,4144.3387,N,06959.5872,W,0.03,124.53,290321,,,D*74 
50.489          GPS_NMEA_FROM_GPS    iGPS            $GPRMC,185459.000,A,4144.3387,N,06959.5872,W,0.03,120.65,290321,,,D*74 
51.391          GPS_NMEA_FROM_GPS    iGPS            $GPGGA,185500.000,4144.3387,N,06959.5872,W,2,09,1.30,11.9,M,-34.3,M,0000,0000*6E 
52.494          GPS_NMEA_FROM_GPS    iGPS            $GPGGA,185501.000,4144.3387,N,06959.5872,W,2,09,1.30,11.9,M,-34.3,M,0000,0000*6F 
53.497          GPS_NMEA_FROM_GPS    iGPS            $GPRMC,185502.000,A,4144.3387,N,06959.5872,W,0.03,114.96,290321,,,D*70 
54.500          GPS_NMEA_FROM_GPS    iGPS            $GPGGA,185503.000,4144.3387,N,06959.5872,W,2,09,1.30,11.9,M,-34.3,M,0000,0000*6D 
55.503          GPS_NMEA_FROM_GPS    iGPS            $GPGGA,185504.000,4144.3387,N,06959.5872,W,2,09,1.30,11.9,M,-34.3,M,0000,0000*6A 
56.406          GPS_NMEA_FROM_GPS    iGPS            $GPGGA,185505.000,4144.3387,N,06959.5872,W,2,09,1.30,11.9,M,-34.3,M,0000,0000*6B 
57.409          GPS_NMEA_FROM_GPS    iGPS            $GPGGA,185506.000,4144.3387,N,06959.5872,W,2,09,1.30,11.9,M,-34.3,M,0000,0000*68 
58.412          GPS_NMEA_FROM_GPS    iGPS            $GPGGA,185507.000,4144.3387,N,06959.5872,W,2,09,1.30,11.9,M,-34.3,M,0000,0000*69 
59.414          GPS_NMEA_FROM_GPS    iGPS            $GPGGA,185508.000,4144.3387,N,06959.5872,W,2,09,1.30,11.9,M,-34.3,M,0000,0000*66 
60.517          GPS_NMEA_FROM_GPS    iGPS            $GPGGA,185509.000,4144.3387,N,06959.5872,W,2,09,1.30,11.9,M,-34.3,M,0000,0000*67 
61.419          GPS_NMEA_FROM_GPS    iGPS            $GPGGA,185510.000,4144.3387,N,06959.5872,W,2,09,1.30,11.9,M,-34.3,M,0000,0000*6F 
62.422          GPS_NMEA_FROM_GPS    iGPS            $GPGGA,185511.000,4144.3387,N,06959.5872,W,2,09,1.30,11.9,M,-34.3,M,0000,0000*6E 
63.425          GPS_NMEA_FROM_GPS    iGPS            $GPGGA,185512.000,4144.3387,N,06959.5872,W,2,09,1.30,11.9,M,-34.3,M,0000,0000*6D 
64.528          GPS_NMEA_FROM_GPS    iGPS            $GPGGA,185513.000,4144.3387,N,06959.5872,W,2,09,1.30,11.9,M,-34.3,M,0000,0000*6C 
65.531          GPS_NMEA_FROM_GPS    iGPS            $GPRMC,185514.000,A,4144.3387,N,06959.5872,W,0.03,123.66,290321,,,D*7C 
66.533          GPS_NMEA_FROM_GPS    iGPS            $GPRMC,185515.000,A,4144.3387,N,06959.5872,W,0.04,115.63,290321,,,D*7A 
67.436          GPS_NMEA_FROM_GPS    iGPS            $GPGGA,185516.000,4144.3387,N,06959.5872,W,2,09,1.30,11.9,M,-34.3,M,0000,0000*69 
68.538          GPS_NMEA_FROM_GPS    iGPS            $GPRMC,185517.000,A,4144.3387,N,06959.5872,W,0.03,127.12,290321,,,D*78 
69.340          GPS_NMEA_FROM_GPS    iGPS            $GPGGA,185518.000,4144.3387,N,06959.5872,W,2,09,1.30,11.9,M,-34.3,M,0000,0000*67 
70.343          GPS_NMEA_FROM_GPS    iGPS            $GPGGA,185519.000,4144.3387,N,06959.5872,W,2,09,1.30,11.9,M,-34.3,M,0000,0000*66 
71.350          GPS_NMEA_FROM_GPS    iGPS            $GPGGA,185520.000,4144.3387,N,06959.5871,W,2,09,1.30,11.9,M,-34.3,M,0000,0000*6F 
72.353          GPS_NMEA_FROM_GPS    iGPS            $GPGGA,185521.000,4144.3387,N,06959.5871,W,2,09,1.30,11.9,M,-34.3,M,0000,0000*6E 
73.556          GPS_NMEA_FROM_GPS    iGPS            $GPGGA,185522.000,4144.3387,N,06959.5871,W,2,10,0.98,11.9,M,-34.3,M,0000,0000*66 
74.559          GPS_NMEA_FROM_GPS    iGPS            $GPGGA,185523.000,4144.3387,N,06959.5871,W,2,10,0.98,11.9,M,-34.3,M,0000,0000*67 
75.462          GPS_NMEA_FROM_GPS    iGPS            $GPGGA,185524.000,4144.3386,N,06959.5871,W,2,10,0.98,11.9,M,-34.3,M,0000,0000*61 
76.465          GPS_NMEA_FROM_GPS    iGPS            $GPRMC,185525.000,A,4144.3386,N,06959.5871,W,0.05,141.88,290321,,,D*7E 
77.367          GPS_NMEA_FROM_GPS    iGPS            $GPGGA,185526.000,4144.3386,N,06959.5871,W,2,09,1.30,11.9,M,-34.3,M,0000,0000*68 
78.369          GPS_NMEA_FROM_GPS    iGPS            $GPGGA,185527.000,4144.3386,N,06959.5871,W,2,09,1.30,11.9,M,-34.3,M,0000,0000*69 
79.373          GPS_NMEA_FROM_GPS    iGPS            $GPGGA,185528.000,4144.3386,N,06959.5871,W,2,09,1.30,11.9,M,-34.3,M,0000,0000*66 
80.375          GPS_NMEA_FROM_GPS    iGPS            $GPGGA,185529.000,4144.3386,N,06959.5871,W,2,09,1.30,11.9,M,-34.3,M,0000,0000*67 
81.479          GPS_NMEA_FROM_GPS    iGPS            $GPRMC,185530.000,A,4144.3386,N,06959.5871,W,0.05,134.83,290321,,,D*73 
82.381          GPS_NMEA_FROM_GPS    iGPS            $GPGGA,185531.000,4144.3386,N,06959.5871,W,2,09,1.30,11.9,M,-34.3,M,0000,0000*6E 
83.384          GPS_NMEA_FROM_GPS    iGPS            $GPGGA,185532.000,4144.3386,N,06959.5871,W,2,09,1.30,11.9,M,-34.3,M,0000,0000*6D 
84.386          GPS_NMEA_FROM_GPS    iGPS            $GPGGA,185533.000,4144.3386,N,06959.5871,W,2,09,1.30,11.9,M,-34.3,M,0000,0000*6C 
85.388          GPS_NMEA_FROM_GPS    iGPS            $GPGGA,185534.000,4144.3386,N,06959.5871,W,2,09,1.30,11.9,M,-34.3,M,0000,0000*6B 
86.391          GPS_NMEA_FROM_GPS    iGPS            $GPGGA,185535.000,4144.3386,N,06959.5871,W,2,09,1.30,11.9,M,-34.3,M,0000,0000*6A 
87.394          GPS_NMEA_FROM_GPS    iGPS            $GPGGA,185536.000,4144.3386,N,06959.5871,W,2,09,1.30,11.9,M,-34.3,M,0000,0000*69 
88.397          GPS_NMEA_FROM_GPS    iGPS            $GPGGA,185537.000,4144.3386,N,06959.5871,W,2,09,1.30,11.9,M,-34.3,M,0000,0000*68 
89.399          GPS_NMEA_FROM_GPS    iGPS            $GPGGA,185538.000,4144.3386,N,06959.5871,W,2,09,1.30,11.9,M,-34.3,M,0000,0000*67 
90.402          GPS_NMEA_FROM_GPS    iGPS            $GPGGA,185539.000,4144.3386,N,06959.5871,W,2,09,1.30,11.9,M,-34.3,M,0000,0000*66 
91.405          GPS_NMEA_FROM_GPS    iGPS            $GPRMC,185540.000,A,4144.3386,N,06959.5871,W,0.02,146.42,290321,,,D*7B 
92.407          GPS_NMEA_FROM_GPS    iGPS            $GPRMC,185541.000,A,4144.3386,N,06959.5871,W,0.04,155.12,290321,,,D*7B 
93.309          GPS_NMEA_FROM_GPS    iGPS            $GPGGA,185542.000,4144.3386,N,06959.5871,W,2,08,1.34,11.9,M,-34.3,M,0000,0000*6F 
94.312          GPS_NMEA_FROM_GPS    iGPS            $GPGGA,185543.000,4144.3386,N,06959.5871,W,2,08,1.34,11.9,M,-34.3,M,0000,0000*6E 
95.515          GPS_NMEA_FROM_GPS    iGPS            $GPRMC,185544.000,A,4144.3386,N,06959.5871,W,0.18,242.25,290321,,,D*72 
96.317          GPS_NMEA_FROM_GPS    iGPS            $GPGGA,185545.000,4144.3386,N,06959.5871,W,2,09,1.30,11.9,M,-34.3,M,0000,0000*6D 
97.420          GPS_NMEA_FROM_GPS    iGPS            $GPGGA,185546.000,4144.3386,N,06959.5871,W,2,09,1.30,11.9,M,-34.3,M,0000,0000*6E 
98.422          GPS_NMEA_FROM_GPS    iGPS            $GPGGA,185547.000,4144.3386,N,06959.5871,W,2,09,1.30,11.9,M,-34.3,M,0000,0000*6F 
99.325          GPS_NMEA_FROM_GPS    iGPS            $GPGGA,185548.000,4144.3386,N,06959.5872,W,2,09,1.30,11.9,M,-34.3,M,0000,0000*63 
100.327         GPS_NMEA_FROM_GPS    iGPS            $GPGGA,185549.000,4144.3386,N,06959.5872,W,2,09,1.30,11.9,M,-34.3,M,0000,0000*62 
101.430         GPS_NMEA_FROM_GPS    iGPS            $GPRMC,185550.000,A,4144.3386,N,06959.5872,W,0.15,267.77,290321,,,D*79 
102.332         GPS_NMEA_FROM_GPS    iGPS            $GPGGA,185551.000,4144.3386,N,06959.5872,W,2,09,1.30,11.9,M,-34.3,M,0000,0000*6B 
103.335         GPS_NMEA_FROM_GPS    iGPS            $GPGGA,185552.000,4144.3386,N,06959.5872,W,2,08,1.34,11.9,M,-34.3,M,0000,0000*6D 
104.338         GPS_NMEA_FROM_GPS    iGPS            $GPGGA,185553.000,4144.3386,N,06959.5873,W,2,08,1.34,11.9,M,-34.3,M,0000,0000*6D 
105.341         GPS_NMEA_FROM_GPS    iGPS            $GPGGA,185554.000,4144.3387,N,06959.5874,W,2,09,1.06,11.9,M,-34.3,M,0000,0000*6C 
106.345         GPS_NMEA_FROM_GPS    iGPS            $GPGGA,185555.000,4144.3388,N,06959.5877,W,2,09,1.06,11.8,M,-34.3,M,0000,0000*60 
107.447         GPS_NMEA_FROM_GPS    iGPS            $GPRMC,185556.000,A,4144.3389,N,06959.5879,W,0.74,304.59,290321,,,D*74 
108.349         GPS_NMEA_FROM_GPS    iGPS            $GPGGA,185557.000,4144.3391,N,06959.5881,W,2,09,1.06,11.8,M,-34.3,M,0000,0000*63 
109.452         GPS_NMEA_FROM_GPS    iGPS            $GPRMC,185558.000,A,4144.3392,N,06959.5883,W,0.53,308.04,290321,,,D*74 
110.354         GPS_NMEA_FROM_GPS    iGPS            $GPGGA,185559.000,4144.3393,N,06959.5885,W,2,09,1.06,11.7,M,-34.3,M,0000,0000*64 
111.457         GPS_NMEA_FROM_GPS    iGPS            $GPRMC,185600.000,A,4144.3394,N,06959.5886,W,0.73,311.38,290321,,,D*7C 
112.359         GPS_NMEA_FROM_GPS    iGPS            $GPGGA,185601.000,4144.3395,N,06959.5888,W,2,09,1.06,11.7,M,-34.3,M,0000,0000*61 
113.362         GPS_NMEA_FROM_GPS    iGPS            $GPGGA,185602.000,4144.3396,N,06959.5889,W,2,09,1.06,11.6,M,-34.3,M,0000,0000*61 
114.365         GPS_NMEA_FROM_GPS    iGPS            $GPGGA,185603.000,4144.3397,N,06959.5890,W,2,09,1.06,11.7,M,-34.3,M,0000,0000*68 
115.468         GPS_NMEA_FROM_GPS    iGPS            $GPGGA,185604.000,4144.3398,N,06959.5891,W,2,09,1.30,11.6,M,-34.3,M,0000,0000*65 
116.370         GPS_NMEA_FROM_GPS    iGPS            $GPGGA,185605.000,4144.3400,N,06959.5893,W,2,09,1.06,11.6,M,-34.3,M,0000,0000*65 
117.373         GPS_NMEA_FROM_GPS    iGPS            $GPGGA,185606.000,4144.3401,N,06959.5895,W,2,09,1.06,11.6,M,-34.3,M,0000,0000*61 
118.375         GPS_NMEA_FROM_GPS    iGPS            $GPGGA,185607.000,4144.3403,N,06959.5896,W,2,09,1.06,11.5,M,-34.3,M,0000,0000*62 
119.377         GPS_NMEA_FROM_GPS    iGPS            $GPGGA,185608.000,4144.3404,N,06959.5898,W,2,09,1.06,11.5,M,-34.3,M,0000,0000*64 
120.481         GPS_NMEA_FROM_GPS    iGPS            $GPRMC,185609.000,A,4144.3406,N,06959.5900,W,0.76,316.93,290321,,,D*75 
121.382         GPS_NMEA_FROM_GPS    iGPS            $GPGGA,185610.000,4144.3407,N,06959.5902,W,2,09,1.06,11.4,M,-34.3,M,0000,0000*6D 
122.385         GPS_NMEA_FROM_GPS    iGPS            $GPRMC,185611.000,A,4144.3409,N,06959.5904,W,0.76,316.43,290321,,,D*7A 
123.387         GPS_NMEA_FROM_GPS    iGPS            $GPGGA,185612.000,4144.3410,N,06959.5906,W,2,08,1.09,11.4,M,-34.3,M,0000,0000*63 
124.390         GPS_NMEA_FROM_GPS    iGPS            $GPRMC,185613.000,A,4144.3411,N,06959.5908,W,0.47,314.54,290321,,,D*7B 
125.393         GPS_NMEA_FROM_GPS    iGPS            $GPGGA,185614.000,4144.3412,N,06959.5909,W,2,09,1.06,11.4,M,-34.3,M,0000,0000*66 
126.395         GPS_NMEA_FROM_GPS    iGPS            $GPGGA,185615.000,4144.3412,N,06959.5910,W,2,09,1.30,11.4,M,-34.3,M,0000,0000*6A 
127.397         GPS_NMEA_FROM_GPS    iGPS            $GPRMC,185616.000,A,4144.3413,N,06959.5912,W,0.34,312.87,290321,,,D*7B 
128.399         GPS_NMEA_FROM_GPS    iGPS            $GPGGA,185617.000,4144.3414,N,06959.5913,W,2,09,1.06,11.5,M,-34.3,M,0000,0000*69 
129.402         GPS_NMEA_FROM_GPS    iGPS            $GPRMC,185618.000,A,4144.3414,N,06959.5913,W,0.26,313.37,290321,,,D*7A 
130.406         GPS_NMEA_FROM_GPS    iGPS            $GPGGA,185619.000,4144.3415,N,06959.5914,W,2,09,1.06,11.5,M,-34.3,M,0000,0000*61 
131.509         GPS_NMEA_FROM_GPS    iGPS            $GPRMC,185620.000,A,4144.3415,N,06959.5915,W,0.19,313.14,290321,,,D*7B 
132.411         GPS_NMEA_FROM_GPS    iGPS            $GPGGA,185621.000,4144.3415,N,06959.5915,W,2,10,0.92,11.5,M,-34.3,M,0000,0000*6F 
133.313         GPS_NMEA_FROM_GPS    iGPS            $GPGGA,185622.000,4144.3416,N,06959.5916,W,2,09,1.06,11.5,M,-34.3,M,0000,0000*68 
134.316         GPS_NMEA_FROM_GPS    iGPS            $GPGGA,185623.000,4144.3416,N,06959.5916,W,2,08,1.11,11.5,M,-34.3,M,0000,0000*6E 
135.319         GPS_NMEA_FROM_GPS    iGPS            $GPGGA,185624.000,4144.3416,N,06959.5917,W,2,08,1.11,11.5,M,-34.3,M,0000,0000*68 
136.321         GPS_NMEA_FROM_GPS    iGPS            $GPGGA,185625.000,4144.3417,N,06959.5917,W,2,07,1.19,11.5,M,-34.3,M,0000,0000*6F 
137.324         GPS_NMEA_FROM_GPS    iGPS            $GPGGA,185626.000,4144.3417,N,06959.5918,W,2,07,1.19,11.5,M,-34.3,M,0000,0000*63 
138.427         GPS_NMEA_FROM_GPS    iGPS            $GPGGA,185627.000,4144.3417,N,06959.5918,W,2,08,1.08,11.5,M,-34.3,M,0000,0000*6D 
139.430         GPS_NMEA_FROM_GPS    iGPS            $GPGGA,185628.000,4144.3417,N,06959.5919,W,2,08,1.08,11.5,M,-34.3,M,0000,0000*63 
140.433         GPS_NMEA_FROM_GPS    iGPS            $GPGGA,185629.000,4144.3417,N,06959.5919,W,2,08,1.09,11.4,M,-34.3,M,0000,0000*62 
141.436         GPS_NMEA_FROM_GPS    iGPS            $GPGGA,185630.000,4144.3418,N,06959.5920,W,2,08,1.09,11.4,M,-34.3,M,0000,0000*6F 
142.438         GPS_NMEA_FROM_GPS    iGPS            $GPGGA,185631.000,4144.3418,N,06959.5920,W,2,08,1.09,11.5,M,-34.3,M,0000,0000*6F 
143.342         GPS_NMEA_FROM_GPS    iGPS            $GPRMC,185632.000,A,4144.3418,N,06959.5921,W,0.11,294.83,290321,,,D*7A 
144.344         GPS_NMEA_FROM_GPS    iGPS            $GPRMC,185633.000,A,4144.3418,N,06959.5921,W,0.12,297.46,290321,,,D*72 
145.346         GPS_NMEA_FROM_GPS    iGPS            $GPRMC,185634.000,A,4144.3418,N,06959.5921,W,0.11,287.98,290321,,,D*74 
146.349         GPS_NMEA_FROM_GPS    iGPS            $GPGGA,185635.000,4144.3418,N,06959.5922,W,2,07,1.19,11.4,M,-34.3,M,0000,0000*66 
147.251         GPS_NMEA_FROM_GPS    iGPS            $GPGGA,185636.000,4144.3418,N,06959.5922,W,2,07,1.19,11.4,M,-34.3,M,0000,0000*65 
148.354         GPS_NMEA_FROM_GPS    iGPS            $GPRMC,185637.000,A,4144.3418,N,06959.5922,W,0.08,284.15,290321,,,D*7A 
149.356         GPS_NMEA_FROM_GPS    iGPS            $GPGGA,185638.000,4144.3418,N,06959.5923,W,2,07,1.19,11.4,M,-34.3,M,0000,0000*6A 
150.259         GPS_NMEA_FROM_GPS    iGPS            $GPGGA,185639.000,4144.3418,N,06959.5923,W,2,07,1.19,11.4,M,-34.3,M,0000,0000*6B 
151.361         GPS_NMEA_FROM_GPS    iGPS            $GPGGA,185640.000,4144.3418,N,06959.5923,W,2,07,1.19,11.3,M,-34.3,M,0000,0000*62 
152.364         GPS_NMEA_FROM_GPS    iGPS            $GPGGA,185641.000,4144.3418,N,06959.5924,W,2,07,1.19,11.3,M,-34.3,M,0000,0000*64 
153.367         GPS_NMEA_FROM_GPS    iGPS            $GPRMC,185642.000,A,4144.3418,N,06959.5924,W,0.06,268.78,290321,,,D*79 
154.369         GPS_NMEA_FROM_GPS    iGPS            $GPGGA,185643.000,4144.3418,N,06959.5924,W,2,07,1.41,11.3,M,-34.3,M,0000,0000*6B 
155.272         GPS_NMEA_FROM_GPS    iGPS            $GPGGA,185644.000,4144.3418,N,06959.5924,W,2,07,1.41,11.3,M,-34.3,M,0000,0000*6C 
156.274         GPS_NMEA_FROM_GPS    iGPS            $GPGGA,185645.000,4144.3418,N,06959.5924,W,2,07,1.41,11.3,M,-34.3,M,0000,0000*6D 
157.378         GPS_NMEA_FROM_GPS    iGPS            $GPRMC,185646.000,A,4144.3418,N,06959.5924,W,0.05,244.10,290321,,,D*7E 
158.380         GPS_NMEA_FROM_GPS    iGPS            $GPRMC,185647.000,A,4144.3418,N,06959.5924,W,0.04,274.73,290321,,,D*78 
159.282         GPS_NMEA_FROM_GPS    iGPS            $GPGGA,185648.000,4144.3418,N,06959.5924,W,2,07,1.41,11.3,M,-34.3,M,0000,0000*60 
160.385         GPS_NMEA_FROM_GPS    iGPS            $GPGGA,185649.000,4144.3418,N,06959.5924,W,2,08,1.34,11.3,M,-34.3,M,0000,0000*6C 
161.388         GPS_NMEA_FROM_GPS    iGPS            $GPRMC,185650.000,A,4144.3418,N,06959.5924,W,0.04,226.51,290321,,,D*79 
162.490         GPS_NMEA_FROM_GPS    iGPS            $GPGGA,185651.000,4144.3418,N,06959.5924,W,2,08,1.11,11.3,M,-34.3,M,0000,0000*62 
163.393         GPS_NMEA_FROM_GPS    iGPS            $GPGGA,185652.000,4144.3418,N,06959.5924,W,2,08,1.33,11.3,M,-34.3,M,0000,0000*61 
164.296         GPS_NMEA_FROM_GPS    iGPS            $GPGGA,185653.000,4144.3418,N,06959.5924,W,2,08,1.33,11.3,M,-34.3,M,0000,0000*60 
165.399         GPS_NMEA_FROM_GPS    iGPS            $GPGGA,185654.000,4144.3418,N,06959.5924,W,2,08,1.33,11.3,M,-34.3,M,0000,0000*67 
166.401         GPS_NMEA_FROM_GPS    iGPS            $GPGGA,185655.000,4144.3418,N,06959.5924,W,2,08,1.33,11.4,M,-34.3,M,0000,0000*61 
167.304         GPS_NMEA_FROM_GPS    iGPS            $GPGGA,185656.000,4144.3418,N,06959.5924,W,2,07,1.41,11.4,M,-34.3,M,0000,0000*68 
168.407         GPS_NMEA_FROM_GPS    iGPS            $GPRMC,185657.000,A,4144.3418,N,06959.5924,W,0.08,151.49,290321,,,D*78 
169.309         GPS_NMEA_FROM_GPS    iGPS            $GPGGA,185658.000,4144.3418,N,06959.5924,W,2,08,1.34,11.4,M,-34.3,M,0000,0000*6B 
170.512         GPS_NMEA_FROM_GPS    iGPS            $GPRMC,185659.000,A,4144.3418,N,06959.5924,W,0.05,130.45,290321,,,D*70 
171.514         GPS_NMEA_FROM_GPS    iGPS            $GPRMC,185700.000,A,4144.3418,N,06959.5924,W,0.06,144.80,290321,,,D*74 
172.416         GPS_NMEA_FROM_GPS    iGPS            $GPGGA,185701.000,4144.3418,N,06959.5924,W,2,09,1.30,11.4,M,-34.3,M,0000,0000*63 
173.419         GPS_NMEA_FROM_GPS    iGPS            $GPGGA,185702.000,4144.3418,N,06959.5924,W,2,09,1.30,11.4,M,-34.3,M,0000,0000*60 
174.422         GPS_NMEA_FROM_GPS    iGPS            $GPRMC,185703.000,A,4144.3418,N,06959.5924,W,0.05,175.41,290321,,,D*7B 
175.324         GPS_NMEA_FROM_GPS    iGPS            $GPGGA,185704.000,4144.3418,N,06959.5924,W,2,09,1.30,11.4,M,-34.3,M,0000,0000*66 
176.326         GPS_NMEA_FROM_GPS    iGPS            $GPGGA,185705.000,4144.3418,N,06959.5924,W,2,08,1.33,11.4,M,-34.3,M,0000,0000*65 
177.429         GPS_NMEA_FROM_GPS    iGPS            $GPGGA,185706.000,4144.3418,N,06959.5924,W,2,09,1.30,11.4,M,-34.3,M,0000,0000*64 
178.432         GPS_NMEA_FROM_GPS    iGPS            $GPGGA,185707.000,4144.3418,N,06959.5923,W,2,09,1.30,11.4,M,-34.3,M,0000,0000*62 
179.535         GPS_NMEA_FROM_GPS    iGPS            $GPRMC,185708.000,A,4144.3418,N,06959.5923,W,0.05,171.26,290321,,,D*72 
180.538         GPS_NMEA_FROM_GPS    iGPS            $GPRMC,185709.000,A,4144.3418,N,06959.5923,W,0.06,171.87,290321,,,D*7B 
181.440         GPS_NMEA_FROM_GPS    iGPS            $GPGGA,185710.000,4144.3418,N,06959.5923,W,2,10,0.98,11.4,M,-34.3,M,0000,0000*6F 
182.543         GPS_NMEA_FROM_GPS    iGPS            $GPRMC,185711.000,A,4144.3418,N,06959.5923,W,0.03,180.09,290321,,,D*7F 
183.546         GPS_NMEA_FROM_GPS    iGPS            $GPRMC,185712.000,A,4144.3418,N,06959.5923,W,0.03,214.84,290321,,,D*77 
184.448         GPS_NMEA_FROM_GPS    iGPS            $GPGGA,185713.000,4144.3418,N,06959.5923,W,2,09,1.03,11.4,M,-34.3,M,0000,0000*67 
185.451         GPS_NMEA_FROM_GPS    iGPS            $GPGGA,185714.000,4144.3418,N,06959.5923,W,2,09,1.03,11.4,M,-34.3,M,0000,0000*60 
186.554         GPS_NMEA_FROM_GPS    iGPS            $GPGGA,185715.000,4144.3418,N,06959.5924,W,2,10,0.98,11.4,M,-34.3,M,0000,0000*6D 
187.456         GPS_NMEA_FROM_GPS    iGPS            $GPGGA,185716.000,4144.3418,N,06959.5924,W,2,10,0.98,11.4,M,-34.3,M,0000,0000*6E 
188.360         GPS_NMEA_FROM_GPS    iGPS            $GPGGA,185717.000,4144.3418,N,06959.5924,W,2,10,0.98,11.4,M,-34.3,M,0000,0000*6F 
189.363         GPS_NMEA_FROM_GPS    iGPS            $GPGGA,185718.000,4144.3418,N,06959.5924,W,2,10,0.98,11.4,M,-34.3,M,0000,0000*60 
190.365         GPS_NMEA_FROM_GPS    iGPS            $GPGGA,185719.000,4144.3418,N,06959.5924,W,2,10,0.98,11.4,M,-34.3,M,0000,0000*61 
191.368         GPS_NMEA_FROM_GPS    iGPS            $GPGGA,185720.000,4144.3418,N,06959.5924,W,2,10,0.98,11.4,M,-34.3,M,0000,0000*6B 
192.470         GPS_NMEA_FROM_GPS    iGPS            $GPGGA,185721.000,4144.3418,N,06959.5924,W,2,09,0.96,11.4,M,-34.3,M,0000,0000*6C 
193.373         GPS_NMEA_FROM_GPS    iGPS            $GPGGA,185722.000,4144.3418,N,06959.5924,W,2,08,1.09,11.4,M,-34.3,M,0000,0000*69 
194.376         GPS_NMEA_FROM_GPS    iGPS            $GPGGA,185723.000,4144.3418,N,06959.5925,W,2,09,0.96,11.4,M,-34.3,M,0000,0000*6F 
195.479         GPS_NMEA_FROM_GPS    iGPS            $GPRMC,185724.000,A,4144.3418,N,06959.5925,W,0.15,274.40,290321,,,D*7D 
196.381         GPS_NMEA_FROM_GPS    iGPS            $GPGGA,185725.000,4144.3418,N,06959.5926,W,2,10,0.92,11.4,M,-34.3,M,0000,0000*66 
197.384         GPS_NMEA_FROM_GPS    iGPS            $GPRMC,185726.000,A,4144.3418,N,06959.5926,W,0.13,262.62,290321,,,D*7D 
198.387         GPS_NMEA_FROM_GPS    iGPS            $GPRMC,185727.000,A,4144.3418,N,06959.5926,W,0.11,265.22,290321,,,D*7D 
199.389         GPS_NMEA_FROM_GPS    iGPS            $GPRMC,185728.000,A,4144.3418,N,06959.5926,W,0.10,282.05,290321,,,D*7F 
200.392         GPS_NMEA_FROM_GPS    iGPS            $GPGGA,185729.000,4144.3418,N,06959.5926,W,2,09,1.30,11.5,M,-34.3,M,0000,0000*6A 
201.395         GPS_NMEA_FROM_GPS    iGPS            $GPGGA,185730.000,4144.3418,N,06959.5926,W,2,09,1.30,11.5,M,-34.3,M,0000,0000*62 
202.398         GPS_NMEA_FROM_GPS    iGPS            $GPGGA,185731.000,4144.3418,N,06959.5926,W,2,10,0.98,11.5,M,-34.3,M,0000,0000*68 
203.501         GPS_NMEA_FROM_GPS    iGPS            $GPRMC,185732.000,A,4144.3418,N,06959.5927,W,0.06,286.71,290321,,,D*75 
204.403         GPS_NMEA_FROM_GPS    iGPS            $GPGGA,185733.000,4144.3418,N,06959.5927,W,2,10,0.98,11.5,M,-34.3,M,0000,0000*6B 
205.406         GPS_NMEA_FROM_GPS    iGPS            $GPRMC,185734.000,A,4144.3418,N,06959.5927,W,0.07,262.55,290321,,,D*7E 
206.308         GPS_NMEA_FROM_GPS    iGPS            $GPGGA,185735.000,4144.3418,N,06959.5927,W,2,09,1.30,11.5,M,-34.3,M,0000,0000*66 
207.410         GPS_NMEA_FROM_GPS    iGPS            $GPGGA,185736.000,4144.3418,N,06959.5927,W,2,10,0.98,11.5,M,-34.3,M,0000,0000*6E 
208.414         GPS_NMEA_FROM_GPS    iGPS            $GPGGA,185737.000,4144.3418,N,06959.5927,W,2,09,1.30,11.5,M,-34.3,M,0000,0000*64 
209.415         GPS_NMEA_FROM_GPS    iGPS            $GPGGA,185738.000,4144.3418,N,06959.5927,W,2,09,1.30,11.5,M,-34.3,M,0000,0000*6B 
210.318         GPS_NMEA_FROM_GPS    iGPS            $GPGGA,185739.000,4144.3418,N,06959.5927,W,2,09,1.30,11.5,M,-34.3,M,0000,0000*6A 
211.421         GPS_NMEA_FROM_GPS    iGPS            $GPGGA,185740.000,4144.3418,N,06959.5927,W,2,10,0.98,11.5,M,-34.3,M,0000,0000*6F 
212.424         GPS_NMEA_FROM_GPS    iGPS            $GPRMC,185741.000,A,4144.3418,N,06959.5926,W,0.06,255.65,290321,,,D*7B 
213.326         GPS_NMEA_FROM_GPS    iGPS            $GPGGA,185742.000,4144.3418,N,06959.5927,W,2,09,1.02,11.6,M,-34.3,M,0000,0000*64 
214.430         GPS_NMEA_FROM_GPS    iGPS            $GPRMC,185743.000,A,4144.3418,N,06959.5927,W,0.06,262.51,290321,,,D*7B 
215.532         GPS_NMEA_FROM_GPS    iGPS            $GPRMC,185744.000,A,4144.3418,N,06959.5927,W,0.06,267.00,290321,,,D*7D 
216.435         GPS_NMEA_FROM_GPS    iGPS            $GPGGA,185745.000,4144.3418,N,06959.5927,W,2,09,1.02,11.6,M,-34.3,M,0000,0000*63 
217.337         GPS_NMEA_FROM_GPS    iGPS            $GPGGA,185746.000,4144.3418,N,06959.5927,W,2,09,1.02,11.6,M,-34.3,M,0000,0000*60 
218.340         GPS_NMEA_FROM_GPS    iGPS            $GPGGA,185747.000,4144.3418,N,06959.5927,W,2,09,1.02,11.6,M,-34.3,M,0000,0000*61 
219.343         GPS_NMEA_FROM_GPS    iGPS            $GPGGA,185748.000,4144.3418,N,06959.5927,W,2,09,1.02,11.6,M,-34.3,M,0000,0000*6E 
220.445         GPS_NMEA_FROM_GPS    iGPS            $GPGGA,185749.000,4144.3418,N,06959.5927,W,2,09,1.02,11.6,M,-34.3,M,0000,0000*6F 
221.448         GPS_NMEA_FROM_GPS    iGPS            $GPGGA,185750.000,4144.3418,N,06959.5927,W,2,09,1.02,11.6,M,-34.3,M,0000,0000*67 
222.451         GPS_NMEA_FROM_GPS    iGPS            $GPGGA,185751.000,4144.3418,N,06959.5927,W,2,09,1.02,11.6,M,-34.3,M,0000,0000*66 
223.455         GPS_NMEA_FROM_GPS    iGPS            $GPGGA,185752.000,4144.3418,N,06959.5927,W,2,09,1.02,11.6,M,-34.3,M,0000,0000*65 
224.459         GPS_NMEA_FROM_GPS    iGPS            $GPGGA,185753.000,4144.3418,N,06959.5927,W,2,09,1.02,11.6,M,-34.3,M,0000,0000*64 
225.363         GPS_NMEA_FROM_GPS    iGPS            $GPGGA,185754.000,4144.3418,N,06959.5927,W,2,09,1.02,11.6,M,-34.3,M,0000,0000*63 
226.365         GPS_NMEA_FROM_GPS    iGPS            $GPGGA,185755.000,4144.3418,N,06959.5927,W,2,09,1.02,11.6,M,-34.3,M,0000,0000*62 
227.368         GPS_NMEA_FROM_GPS    iGPS            $GPGGA,185756.000,4144.3418,N,06959.5927,W,2,09,1.02,11.6,M,-34.3,M,0000,0000*61 
228.371         GPS_NMEA_FROM_GPS    iGPS            $GPRMC,185757.000,A,4144.3418,N,06959.5927,W,0.07,262.88,290321,,,D*7B 
229.373         GPS_NMEA_FROM_GPS    iGPS            $GPGGA,185758.000,4144.3418,N,06959.5927,W,2,09,1.02,11.6,M,-34.3,M,0000,0000*6F 
230.375         GPS_NMEA_FROM_GPS    iGPS            $GPGGA,185759.000,4144.3418,N,06959.5927,W,2,09,1.02,11.6,M,-34.3,M,0000,0000*6E 
231.380         GPS_NMEA_FROM_GPS    iGPS            $GPGGA,185800.000,4144.3418,N,06959.5927,W,2,09,1.02,11.6,M,-34.3,M,0000,0000*6D 
232.483         GPS_NMEA_FROM_GPS    iGPS            $GPGGA,185801.000,4144.3418,N,06959.5927,W,2,09,1.02,11.6,M,-34.3,M,0000,0000*6C 
233.486         GPS_NMEA_FROM_GPS    iGPS            $GPRMC,185802.000,A,4144.3418,N,06959.5927,W,0.09,260.22,290321,,,D*78 
234.389         GPS_NMEA_FROM_GPS    iGPS            $GPGGA,185803.000,4144.3418,N,06959.5927,W,2,09,1.02,11.6,M,-34.3,M,0000,0000*6E 
235.392         GPS_NMEA_FROM_GPS    iGPS            $GPRMC,185804.000,A,4144.3418,N,06959.5927,W,0.07,270.62,290321,,,D*75 
236.394         GPS_NMEA_FROM_GPS    iGPS            $GPGGA,185805.000,4144.3418,N,06959.5927,W,2,09,1.02,11.6,M,-34.3,M,0000,0000*68 
237.396         GPS_NMEA_FROM_GPS    iGPS            $GPGGA,185806.000,4144.3418,N,06959.5927,W,2,09,1.02,11.6,M,-34.3,M,0000,0000*6B 
238.399         GPS_NMEA_FROM_GPS    iGPS            $GPGGA,185807.000,4144.3418,N,06959.5927,W,2,09,1.02,11.6,M,-34.3,M,0000,0000*6A 
239.302         GPS_NMEA_FROM_GPS    iGPS            $GPGGA,185808.000,4144.3418,N,06959.5927,W,2,09,1.02,11.6,M,-34.3,M,0000,0000*65 
240.304         GPS_NMEA_FROM_GPS    iGPS            $GPGGA,185809.000,4144.3418,N,06959.5927,W,2,09,1.02,11.6,M,-34.3,M,0000,0000*64 
241.407         GPS_NMEA_FROM_GPS    iGPS            $GPRMC,185810.000,A,4144.3418,N,06959.5927,W,0.09,268.04,290321,,,D*77 
242.410         GPS_NMEA_FROM_GPS    iGPS            $GPGGA,185811.000,4144.3418,N,06959.5927,W,2,09,1.02,11.6,M,-34.3,M,0000,0000*6D 
243.413         GPS_NMEA_FROM_GPS    iGPS            $GPRMC,185812.000,A,4144.3418,N,06959.5927,W,0.10,272.33,290321,,,D*72 
244.415         GPS_NMEA_FROM_GPS    iGPS            $GPRMC,185813.000,A,4144.3418,N,06959.5927,W,0.10,270.19,290321,,,D*79 
245.418         GPS_NMEA_FROM_GPS    iGPS            $GPGGA,185814.000,4144.3418,N,06959.5928,W,2,09,1.02,11.6,M,-34.3,M,0000,0000*67 
246.320         GPS_NMEA_FROM_GPS    iGPS            $GPGGA,185815.000,4144.3418,N,06959.5928,W,2,09,1.02,11.6,M,-34.3,M,0000,0000*66 
247.423         GPS_NMEA_FROM_GPS    iGPS            $GPRMC,185816.000,A,4144.3418,N,06959.5928,W,0.07,275.02,290321,,,D*7A 
248.325         GPS_NMEA_FROM_GPS    iGPS            $GPGGA,185817.000,4144.3418,N,06959.5928,W,2,09,1.02,11.6,M,-34.3,M,0000,0000*64 
249.328         GPS_NMEA_FROM_GPS    iGPS            $GPGGA,185818.000,4144.3418,N,06959.5928,W,2,09,1.02,11.6,M,-34.3,M,0000,0000*6B 
250.531         GPS_NMEA_FROM_GPS    iGPS            $GPGGA,185819.000,4144.3418,N,06959.5928,W,2,10,0.99,11.6,M,-34.3,M,0000,0000*61 
251.433         GPS_NMEA_FROM_GPS    iGPS            $GPGGA,185820.000,4144.3418,N,06959.5928,W,2,10,0.99,11.6,M,-34.3,M,0000,0000*6B 
252.335         GPS_NMEA_FROM_GPS    iGPS            $GPGGA,185821.000,4144.3418,N,06959.5928,W,2,09,1.02,11.6,M,-34.3,M,0000,0000*61 
253.439         GPS_NMEA_FROM_GPS    iGPS            $GPRMC,185822.000,A,4144.3418,N,06959.5928,W,0.06,290.94,290321,,,D*78 
254.341         GPS_NMEA_FROM_GPS    iGPS            $GPGGA,185823.000,4144.3418,N,06959.5928,W,2,09,1.02,11.6,M,-34.3,M,0000,0000*63 
255.344         GPS_NMEA_FROM_GPS    iGPS            $GPGGA,185824.000,4144.3418,N,06959.5928,W,2,09,1.02,11.6,M,-34.3,M,0000,0000*64 
256.346         GPS_NMEA_FROM_GPS    iGPS            $GPGGA,185825.000,4144.3418,N,06959.5928,W,2,09,1.02,11.6,M,-34.3,M,0000,0000*65 
257.349         GPS_NMEA_FROM_GPS    iGPS            $GPGGA,185826.000,4144.3418,N,06959.5928,W,2,09,1.02,11.6,M,-34.3,M,0000,0000*66 
258.452         GPS_NMEA_FROM_GPS    iGPS            $GPGGA,185827.000,4144.3418,N,06959.5928,W,2,09,1.03,11.6,M,-34.3,M,0000,0000*66 
259.455         GPS_NMEA_FROM_GPS    iGPS            $GPRMC,185828.000,A,4144.3418,N,06959.5928,W,0.07,304.33,290321,,,D*72 
260.357         GPS_NMEA_FROM_GPS    iGPS            $GPGGA,185829.000,4144.3418,N,06959.5928,W,2,09,1.02,11.6,M,-34.3,M,0000,0000*69 
261.359         GPS_NMEA_FROM_GPS    iGPS            $GPGGA,185830.000,4144.3418,N,06959.5928,W,2,09,1.02,11.6,M,-34.3,M,0000,0000*61 
262.362         GPS_NMEA_FROM_GPS    iGPS            $GPGGA,185831.000,4144.3418,N,06959.5928,W,2,09,1.02,11.6,M,-34.3,M,0000,0000*60 
263.364         GPS_NMEA_FROM_GPS    iGPS            $GPGGA,185832.000,4144.3418,N,06959.5928,W,2,09,1.03,11.6,M,-34.3,M,0000,0000*62 
264.367         GPS_NMEA_FROM_GPS    iGPS            $GPGGA,185833.000,4144.3418,N,06959.5928,W,2,09,1.03,11.6,M,-34.3,M,0000,0000*63 
265.370         GPS_NMEA_FROM_GPS    iGPS            $GPGGA,185834.000,4144.3418,N,06959.5928,W,2,09,1.03,11.6,M,-34.3,M,0000,0000*64 
266.473         GPS_NMEA_FROM_GPS    iGPS            $GPGGA,185835.000,4144.3418,N,06959.5928,W,2,10,0.99,11.6,M,-34.3,M,0000,0000*6F 
267.375         GPS_NMEA_FROM_GPS    iGPS            $GPGGA,185836.000,4144.3418,N,06959.5928,W,2,09,1.03,11.6,M,-34.3,M,0000,0000*66 
268.378         GPS_NMEA_FROM_GPS    iGPS            $GPGGA,185837.000,4144.3418,N,06959.5928,W,2,09,1.03,11.6,M,-34.3,M,0000,0000*67 
269.381         GPS_NMEA_FROM_GPS    iGPS            $GPGGA,185838.000,4144.3418,N,06959.5928,W,2,09,1.03,11.6,M,-34.3,M,0000,0000*68 
270.384         GPS_NMEA_FROM_GPS    iGPS            $GPGGA,185839.000,4144.3418,N,06959.5928,W,2,09,1.03,11.6,M,-34.3,M,0000,0000*69 
271.387         GPS_NMEA_FROM_GPS    iGPS            $GPGGA,185840.000,4144.3418,N,06959.5928,W,2,09,1.03,11.6,M,-34.3,M,0000,0000*67 
272.390         GPS_NMEA_FROM_GPS    iGPS            $GPGGA,185841.000,4144.3418,N,06959.5928,W,2,09,1.03,11.6,M,-34.3,M,0000,0000*66 
273.393         GPS_NMEA_FROM_GPS    iGPS            $GPRMC,185842.000,A,4144.3418,N,06959.5928,W,0.05,308.37,290321,,,D*74 
274.395         GPS_NMEA_FROM_GPS    iGPS            $GPRMC,185843.000,A,4144.3418,N,06959.5928,W,0.06,336.87,290321,,,D*70 
275.397         GPS_NMEA_FROM_GPS    iGPS            $GPGGA,185844.000,4144.3418,N,06959.5928,W,2,09,1.03,11.6,M,-34.3,M,0000,0000*63 
276.400         GPS_NMEA_FROM_GPS    iGPS            $GPGGA,185845.000,4144.3418,N,06959.5928,W,2,09,1.03,11.6,M,-34.3,M,0000,0000*62 
277.303         GPS_NMEA_FROM_GPS    iGPS            $GPGGA,185846.000,4144.3418,N,06959.5928,W,2,09,1.03,11.6,M,-34.3,M,0000,0000*61 
278.305         GPS_NMEA_FROM_GPS    iGPS            $GPGGA,185847.000,4144.3418,N,06959.5928,W,2,09,1.03,11.6,M,-34.3,M,0000,0000*60 
279.408         GPS_NMEA_FROM_GPS    iGPS            $GPGGA,185848.000,4144.3418,N,06959.5928,W,2,09,1.03,11.6,M,-34.3,M,0000,0000*6F 
280.411         GPS_NMEA_FROM_GPS    iGPS            $GPGGA,185849.000,4144.3418,N,06959.5928,W,2,09,1.03,11.6,M,-34.3,M,0000,0000*6E 
281.313         GPS_NMEA_FROM_GPS    iGPS            $GPGGA,185850.000,4144.3418,N,06959.5928,W,2,09,1.03,11.6,M,-34.3,M,0000,0000*66 
282.416         GPS_NMEA_FROM_GPS    iGPS            $GPGGA,185851.000,4144.3418,N,06959.5928,W,2,09,1.03,11.6,M,-34.3,M,0000,0000*67 
283.318         GPS_NMEA_FROM_GPS    iGPS            $GPGGA,185852.000,4144.3418,N,06959.5928,W,2,09,1.03,11.6,M,-34.3,M,0000,0000*64 
284.321         GPS_NMEA_FROM_GPS    iGPS            $GPGGA,185853.000,4144.3418,N,06959.5928,W,2,09,1.03,11.6,M,-34.3,M,0000,0000*65 
285.324         GPS_NMEA_FROM_GPS    iGPS            $GPGGA,185854.000,4144.3418,N,06959.5928,W,2,09,1.03,11.6,M,-34.3,M,0000,0000*62 
286.427         GPS_NMEA_FROM_GPS    iGPS            $GPRMC,185855.000,A,4144.3418,N,06959.5928,W,0.02,35.29,290321,,,D*47 
287.329         GPS_NMEA_FROM_GPS    iGPS            $GPGGA,185856.000,4144.3418,N,06959.5928,W,2,09,1.03,11.6,M,-34.3,M,0000,0000*60 
288.432         GPS_NMEA_FROM_GPS    iGPS            $GPRMC,185857.000,A,4144.3418,N,06959.5928,W,0.02,48.52,290321,,,D*43 
289.434         GPS_NMEA_FROM_GPS    iGPS            $GPRMC,185858.000,A,4144.3418,N,06959.5928,W,0.02,173.02,290321,,,D*70 
290.336         GPS_NMEA_FROM_GPS    iGPS            $GPGGA,185859.000,4144.3418,N,06959.5928,W,2,09,1.03,11.6,M,-34.3,M,0000,0000*6F 
291.439         GPS_NMEA_FROM_GPS    iGPS            $GPGGA,185900.000,4144.3418,N,06959.5928,W,2,09,1.03,11.6,M,-34.3,M,0000,0000*62 
292.442         GPS_NMEA_FROM_GPS    iGPS            $GPRMC,185901.000,A,4144.3418,N,06959.5928,W,0.03,160.88,290321,,,D*7C 
293.444         GPS_NMEA_FROM_GPS    iGPS            $GPRMC,185902.000,A,4144.3418,N,06959.5928,W,0.04,154.97,290321,,,D*71 
294.347         GPS_NMEA_FROM_GPS    iGPS            $GPGGA,185903.000,4144.3418,N,06959.5928,W,2,09,1.03,11.6,M,-34.3,M,0000,0000*61 
295.349         GPS_NMEA_FROM_GPS    iGPS            $GPGGA,185904.000,4144.3418,N,06959.5928,W,2,09,1.03,11.6,M,-34.3,M,0000,0000*66 
296.352         GPS_NMEA_FROM_GPS    iGPS            $GPGGA,185905.000,4144.3418,N,06959.5928,W,2,09,1.03,11.6,M,-34.3,M,0000,0000*67 
297.354         GPS_NMEA_FROM_GPS    iGPS            $GPGGA,185906.000,4144.3418,N,06959.5928,W,2,09,1.03,11.6,M,-34.3,M,0000,0000*64 
298.356         GPS_NMEA_FROM_GPS    iGPS            $GPGGA,185907.000,4144.3418,N,06959.5928,W,2,09,1.03,11.6,M,-34.3,M,0000,0000*65 
299.359         GPS_NMEA_FROM_GPS    iGPS            $GPGGA,185908.000,4144.3418,N,06959.5928,W,2,09,1.03,11.6,M,-34.3,M,0000,0000*6A 
300.361         GPS_NMEA_FROM_GPS    iGPS            $GPGGA,185909.000,4144.3418,N,06959.5928,W,2,09,1.03,11.6,M,-34.3,M,0000,0000*6B 
301.365         GPS_NMEA_FROM_GPS    iGPS            $GPGGA,185910.000,4144.3418,N,06959.5928,W,2,09,1.03,11.6,M,-34.3,M,0000,0000*63 
302.368         GPS_NMEA_FROM_GPS    iGPS            $GPGGA,185911.000,4144.3418,N,06959.5928,W,2,09,1.03,11.6,M,-34.3,M,0000,0000*62 
303.370         GPS_NMEA_FROM_GPS    iGPS            $GPGGA,185912.000,4144.3418,N,06959.5928,W,2,09,1.03,11.6,M,-34.3,M,0000,0000*61 
304.373         GPS_NMEA_FROM_GPS    iGPS            $GPRMC,185913.000,A,4144.3418,N,06959.5928,W,0.06,164.96,290321,,,D*71 
305.376         GPS_NMEA_FROM_GPS    iGPS            $GPRMC,185914.000,A,4144.3418,N,06959.5928,W,0.06,179.42,290321,,,D*73 
306.378         GPS_NMEA_FROM_GPS    iGPS            $GPRMC,185915.000,A,4144.3418,N,06959.5928,W,0.03,202.79,290321,,,D*70 
307.481         GPS_NMEA_FROM_GPS    iGPS            $GPGGA,185916.000,4144.3418,N,06959.5928,W,2,09,1.03,11.6,M,-34.3,M,0000,0000*65 
308.383         GPS_NMEA_FROM_GPS    iGPS            $GPGGA,185917.000,4144.3417,N,06959.5929,W,2,09,1.03,11.6,M,-34.3,M,0000,0000*6A 
309.486         GPS_NMEA_FROM_GPS    iGPS            $GPGGA,185918.000,4144.3417,N,06959.5929,W,2,09,1.03,11.6,M,-34.3,M,0000,0000*65 
310.589         GPS_NMEA_FROM_GPS    iGPS            $GPGGA,185919.000,4144.3417,N,06959.5930,W,2,10,0.99,11.6,M,-34.3,M,0000,0000*66 
311.391         GPS_NMEA_FROM_GPS    iGPS            $GPGGA,185920.000,4144.3417,N,06959.5931,W,2,09,1.03,11.7,M,-34.3,M,0000,0000*66 
312.294         GPS_NMEA_FROM_GPS    iGPS            $GPGGA,185921.000,4144.3417,N,06959.5931,W,2,09,1.03,11.7,M,-34.3,M,0000,0000*67 
313.397         GPS_NMEA_FROM_GPS    iGPS            $GPGGA,185922.000,4144.3417,N,06959.5931,W,2,09,1.03,11.7,M,-34.3,M,0000,0000*64 
314.500         GPS_NMEA_FROM_GPS    iGPS            $GPRMC,185923.000,A,4144.3417,N,06959.5931,W,0.04,200.66,290321,,,D*79 
315.402         GPS_NMEA_FROM_GPS    iGPS            $GPGGA,185924.000,4144.3417,N,06959.5931,W,2,08,1.26,11.7,M,-34.3,M,0000,0000*64 
316.405         GPS_NMEA_FROM_GPS    iGPS            $GPRMC,185925.000,A,4144.3417,N,06959.5931,W,0.05,212.84,290321,,,D*71 
317.407         GPS_NMEA_FROM_GPS    iGPS            $GPRMC,185926.000,A,4144.3417,N,06959.5931,W,0.07,197.74,290321,,,D*71 
318.409         GPS_NMEA_FROM_GPS    iGPS            $GPGGA,185927.000,4144.3417,N,06959.5931,W,2,09,1.03,11.7,M,-34.3,M,0000,0000*61 
319.312         GPS_NMEA_FROM_GPS    iGPS            $GPGGA,185928.000,4144.3417,N,06959.5931,W,2,09,1.03,11.7,M,-34.3,M,0000,0000*6E 
320.315         GPS_NMEA_FROM_GPS    iGPS            $GPGGA,185929.000,4144.3417,N,06959.5931,W,2,09,1.03,11.7,M,-34.3,M,0000,0000*6F 
321.419         GPS_NMEA_FROM_GPS    iGPS            $GPGGA,185930.000,4144.3417,N,06959.5931,W,2,09,1.03,11.7,M,-34.3,M,0000,0000*67 
322.422         GPS_NMEA_FROM_GPS    iGPS            $GPGGA,185931.000,4144.3417,N,06959.5931,W,2,09,1.03,11.7,M,-34.3,M,0000,0000*66 
323.424         GPS_NMEA_FROM_GPS    iGPS            $GPGGA,185932.000,4144.3417,N,06959.5931,W,2,09,1.03,11.7,M,-34.3,M,0000,0000*65 
324.327         GPS_NMEA_FROM_GPS    iGPS            $GPGGA,185933.000,4144.3417,N,06959.5931,W,2,09,1.03,11.7,M,-34.3,M,0000,0000*64 
325.330         GPS_NMEA_FROM_GPS    iGPS            $GPGGA,185934.000,4144.3417,N,06959.5931,W,2,09,1.03,11.7,M,-34.3,M,0000,0000*63 
326.332         GPS_NMEA_FROM_GPS    iGPS            $GPGGA,185935.000,4144.3417,N,06959.5931,W,2,08,1.26,11.7,M,-34.3,M,0000,0000*64 
327.335         GPS_NMEA_FROM_GPS    iGPS            $GPGGA,185936.000,4144.3417,N,06959.5931,W,2,08,1.26,11.7,M,-34.3,M,0000,0000*67 
328.338         GPS_NMEA_FROM_GPS    iGPS            $GPGGA,185937.000,4144.3417,N,06959.5931,W,2,09,1.03,11.7,M,-34.3,M,0000,0000*60 
329.340         GPS_NMEA_FROM_GPS    iGPS            $GPGGA,185938.000,4144.3417,N,06959.5932,W,2,09,1.03,11.7,M,-34.3,M,0000,0000*6C 
330.343         GPS_NMEA_FROM_GPS    iGPS            $GPGGA,185939.000,4144.3417,N,06959.5932,W,2,09,1.03,11.7,M,-34.3,M,0000,0000*6D 
331.346         GPS_NMEA_FROM_GPS    iGPS            $GPGGA,185940.000,4144.3417,N,06959.5933,W,2,08,1.26,11.7,M,-34.3,M,0000,0000*64 
332.348         GPS_NMEA_FROM_GPS    iGPS            $GPGGA,185941.000,4144.3417,N,06959.5933,W,2,08,1.26,11.8,M,-34.3,M,0000,0000*6A 
333.351         GPS_NMEA_FROM_GPS    iGPS            $GPGGA,185942.000,4144.3417,N,06959.5933,W,2,09,1.03,11.8,M,-34.3,M,0000,0000*6F 
334.354         GPS_NMEA_FROM_GPS    iGPS            $GPGGA,185943.000,4144.3417,N,06959.5933,W,2,10,0.99,11.8,M,-34.3,M,0000,0000*64 
335.357         GPS_NMEA_FROM_GPS    iGPS            $GPGGA,185944.000,4144.3417,N,06959.5933,W,2,09,1.03,11.8,M,-34.3,M,0000,0000*69 
336.359         GPS_NMEA_FROM_GPS    iGPS            $GPGGA,185945.000,4144.3417,N,06959.5933,W,2,09,1.03,11.8,M,-34.3,M,0000,0000*68 
337.363         GPS_NMEA_FROM_GPS    iGPS            $GPGGA,185946.000,4144.3417,N,06959.5934,W,2,09,1.03,11.8,M,-34.3,M,0000,0000*6C 
338.365         GPS_NMEA_FROM_GPS    iGPS            $GPRMC,185947.000,A,4144.3417,N,06959.5934,W,0.04,280.77,290321,,,D*76 
339.368         GPS_NMEA_FROM_GPS    iGPS            $GPGGA,185948.000,4144.3417,N,06959.5934,W,2,09,1.03,11.8,M,-34.3,M,0000,0000*62 
340.371         GPS_NMEA_FROM_GPS    iGPS            $GPGGA,185949.000,4144.3417,N,06959.5934,W,2,09,1.03,11.8,M,-34.3,M,0000,0000*63 
341.373         GPS_NMEA_FROM_GPS    iGPS            $GPGGA,185950.000,4144.3417,N,06959.5934,W,2,09,1.03,11.8,M,-34.3,M,0000,0000*6B 
342.376         GPS_NMEA_FROM_GPS    iGPS            $GPGGA,185951.000,4144.3417,N,06959.5934,W,2,09,1.03,11.8,M,-34.3,M,0000,0000*6A 
343.379         GPS_NMEA_FROM_GPS    iGPS            $GPGGA,185952.000,4144.3417,N,06959.5934,W,2,09,1.03,11.8,M,-34.3,M,0000,0000*69 
344.482         GPS_NMEA_FROM_GPS    iGPS            $GPGGA,185953.000,4144.3417,N,06959.5934,W,2,09,1.03,11.8,M,-34.3,M,0000,0000*68 
345.384         GPS_NMEA_FROM_GPS    iGPS            $GPGGA,185954.000,4144.3417,N,06959.5934,W,2,09,1.03,11.8,M,-34.3,M,0000,0000*6F 
346.386         GPS_NMEA_FROM_GPS    iGPS            $GPGGA,185955.000,4144.3417,N,06959.5934,W,2,09,1.03,11.8,M,-34.3,M,0000,0000*6E 
347.489         GPS_NMEA_FROM_GPS    iGPS            $GPGGA,185956.000,4144.3417,N,06959.5934,W,2,09,1.03,11.8,M,-34.3,M,0000,0000*6D 
348.391         GPS_NMEA_FROM_GPS    iGPS            $GPGGA,185957.000,4144.3417,N,06959.5934,W,2,09,1.03,11.8,M,-34.3,M,0000,0000*6C 
349.393         GPS_NMEA_FROM_GPS    iGPS            $GPGGA,185958.000,4144.3417,N,06959.5934,W,2,09,1.03,11.8,M,-34.3,M,0000,0000*63 
350.396         GPS_NMEA_FROM_GPS    iGPS            $GPGGA,185959.000,4144.3417,N,06959.5934,W,2,09,1.03,11.8,M,-34.3,M,0000,0000*62 
351.499         GPS_NMEA_FROM_GPS    iGPS            $GPRMC,190000.000,A,4144.3417,N,06959.5934,W,0.02,204.54,290321,,,D*73 
352.401         GPS_NMEA_FROM_GPS    iGPS            $GPGGA,190001.000,4144.3417,N,06959.5934,W,2,09,1.03,11.9,M,-34.3,M,0000,0000*63 
353.404         GPS_NMEA_FROM_GPS    iGPS            $GPGGA,190002.000,4144.3417,N,06959.5934,W,2,09,1.03,11.9,M,-34.3,M,0000,0000*60 
354.507         GPS_NMEA_FROM_GPS    iGPS            $GPRMC,190003.000,A,4144.3417,N,06959.5934,W,0.03,257.15,290321,,,D*72 
355.409         GPS_NMEA_FROM_GPS    iGPS            $GPGGA,190004.000,4144.3417,N,06959.5934,W,2,09,1.03,11.9,M,-34.3,M,0000,0000*66 
356.411         GPS_NMEA_FROM_GPS    iGPS            $GPGGA,190005.000,4144.3417,N,06959.5934,W,2,09,1.03,11.9,M,-34.3,M,0000,0000*67 
357.414         GPS_NMEA_FROM_GPS    iGPS            $GPRMC,190006.000,A,4144.3417,N,06959.5934,W,0.00,287.86,290321,,,D*73 
358.417         GPS_NMEA_FROM_GPS    iGPS            $GPGGA,190007.000,4144.3417,N,06959.5934,W,2,09,1.03,11.9,M,-34.3,M,0000,0000*65 
359.419         GPS_NMEA_FROM_GPS    iGPS            $GPGGA,190008.000,4144.3417,N,06959.5934,W,2,09,1.03,11.9,M,-34.3,M,0000,0000*6A 
360.422         GPS_NMEA_FROM_GPS    iGPS            $GPGGA,190009.000,4144.3417,N,06959.5934,W,2,09,1.03,11.9,M,-34.3,M,0000,0000*6B 
361.425         GPS_NMEA_FROM_GPS    iGPS            $GPGGA,190010.000,4144.3417,N,06959.5934,W,2,09,1.03,11.9,M,-34.3,M,0000,0000*63 
362.429         GPS_NMEA_FROM_GPS    iGPS            $GPRMC,190011.000,A,4144.3417,N,06959.5934,W,0.02,320.67,290321,,,D*74 
363.431         GPS_NMEA_FROM_GPS    iGPS            $GPRMC,190012.000,A,4144.3417,N,06959.5934,W,0.03,51.27,290321,,,D*47 
364.433         GPS_NMEA_FROM_GPS    iGPS            $GPGGA,190013.000,4144.3417,N,06959.5934,W,2,09,1.03,11.9,M,-34.3,M,0000,0000*60 
365.436         GPS_NMEA_FROM_GPS    iGPS            $GPGGA,190014.000,4144.3417,N,06959.5934,W,2,09,1.03,11.9,M,-34.3,M,0000,0000*67 
366.438         GPS_NMEA_FROM_GPS    iGPS            $GPGGA,190015.000,4144.3417,N,06959.5934,W,2,09,1.03,11.9,M,-34.3,M,0000,0000*66 
367.441         GPS_NMEA_FROM_GPS    iGPS            $GPRMC,190016.000,A,4144.3417,N,06959.5934,W,0.03,58.89,290321,,,D*4E 
368.344         GPS_NMEA_FROM_GPS    iGPS            $GPGGA,190017.000,4144.3417,N,06959.5934,W,2,09,1.03,11.9,M,-34.3,M,0000,0000*64 
369.446         GPS_NMEA_FROM_GPS    iGPS            $GPGGA,190018.000,4144.3417,N,06959.5934,W,2,08,1.26,11.9,M,-34.3,M,0000,0000*6D 
370.349         GPS_NMEA_FROM_GPS    iGPS            $GPGGA,190019.000,4144.3417,N,06959.5934,W,2,09,1.03,11.9,M,-34.3,M,0000,0000*6A 
371.351         GPS_NMEA_FROM_GPS    iGPS            $GPGGA,190020.000,4144.3417,N,06959.5934,W,2,09,1.03,11.9,M,-34.3,M,0000,0000*60 
372.454         GPS_NMEA_FROM_GPS    iGPS            $GPGGA,190021.000,4144.3417,N,06959.5934,W,2,09,1.03,11.9,M,-34.3,M,0000,0000*61 
373.457         GPS_NMEA_FROM_GPS    iGPS            $GPGGA,190022.000,4144.3417,N,06959.5934,W,2,09,1.03,11.9,M,-34.3,M,0000,0000*62 
374.460         GPS_NMEA_FROM_GPS    iGPS            $GPGGA,190023.000,4144.3417,N,06959.5934,W,2,09,1.03,11.9,M,-34.3,M,0000,0000*63 
375.463         GPS_NMEA_FROM_GPS    iGPS            $GPRMC,190024.000,A,4144.3417,N,06959.5934,W,0.02,93.35,290321,,,D*4E 
376.365         GPS_NMEA_FROM_GPS    iGPS            $GPGGA,190025.000,4144.3417,N,06959.5934,W,2,09,1.03,11.9,M,-34.3,M,0000,0000*65 
377.469         GPS_NMEA_FROM_GPS    iGPS            $GPRMC,190026.000,A,4144.3417,N,06959.5934,W,0.01,94.31,290321,,,D*4C 
378.471         GPS_NMEA_FROM_GPS    iGPS            $GPRMC,190027.000,A,4144.3417,N,06959.5934,W,0.04,126.10,290321,,,D*73 
379.374         GPS_NMEA_FROM_GPS    iGPS            $GPGGA,190028.000,4144.3417,N,06959.5934,W,2,09,1.03,11.9,M,-34.3,M,0000,0000*68 
380.477         GPS_NMEA_FROM_GPS    iGPS            $GPGGA,190029.000,4144.3417,N,06959.5934,W,2,10,0.99,11.9,M,-34.3,M,0000,0000*63 
381.381         GPS_NMEA_FROM_GPS    iGPS            $GPGGA,190030.000,4144.3417,N,06959.5934,W,2,10,0.99,11.9,M,-34.3,M,0000,0000*6B 
382.484         GPS_NMEA_FROM_GPS    iGPS            $GPGGA,190031.000,4144.3417,N,06959.5934,W,2,10,0.99,11.9,M,-34.3,M,0000,0000*6A 
383.487         GPS_NMEA_FROM_GPS    iGPS            $GPGGA,190032.000,4144.3417,N,06959.5934,W,2,10,0.99,11.8,M,-34.3,M,0000,0000*68 
384.490         GPS_NMEA_FROM_GPS    iGPS            $GPGGA,190033.000,4144.3417,N,06959.5934,W,2,10,0.99,11.8,M,-34.3,M,0000,0000*69 
385.393         GPS_NMEA_FROM_GPS    iGPS            $GPGGA,190034.000,4144.3417,N,06959.5934,W,2,10,0.99,11.9,M,-34.3,M,0000,0000*6F 
386.496         GPS_NMEA_FROM_GPS    iGPS            $GPGGA,190035.000,4144.3417,N,06959.5934,W,2,11,0.83,11.8,M,-34.3,M,0000,0000*65 
387.398         GPS_NMEA_FROM_GPS    iGPS            $GPGGA,190036.000,4144.3417,N,06959.5934,W,2,11,0.83,11.8,M,-34.3,M,0000,0000*66 
388.401         GPS_NMEA_FROM_GPS    iGPS            $GPGGA,190037.000,4144.3417,N,06959.5934,W,2,10,0.99,11.9,M,-34.3,M,0000,0000*6C 
389.404         GPS_NMEA_FROM_GPS    iGPS            $GPGGA,190038.000,4144.3416,N,06959.5934,W,2,10,0.99,11.9,M,-34.3,M,0000,0000*62 
390.406         GPS_NMEA_FROM_GPS    iGPS            $GPGGA,190039.000,4144.3416,N,06959.5934,W,2,10,0.99,11.9,M,-34.3,M,0000,0000*63 
391.509         GPS_NMEA_FROM_GPS    iGPS            $GPRMC,190040.000,A,4144.3416,N,06959.5934,W,0.03,148.08,290321,,,D*75 
392.411         GPS_NMEA_FROM_GPS    iGPS            $GPGGA,190041.000,4144.3416,N,06959.5934,W,2,10,0.99,11.9,M,-34.3,M,0000,0000*6C 
393.415         GPS_NMEA_FROM_GPS    iGPS            $GPGGA,190042.000,4144.3416,N,06959.5934,W,2,09,1.20,11.9,M,-34.3,M,0000,0000*64 
394.517         GPS_NMEA_FROM_GPS    iGPS            $GPGGA,190043.000,4144.3416,N,06959.5934,W,2,10,0.99,11.9,M,-34.3,M,0000,0000*6E 
395.520         GPS_NMEA_FROM_GPS    iGPS            $GPRMC,190044.000,A,4144.3416,N,06959.5934,W,0.01,173.86,290321,,,D*7D 
396.422         GPS_NMEA_FROM_GPS    iGPS            $GPGGA,190045.000,4144.3416,N,06959.5934,W,2,10,0.99,11.9,M,-34.3,M,0000,0000*68 
397.425         GPS_NMEA_FROM_GPS    iGPS            $GPGGA,190046.000,4144.3416,N,06959.5934,W,2,10,0.99,11.9,M,-34.3,M,0000,0000*6B 
398.528         GPS_NMEA_FROM_GPS    iGPS            $GPRMC,190047.000,A,4144.3416,N,06959.5934,W,0.01,231.98,290321,,,D*74 
399.430         GPS_NMEA_FROM_GPS    iGPS            $GPGGA,190048.000,4144.3416,N,06959.5934,W,2,09,1.02,11.9,M,-34.3,M,0000,0000*6E 
400.433         GPS_NMEA_FROM_GPS    iGPS            $GPGGA,190049.000,4144.3416,N,06959.5934,W,2,10,0.99,11.9,M,-34.3,M,0000,0000*64 
401.436         GPS_NMEA_FROM_GPS    iGPS            $GPGGA,190050.000,4144.3416,N,06959.5934,W,2,10,0.99,11.9,M,-34.3,M,0000,0000*6C 
402.439         GPS_NMEA_FROM_GPS    iGPS            $GPGGA,190051.000,4144.3416,N,06959.5934,W,2,10,0.99,11.9,M,-34.3,M,0000,0000*6D 
403.542         GPS_NMEA_FROM_GPS    iGPS            $GPRMC,190052.000,A,4144.3416,N,06959.5935,W,0.04,217.55,290321,,,D*71 
404.545         GPS_NMEA_FROM_GPS    iGPS            $GPRMC,190053.000,A,4144.3416,N,06959.5936,W,0.05,235.91,290321,,,D*7A 
405.447         GPS_NMEA_FROM_GPS    iGPS            $GPGGA,190054.000,4144.3416,N,06959.5937,W,2,10,0.99,12.0,M,-34.3,M,0000,0000*61 
406.451         GPS_NMEA_FROM_GPS    iGPS            $GPGGA,190055.000,4144.3415,N,06959.5937,W,2,10,0.99,12.0,M,-34.3,M,0000,0000*63 
407.453         GPS_NMEA_FROM_GPS    iGPS            $GPGGA,190056.000,4144.3415,N,06959.5938,W,2,10,0.99,12.0,M,-34.3,M,0000,0000*6F 
408.455         GPS_NMEA_FROM_GPS    iGPS            $GPGGA,190057.000,4144.3414,N,06959.5939,W,2,10,0.99,12.0,M,-34.3,M,0000,0000*6E 
409.458         GPS_NMEA_FROM_GPS    iGPS            $GPGGA,190058.000,4144.3413,N,06959.5939,W,2,10,0.99,12.0,M,-34.3,M,0000,0000*66 
410.561         GPS_NMEA_FROM_GPS    iGPS            $GPRMC,190059.000,A,4144.3413,N,06959.5939,W,0.02,81.72,290321,,,D*4D 
411.463         GPS_NMEA_FROM_GPS    iGPS            $GPGGA,190100.000,4144.3413,N,06959.5939,W,2,09,1.03,11.9,M,-34.3,M,0000,0000*6A 
412.566         GPS_NMEA_FROM_GPS    iGPS            $GPGGA,190101.000,4144.3413,N,06959.5939,W,2,09,1.03,11.9,M,-34.3,M,0000,0000*6B 
413.468         GPS_NMEA_FROM_GPS    iGPS            $GPGGA,190102.000,4144.3413,N,06959.5939,W,2,09,1.03,11.9,M,-34.3,M,0000,0000*68 
414.470         GPS_NMEA_FROM_GPS    iGPS            $GPGGA,190103.000,4144.3413,N,06959.5939,W,2,09,1.03,11.9,M,-34.3,M,0000,0000*69 
415.574         GPS_NMEA_FROM_GPS    iGPS            $GPRMC,190104.000,A,4144.3412,N,06959.5939,W,0.04,150.99,290321,,,D*7B 
416.476         GPS_NMEA_FROM_GPS    iGPS            $GPGGA,190105.000,4144.3412,N,06959.5940,W,2,11,0.83,12.1,M,-34.3,M,0000,0000*6B 
417.378         GPS_NMEA_FROM_GPS    iGPS            $GPGGA,190106.000,4144.3411,N,06959.5940,W,2,11,0.83,12.2,M,-34.3,M,0000,0000*68 
418.381         GPS_NMEA_FROM_GPS    iGPS            $GPGGA,190107.000,4144.3411,N,06959.5940,W,2,10,0.99,12.3,M,-34.3,M,0000,0000*62 
419.484         GPS_NMEA_FROM_GPS    iGPS            $GPGGA,190108.000,4144.3410,N,06959.5941,W,2,10,0.99,12.2,M,-34.3,M,0000,0000*6C 
420.586         GPS_NMEA_FROM_GPS    iGPS            $GPRMC,190109.000,A,4144.3410,N,06959.5940,W,0.00,120.82,290321,,,D*73 
421.589         GPS_NMEA_FROM_GPS    iGPS            $GPGGA,190110.000,4144.3410,N,06959.5939,W,2,10,0.99,12.0,M,-34.3,M,0000,0000*68 
422.592         GPS_NMEA_FROM_GPS    iGPS            $GPRMC,190111.000,A,4144.3410,N,06959.5940,W,0.04,275.15,290321,,,D*73 
423.595         GPS_NMEA_FROM_GPS    iGPS            $GPRMC,190112.000,A,4144.3409,N,06959.5939,W,0.02,155.36,290321,,,D*70 
424.497         GPS_NMEA_FROM_GPS    iGPS            $GPRMC,190113.000,A,4144.3409,N,06959.5939,W,0.01,141.00,290321,,,D*72 
425.499         GPS_NMEA_FROM_GPS    iGPS            $GPGGA,190114.000,4144.3408,N,06959.5939,W,2,10,0.99,11.9,M,-34.3,M,0000,0000*6F 
426.501         GPS_NMEA_FROM_GPS    iGPS            $GPGGA,190115.000,4144.3408,N,06959.5939,W,2,10,1.00,11.9,M,-34.3,M,0000,0000*6F 
427.504         GPS_NMEA_FROM_GPS    iGPS            $GPRMC,190116.000,A,4144.3408,N,06959.5940,W,0.01,195.76,290321,,,D*70 
428.507         GPS_NMEA_FROM_GPS    iGPS            $GPGGA,190117.000,4144.3408,N,06959.5940,W,2,10,0.99,11.9,M,-34.3,M,0000,0000*62 
429.509         GPS_NMEA_FROM_GPS    iGPS            $GPGGA,190118.000,4144.3408,N,06959.5940,W,2,10,1.00,11.9,M,-34.3,M,0000,0000*6C 
430.512         GPS_NMEA_FROM_GPS    iGPS            $GPGGA,190119.000,4144.3408,N,06959.5940,W,2,10,0.99,11.9,M,-34.3,M,0000,0000*6C 
431.415         GPS_NMEA_FROM_GPS    iGPS            $GPGGA,190120.000,4144.3412,N,06959.5949,W,2,09,1.06,11.8,M,-34.3,M,0000,0000*6A 
432.417         GPS_NMEA_FROM_GPS    iGPS            $GPGGA,190121.000,4144.3413,N,06959.5950,W,2,10,0.93,11.8,M,-34.3,M,0000,0000*67 
433.520         GPS_NMEA_FROM_GPS    iGPS            $GPGGA,190122.000,4144.3413,N,06959.5951,W,2,10,0.93,11.9,M,-34.3,M,0000,0000*64 
434.423         GPS_NMEA_FROM_GPS    iGPS            $GPGGA,190123.000,4144.3414,N,06959.5952,W,2,10,0.93,11.9,M,-34.3,M,0000,0000*61 
435.426         GPS_NMEA_FROM_GPS    iGPS            $GPGGA,190124.000,4144.3415,N,06959.5952,W,2,09,1.06,11.9,M,-34.3,M,0000,0000*62 
436.428         GPS_NMEA_FROM_GPS    iGPS            $GPGGA,190125.000,4144.3415,N,06959.5952,W,2,09,1.29,11.9,M,-34.3,M,0000,0000*6E 
437.532         GPS_NMEA_FROM_GPS    iGPS            $GPRMC,190126.000,A,4144.3416,N,06959.5952,W,0.38,359.70,290321,,,D*71 
438.433         GPS_NMEA_FROM_GPS    iGPS            $GPGGA,190127.000,4144.3417,N,06959.5951,W,2,10,0.93,11.9,M,-34.3,M,0000,0000*65 
439.336         GPS_NMEA_FROM_GPS    iGPS            $GPGGA,190128.000,4144.3418,N,06959.5950,W,2,09,1.06,11.9,M,-34.3,M,0000,0000*61 
440.438         GPS_NMEA_FROM_GPS    iGPS            $GPRMC,190129.000,A,4144.3419,N,06959.5948,W,0.72,35.96,290321,,,D*45 
441.440         GPS_NMEA_FROM_GPS    iGPS            $GPGGA,190130.000,4144.3420,N,06959.5945,W,2,10,0.93,11.9,M,-34.3,M,0000,0000*62 
442.443         GPS_NMEA_FROM_GPS    iGPS            $GPGGA,190131.000,4144.3421,N,06959.5943,W,2,10,0.93,11.9,M,-34.3,M,0000,0000*64 
443.445         GPS_NMEA_FROM_GPS    iGPS            $GPGGA,190132.000,4144.3423,N,06959.5940,W,2,09,1.06,11.8,M,-34.3,M,0000,0000*62 
444.448         GPS_NMEA_FROM_GPS    iGPS            $GPGGA,190133.000,4144.3424,N,06959.5937,W,2,10,0.93,11.7,M,-34.3,M,0000,0000*6E 
445.451         GPS_NMEA_FROM_GPS    iGPS            $GPRMC,190134.000,A,4144.3425,N,06959.5934,W,0.78,49.53,290321,,,D*45 
446.453         GPS_NMEA_FROM_GPS    iGPS            $GPGGA,190135.000,4144.3426,N,06959.5932,W,2,10,0.93,11.6,M,-34.3,M,0000,0000*6E 
447.355         GPS_NMEA_FROM_GPS    iGPS            $GPGGA,190136.000,4144.3428,N,06959.5929,W,2,10,0.93,11.6,M,-34.3,M,0000,0000*69 
