1.764           GPS_NMEA_FROM_GPS    iGPS            $GPGGA,184117.000,4144.3506,N,06959.5365,W,2,08,1.13,9.8,M,-34.3,M,0000,0000*57 
2.766           GPS_NMEA_FROM_GPS    iGPS            $GPRMC,184118.000,A,4144.3506,N,06959.5366,W,0.16,274.10,270321,,,D*7E 
2.766           GPS_NMEA_FROM_GPS    iGPS            $GPRMC,184118.000,A,4144.3506,N,06959.5366,W,0.16,274.10,270321,,,D*7E 
3.767           GPS_NMEA_FROM_GPS    iGPS            $GPGGA,184119.000,4144.3506,N,06959.5367,W,2,09,0.96,9.8,M,-34.3,M,0000,0000*56 
3.767           GPS_NMEA_FROM_GPS    iGPS            $GPGGA,184119.000,4144.3506,N,06959.5367,W,2,09,0.96,9.8,M,-34.3,M,0000,0000*56 
4.769           GPS_NMEA_FROM_GPS    iGPS            $GPGGA,184120.000,4144.3505,N,06959.5367,W,2,08,1.13,9.8,M,-34.3,M,0000,0000*52 
5.872           GPS_NMEA_FROM_GPS    iGPS            $GPRMC,184121.000,A,4144.3505,N,06959.5368,W,0.14,239.14,270321,,,D*76 
6.774           GPS_NMEA_FROM_GPS    iGPS            $GPGGA,184122.000,4144.3505,N,06959.5368,W,2,08,1.13,9.8,M,-34.3,M,0000,0000*5F 
7.876           GPS_NMEA_FROM_GPS    iGPS            $GPRMC,184123.000,A,4144.3505,N,06959.5368,W,0.11,242.52,270321,,,D*7F 
8.878           GPS_NMEA_FROM_GPS    iGPS            $GPRMC,184124.000,A,4144.3505,N,06959.5369,W,0.11,245.88,270321,,,D*79 
9.780           GPS_NMEA_FROM_GPS    iGPS            $GPGGA,184125.000,4144.3504,N,06959.5369,W,2,08,1.13,9.9,M,-34.3,M,0000,0000*59 
10.782          GPS_NMEA_FROM_GPS    iGPS            $GPGGA,184126.000,4144.3504,N,06959.5370,W,2,08,1.13,9.9,M,-34.3,M,0000,0000*52 
11.684          GPS_NMEA_FROM_GPS    iGPS            $GPGGA,184127.000,4144.3504,N,06959.5370,W,2,08,1.13,9.9,M,-34.3,M,0000,0000*53 
11.684          GPS_NMEA_FROM_GPS    iGPS            $GPGGA,184127.000,4144.3504,N,06959.5370,W,2,08,1.13,9.9,M,-34.3,M,0000,0000*53 
12.786          GPS_NMEA_FROM_GPS    iGPS            $GPGGA,184128.000,4144.3504,N,06959.5370,W,2,08,1.13,9.9,M,-34.3,M,0000,0000*5C 
12.786          GPS_NMEA_FROM_GPS    iGPS            $GPGGA,184128.000,4144.3504,N,06959.5370,W,2,08,1.13,9.9,M,-34.3,M,0000,0000*5C 
13.689          GPS_NMEA_FROM_GPS    iGPS            $GPGGA,184129.000,4144.3504,N,06959.5371,W,2,08,1.13,9.9,M,-34.3,M,0000,0000*5C 
14.791          GPS_NMEA_FROM_GPS    iGPS            $GPGGA,184130.000,4144.3504,N,06959.5371,W,2,08,1.13,9.9,M,-34.3,M,0000,0000*54 
15.794          GPS_NMEA_FROM_GPS    iGPS            $GPGGA,184131.000,4144.3504,N,06959.5372,W,2,08,1.13,10.0,M,-34.3,M,0000,0000*67 
16.796          GPS_NMEA_FROM_GPS    iGPS            $GPGGA,184132.000,4144.3504,N,06959.5372,W,2,08,1.13,10.0,M,-34.3,M,0000,0000*64 
17.898          GPS_NMEA_FROM_GPS    iGPS            $GPGGA,184133.000,4144.3504,N,06959.5373,W,2,09,0.96,10.0,M,-34.3,M,0000,0000*69 
18.902          GPS_NMEA_FROM_GPS    iGPS            $GPGGA,184134.000,4144.3503,N,06959.5373,W,2,09,0.96,10.0,M,-34.3,M,0000,0000*69 
19.904          GPS_NMEA_FROM_GPS    iGPS            $GPRMC,184135.000,A,4144.3503,N,06959.5374,W,0.19,263.51,270321,,,D*7B 
20.806          GPS_NMEA_FROM_GPS    iGPS            $GPGGA,184136.000,4144.3503,N,06959.5375,W,2,09,0.96,10.1,M,-34.3,M,0000,0000*6C 
20.806          GPS_NMEA_FROM_GPS    iGPS            $GPGGA,184136.000,4144.3503,N,06959.5375,W,2,09,0.96,10.1,M,-34.3,M,0000,0000*6C 
21.908          GPS_NMEA_FROM_GPS    iGPS            $GPRMC,184137.000,A,4144.3503,N,06959.5375,W,0.20,259.27,270321,,,D*7A 
22.810          GPS_NMEA_FROM_GPS    iGPS            $GPRMC,184138.000,A,4144.3503,N,06959.5376,W,0.20,260.21,270321,,,D*7A 
23.712          GPS_NMEA_FROM_GPS    iGPS            $GPGGA,184139.000,4144.3503,N,06959.5377,W,2,08,1.14,10.1,M,-34.3,M,0000,0000*6B 
24.814          GPS_NMEA_FROM_GPS    iGPS            $GPGGA,184140.000,4144.3503,N,06959.5378,W,2,08,1.14,10.1,M,-34.3,M,0000,0000*6A 
24.814          GPS_NMEA_FROM_GPS    iGPS            $GPGGA,184140.000,4144.3503,N,06959.5378,W,2,08,1.14,10.1,M,-34.3,M,0000,0000*6A 
25.816          GPS_NMEA_FROM_GPS    iGPS            $GPRMC,184141.000,A,4144.3503,N,06959.5378,W,0.18,259.75,270321,,,D*7A 
26.818          GPS_NMEA_FROM_GPS    iGPS            $GPRMC,184142.000,A,4144.3503,N,06959.5379,W,0.14,259.84,270321,,,D*7A 
27.820          GPS_NMEA_FROM_GPS    iGPS            $GPGGA,184143.000,4144.3503,N,06959.5380,W,2,08,1.14,10.2,M,-34.3,M,0000,0000*6D 
28.822          GPS_NMEA_FROM_GPS    iGPS            $GPGGA,184144.000,4144.3503,N,06959.5380,W,2,08,1.14,10.2,M,-34.3,M,0000,0000*6A 
29.724          GPS_NMEA_FROM_GPS    iGPS            $GPGGA,184145.000,4144.3503,N,06959.5380,W,2,08,1.14,10.2,M,-34.3,M,0000,0000*6B 
30.830          GPS_NMEA_FROM_GPS    iGPS            $GPRMC,184146.000,A,4144.3503,N,06959.5380,W,0.11,352.12,270321,,,D*78 
31.731          GPS_NMEA_FROM_GPS    iGPS            $GPGGA,184147.000,4144.3503,N,06959.5380,W,2,08,1.14,10.2,M,-34.3,M,0000,0000*69 
32.836          GPS_NMEA_FROM_GPS    iGPS            $GPRMC,184148.000,A,4144.3504,N,06959.5380,W,0.17,10.03,270321,,,D*42 
33.737          GPS_NMEA_FROM_GPS    iGPS            $GPGGA,184149.000,4144.3504,N,06959.5380,W,2,08,1.14,10.3,M,-34.3,M,0000,0000*61 
34.739          GPS_NMEA_FROM_GPS    iGPS            $GPGGA,184150.000,4144.3505,N,06959.5380,W,2,08,1.14,10.3,M,-34.3,M,0000,0000*68 
35.842          GPS_NMEA_FROM_GPS    iGPS            $GPRMC,184151.000,A,4144.3505,N,06959.5380,W,0.27,13.40,270321,,,D*4C 
36.849          GPS_NMEA_FROM_GPS    iGPS            $GPGGA,184152.000,4144.3506,N,06959.5379,W,2,08,1.14,10.4,M,-34.3,M,0000,0000*68 
37.752          GPS_NMEA_FROM_GPS    iGPS            $GPGGA,184153.000,4144.3507,N,06959.5379,W,2,08,1.14,10.4,M,-34.3,M,0000,0000*68 
38.854          GPS_NMEA_FROM_GPS    iGPS            $GPRMC,184154.000,A,4144.3508,N,06959.5378,W,0.36,22.23,270321,,,D*44 
39.756          GPS_NMEA_FROM_GPS    iGPS            $GPGGA,184155.000,4144.3509,N,06959.5377,W,2,08,1.14,10.5,M,-34.3,M,0000,0000*6F 
40.758          GPS_NMEA_FROM_GPS    iGPS            $GPGGA,184156.000,4144.3510,N,06959.5377,W,2,08,1.14,10.5,M,-34.3,M,0000,0000*64 
41.760          GPS_NMEA_FROM_GPS    iGPS            $GPGGA,184157.000,4144.3510,N,06959.5376,W,2,08,1.14,10.6,M,-34.3,M,0000,0000*67 
42.862          GPS_NMEA_FROM_GPS    iGPS            $GPGGA,184158.000,4144.3511,N,06959.5375,W,2,09,0.96,10.6,M,-34.3,M,0000,0000*60 
43.867          GPS_NMEA_FROM_GPS    iGPS            $GPGGA,184159.000,4144.3512,N,06959.5374,W,2,09,0.96,10.6,M,-34.3,M,0000,0000*63 
44.968          GPS_NMEA_FROM_GPS    iGPS            $GPRMC,184200.000,A,4144.3513,N,06959.5373,W,0.47,40.58,270321,,,D*49 
45.869          GPS_NMEA_FROM_GPS    iGPS            $GPGGA,184201.000,4144.3514,N,06959.5372,W,2,09,0.96,10.7,M,-34.3,M,0000,0000*6C 
46.871          GPS_NMEA_FROM_GPS    iGPS            $GPGGA,184202.000,4144.3515,N,06959.5370,W,2,09,0.96,10.7,M,-34.3,M,0000,0000*6C 
47.873          GPS_NMEA_FROM_GPS    iGPS            $GPGGA,184203.000,4144.3516,N,06959.5368,W,2,09,0.94,10.7,M,-34.3,M,0000,0000*65 
48.775          GPS_NMEA_FROM_GPS    iGPS            $GPGGA,184204.000,4144.3517,N,06959.5366,W,2,08,1.07,10.7,M,-34.3,M,0000,0000*67 
49.877          GPS_NMEA_FROM_GPS    iGPS            $GPGGA,184205.000,4144.3517,N,06959.5363,W,2,09,0.94,10.7,M,-34.3,M,0000,0000*69 
50.880          GPS_NMEA_FROM_GPS    iGPS            $GPRMC,184206.000,A,4144.3518,N,06959.5361,W,0.60,63.40,270321,,,D*4A 
51.982          GPS_NMEA_FROM_GPS    iGPS            $GPRMC,184207.000,A,4144.3519,N,06959.5358,W,0.61,65.36,270321,,,D*46 
52.884          GPS_NMEA_FROM_GPS    iGPS            $GPGGA,184208.000,4144.3520,N,06959.5355,W,2,09,0.94,10.6,M,-34.3,M,0000,0000*64 
53.886          GPS_NMEA_FROM_GPS    iGPS            $GPGGA,184209.000,4144.3521,N,06959.5352,W,2,09,0.94,10.6,M,-34.3,M,0000,0000*63 
54.888          GPS_NMEA_FROM_GPS    iGPS            $GPRMC,184210.000,A,4144.3522,N,06959.5349,W,0.65,65.55,270321,,,D*49 
55.890          GPS_NMEA_FROM_GPS    iGPS            $GPGGA,184211.000,4144.3524,N,06959.5347,W,2,09,0.94,10.5,M,-34.3,M,0000,0000*68 
56.892          GPS_NMEA_FROM_GPS    iGPS            $GPGGA,184212.000,4144.3525,N,06959.5344,W,2,09,0.96,10.5,M,-34.3,M,0000,0000*6B 
57.894          GPS_NMEA_FROM_GPS    iGPS            $GPGGA,184213.000,4144.3527,N,06959.5341,W,2,09,0.94,10.4,M,-34.3,M,0000,0000*6E 
58.897          GPS_NMEA_FROM_GPS    iGPS            $GPGGA,184214.000,4144.3528,N,06959.5338,W,2,09,0.94,10.4,M,-34.3,M,0000,0000*68 
59.899          GPS_NMEA_FROM_GPS    iGPS            $GPGGA,184215.000,4144.3530,N,06959.5335,W,2,09,0.96,10.4,M,-34.3,M,0000,0000*6F 
60.901          GPS_NMEA_FROM_GPS    iGPS            $GPGGA,184216.000,4144.3531,N,06959.5332,W,2,09,0.94,10.4,M,-34.3,M,0000,0000*68 
61.903          GPS_NMEA_FROM_GPS    iGPS            $GPRMC,184217.000,A,4144.3532,N,06959.5329,W,0.73,60.18,270321,,,D*42 
62.805          GPS_NMEA_FROM_GPS    iGPS            $GPGGA,184218.000,4144.3534,N,06959.5326,W,2,09,0.94,10.5,M,-34.3,M,0000,0000*67 
63.907          GPS_NMEA_FROM_GPS    iGPS            $GPGGA,184219.000,4144.3534,N,06959.5323,W,2,09,0.94,10.6,M,-34.3,M,0000,0000*60 
64.910          GPS_NMEA_FROM_GPS    iGPS            $GPRMC,184220.000,A,4144.3535,N,06959.5320,W,0.75,64.86,270321,,,D*4D 
65.912          GPS_NMEA_FROM_GPS    iGPS            $GPGGA,184221.000,4144.3536,N,06959.5317,W,2,09,0.94,10.7,M,-34.3,M,0000,0000*6F 
66.914          GPS_NMEA_FROM_GPS    iGPS            $GPRMC,184222.000,A,4144.3536,N,06959.5314,W,0.66,71.09,270321,,,D*4A 
67.916          GPS_NMEA_FROM_GPS    iGPS            $GPGGA,184223.000,4144.3536,N,06959.5311,W,2,09,0.96,10.7,M,-34.3,M,0000,0000*69 
68.919          GPS_NMEA_FROM_GPS    iGPS            $GPGGA,184224.000,4144.3537,N,06959.5309,W,2,09,0.96,10.7,M,-34.3,M,0000,0000*66 
69.922          GPS_NMEA_FROM_GPS    iGPS            $GPGGA,184225.000,4144.3537,N,06959.5306,W,2,09,0.94,10.7,M,-34.3,M,0000,0000*6A 
70.924          GPS_NMEA_FROM_GPS    iGPS            $GPRMC,184226.000,A,4144.3537,N,06959.5303,W,0.66,78.68,270321,,,D*47 
71.826          GPS_NMEA_FROM_GPS    iGPS            $GPGGA,184227.000,4144.3538,N,06959.5300,W,2,09,0.96,10.7,M,-34.3,M,0000,0000*63 
72.929          GPS_NMEA_FROM_GPS    iGPS            $GPRMC,184228.000,A,4144.3538,N,06959.5297,W,0.66,78.89,270321,,,D*45 
73.830          GPS_NMEA_FROM_GPS    iGPS            $GPGGA,184229.000,4144.3539,N,06959.5294,W,2,09,0.94,10.7,M,-34.3,M,0000,0000*62 
74.832          GPS_NMEA_FROM_GPS    iGPS            $GPGGA,184230.000,4144.3540,N,06959.5291,W,2,09,0.94,10.7,M,-34.3,M,0000,0000*61 
75.834          GPS_NMEA_FROM_GPS    iGPS            $GPGGA,184231.000,4144.3540,N,06959.5289,W,2,09,0.96,10.7,M,-34.3,M,0000,0000*6B 
76.938          GPS_NMEA_FROM_GPS    iGPS            $GPRMC,184232.000,A,4144.3541,N,06959.5286,W,0.70,72.82,270321,,,D*46 
77.839          GPS_NMEA_FROM_GPS    iGPS            $GPGGA,184233.000,4144.3542,N,06959.5283,W,2,09,0.94,10.8,M,-34.3,M,0000,0000*6C 
78.942          GPS_NMEA_FROM_GPS    iGPS            $GPRMC,184234.000,A,4144.3543,N,06959.5281,W,0.70,68.87,270321,,,D*4B 
79.943          GPS_NMEA_FROM_GPS    iGPS            $GPRMC,184235.000,A,4144.3544,N,06959.5278,W,0.72,67.27,270321,,,D*4C 
80.946          GPS_NMEA_FROM_GPS    iGPS            $GPRMC,184236.000,A,4144.3545,N,06959.5276,W,0.67,66.71,270321,,,D*46 
81.948          GPS_NMEA_FROM_GPS    iGPS            $GPRMC,184237.000,A,4144.3546,N,06959.5273,W,0.70,66.27,270321,,,D*44 
82.850          GPS_NMEA_FROM_GPS    iGPS            $GPGGA,184238.000,4144.3547,N,06959.5271,W,2,09,0.96,10.5,M,-34.3,M,0000,0000*60 
83.852          GPS_NMEA_FROM_GPS    iGPS            $GPGGA,184239.000,4144.3548,N,06959.5268,W,2,09,0.96,10.5,M,-34.3,M,0000,0000*66 
84.854          GPS_NMEA_FROM_GPS    iGPS            $GPGGA,184240.000,4144.3549,N,06959.5265,W,2,09,0.94,10.5,M,-34.3,M,0000,0000*66 
85.856          GPS_NMEA_FROM_GPS    iGPS            $GPGGA,184241.000,4144.3550,N,06959.5262,W,2,09,0.94,10.6,M,-34.3,M,0000,0000*6B 
86.958          GPS_NMEA_FROM_GPS    iGPS            $GPRMC,184242.000,A,4144.3551,N,06959.5260,W,0.79,67.06,270321,,,D*49 
87.860          GPS_NMEA_FROM_GPS    iGPS            $GPGGA,184243.000,4144.3552,N,06959.5257,W,2,09,0.94,10.6,M,-34.3,M,0000,0000*6D 
88.862          GPS_NMEA_FROM_GPS    iGPS            $GPGGA,184244.000,4144.3552,N,06959.5254,W,2,09,0.94,10.7,M,-34.3,M,0000,0000*68 
89.865          GPS_NMEA_FROM_GPS    iGPS            $GPGGA,184245.000,4144.3553,N,06959.5251,W,2,09,0.96,10.7,M,-34.3,M,0000,0000*6F 
90.867          GPS_NMEA_FROM_GPS    iGPS            $GPGGA,184246.000,4144.3553,N,06959.5248,W,2,09,0.94,10.7,M,-34.3,M,0000,0000*66 
91.870          GPS_NMEA_FROM_GPS    iGPS            $GPGGA,184247.000,4144.3554,N,06959.5244,W,2,09,0.94,10.8,M,-34.3,M,0000,0000*63 
92.872          GPS_NMEA_FROM_GPS    iGPS            $GPGGA,184248.000,4144.3554,N,06959.5241,W,2,09,0.96,10.8,M,-34.3,M,0000,0000*6B 
93.875          GPS_NMEA_FROM_GPS    iGPS            $GPGGA,184249.000,4144.3555,N,06959.5238,W,2,09,0.94,10.7,M,-34.3,M,0000,0000*68 
94.877          GPS_NMEA_FROM_GPS    iGPS            $GPGGA,184250.000,4144.3555,N,06959.5235,W,2,09,0.94,10.7,M,-34.3,M,0000,0000*6D 
95.879          GPS_NMEA_FROM_GPS    iGPS            $GPRMC,184251.000,A,4144.3556,N,06959.5232,W,0.71,73.74,270321,,,D*43 
96.881          GPS_NMEA_FROM_GPS    iGPS            $GPGGA,184252.000,4144.3557,N,06959.5229,W,2,09,0.94,10.8,M,-34.3,M,0000,0000*6F 
97.884          GPS_NMEA_FROM_GPS    iGPS            $GPGGA,184253.000,4144.3557,N,06959.5226,W,2,09,0.94,10.9,M,-34.3,M,0000,0000*60 
98.886          GPS_NMEA_FROM_GPS    iGPS            $GPRMC,184254.000,A,4144.3558,N,06959.5223,W,0.71,73.77,270321,,,D*4B 
99.888          GPS_NMEA_FROM_GPS    iGPS            $GPGGA,184255.000,4144.3559,N,06959.5220,W,2,09,0.94,10.9,M,-34.3,M,0000,0000*6E 
100.889         GPS_NMEA_FROM_GPS    iGPS            $GPRMC,184256.000,A,4144.3560,N,06959.5218,W,0.73,71.82,270321,,,D*40 
101.891         GPS_NMEA_FROM_GPS    iGPS            $GPGGA,184257.000,4144.3560,N,06959.5215,W,2,09,0.94,11.0,M,-34.3,M,0000,0000*68 
102.894         GPS_NMEA_FROM_GPS    iGPS            $GPGGA,184258.000,4144.3561,N,06959.5212,W,2,09,0.94,10.9,M,-34.3,M,0000,0000*69 
103.896         GPS_NMEA_FROM_GPS    iGPS            $GPGGA,184259.000,4144.3562,N,06959.5209,W,2,09,0.96,10.9,M,-34.3,M,0000,0000*63 
104.898         GPS_NMEA_FROM_GPS    iGPS            $GPRMC,184300.000,A,4144.3563,N,06959.5207,W,0.71,69.26,270321,,,D*4A 
105.900         GPS_NMEA_FROM_GPS    iGPS            $GPRMC,184301.000,A,4144.3564,N,06959.5204,W,0.72,68.65,270321,,,D*4A 
106.902         GPS_NMEA_FROM_GPS    iGPS            $GPRMC,184302.000,A,4144.3565,N,06959.5201,W,0.73,68.05,270321,,,D*4A 
107.904         GPS_NMEA_FROM_GPS    iGPS            $GPGGA,184303.000,4144.3566,N,06959.5199,W,2,09,0.94,10.7,M,-34.3,M,0000,0000*6F 
108.806         GPS_NMEA_FROM_GPS    iGPS            $GPGGA,184304.000,4144.3567,N,06959.5196,W,2,09,0.94,10.7,M,-34.3,M,0000,0000*66 
109.809         GPS_NMEA_FROM_GPS    iGPS            $GPGGA,184305.000,4144.3567,N,06959.5193,W,2,09,0.94,10.7,M,-34.3,M,0000,0000*62 
110.912         GPS_NMEA_FROM_GPS    iGPS            $GPRMC,184306.000,A,4144.3568,N,06959.5190,W,0.79,66.20,270321,,,D*4B 
111.913         GPS_NMEA_FROM_GPS    iGPS            $GPGGA,184307.000,4144.3569,N,06959.5188,W,2,09,0.94,10.7,M,-34.3,M,0000,0000*64 
112.916         GPS_NMEA_FROM_GPS    iGPS            $GPGGA,184308.000,4144.3570,N,06959.5185,W,2,09,0.94,10.8,M,-34.3,M,0000,0000*61 
113.918         GPS_NMEA_FROM_GPS    iGPS            $GPGGA,184309.000,4144.3571,N,06959.5182,W,2,09,0.96,10.8,M,-34.3,M,0000,0000*64 
114.920         GPS_NMEA_FROM_GPS    iGPS            $GPGGA,184310.000,4144.3572,N,06959.5179,W,2,09,0.94,10.8,M,-34.3,M,0000,0000*69 
115.822         GPS_NMEA_FROM_GPS    iGPS            $GPGGA,184311.000,4144.3573,N,06959.5177,W,2,09,0.94,10.8,M,-34.3,M,0000,0000*67 
116.824         GPS_NMEA_FROM_GPS    iGPS            $GPGGA,184312.000,4144.3574,N,06959.5174,W,2,09,0.96,10.7,M,-34.3,M,0000,0000*6D 
117.826         GPS_NMEA_FROM_GPS    iGPS            $GPGGA,184313.000,4144.3575,N,06959.5172,W,2,09,0.94,10.7,M,-34.3,M,0000,0000*69 
118.929         GPS_NMEA_FROM_GPS    iGPS            $GPRMC,184314.000,A,4144.3575,N,06959.5169,W,0.75,70.12,270321,,,D*48 
119.831         GPS_NMEA_FROM_GPS    iGPS            $GPGGA,184315.000,4144.3576,N,06959.5167,W,2,09,0.96,10.7,M,-34.3,M,0000,0000*6A 
120.933         GPS_NMEA_FROM_GPS    iGPS            $GPRMC,184316.000,A,4144.3577,N,06959.5164,W,0.68,70.18,270321,,,D*43 
121.935         GPS_NMEA_FROM_GPS    iGPS            $GPRMC,184317.000,A,4144.3577,N,06959.5162,W,0.70,69.75,270321,,,D*4E 
122.937         GPS_NMEA_FROM_GPS    iGPS            $GPGGA,184318.000,4144.3578,N,06959.5159,W,2,09,0.96,10.8,M,-34.3,M,0000,0000*6B 
123.939         GPS_NMEA_FROM_GPS    iGPS            $GPRMC,184319.000,A,4144.3579,N,06959.5157,W,0.69,68.54,270321,,,D*42 
124.941         GPS_NMEA_FROM_GPS    iGPS            $GPRMC,184320.000,A,4144.3579,N,06959.5154,W,0.68,67.53,270321,,,D*42 
125.843         GPS_NMEA_FROM_GPS    iGPS            $GPGGA,184321.000,4144.3580,N,06959.5152,W,2,09,0.96,10.9,M,-34.3,M,0000,0000*6C 
126.845         GPS_NMEA_FROM_GPS    iGPS            $GPGGA,184322.000,4144.3581,N,06959.5150,W,2,09,0.94,10.9,M,-34.3,M,0000,0000*6E 
127.848         GPS_NMEA_FROM_GPS    iGPS            $GPGGA,184323.000,4144.3582,N,06959.5147,W,2,09,0.94,10.9,M,-34.3,M,0000,0000*6A 
128.950         GPS_NMEA_FROM_GPS    iGPS            $GPRMC,184324.000,A,4144.3583,N,06959.5144,W,0.79,62.32,270321,,,D*40 
129.852         GPS_NMEA_FROM_GPS    iGPS            $GPGGA,184325.000,4144.3584,N,06959.5142,W,2,09,0.94,11.0,M,-34.3,M,0000,0000*67 
130.755         GPS_NMEA_FROM_GPS    iGPS            $GPGGA,184326.000,4144.3585,N,06959.5140,W,2,08,1.07,11.0,M,-34.3,M,0000,0000*6D 
131.757         GPS_NMEA_FROM_GPS    iGPS            $GPGGA,184327.000,4144.3586,N,06959.5139,W,2,08,1.15,11.1,M,-34.3,M,0000,0000*63 
132.859         GPS_NMEA_FROM_GPS    iGPS            $GPGGA,184328.000,4144.3587,N,06959.5138,W,2,09,0.96,11.1,M,-34.3,M,0000,0000*67 
133.962         GPS_NMEA_FROM_GPS    iGPS            $GPRMC,184329.000,A,4144.3588,N,06959.5137,W,0.49,47.69,270321,,,D*48 
134.863         GPS_NMEA_FROM_GPS    iGPS            $GPGGA,184330.000,4144.3590,N,06959.5136,W,2,09,0.96,11.1,M,-34.3,M,0000,0000*66 
135.866         GPS_NMEA_FROM_GPS    iGPS            $GPGGA,184331.000,4144.3591,N,06959.5136,W,2,09,0.96,11.0,M,-34.3,M,0000,0000*67 
136.968         GPS_NMEA_FROM_GPS    iGPS            $GPRMC,184332.000,A,4144.3592,N,06959.5137,W,0.41,28.75,270321,,,D*45 
137.870         GPS_NMEA_FROM_GPS    iGPS            $GPGGA,184333.000,4144.3593,N,06959.5138,W,2,09,0.96,11.0,M,-34.3,M,0000,0000*69 
138.873         GPS_NMEA_FROM_GPS    iGPS            $GPGGA,184334.000,4144.3594,N,06959.5140,W,2,09,0.96,10.8,M,-34.3,M,0000,0000*6F 
139.875         GPS_NMEA_FROM_GPS    iGPS            $GPGGA,184335.000,4144.3595,N,06959.5142,W,2,09,0.96,10.7,M,-34.3,M,0000,0000*62 
140.777         GPS_NMEA_FROM_GPS    iGPS            $GPGGA,184336.000,4144.3596,N,06959.5143,W,2,09,0.96,10.7,M,-34.3,M,0000,0000*63 
141.879         GPS_NMEA_FROM_GPS    iGPS            $GPGGA,184337.000,4144.3597,N,06959.5144,W,2,09,0.96,10.7,M,-34.3,M,0000,0000*64 
142.881         GPS_NMEA_FROM_GPS    iGPS            $GPGGA,184338.000,4144.3598,N,06959.5146,W,2,09,0.94,10.6,M,-34.3,M,0000,0000*65 
143.883         GPS_NMEA_FROM_GPS    iGPS            $GPGGA,184339.000,4144.3598,N,06959.5150,W,2,09,0.94,10.6,M,-34.3,M,0000,0000*63 
144.886         GPS_NMEA_FROM_GPS    iGPS            $GPGGA,184340.000,4144.3599,N,06959.5153,W,2,09,0.94,10.6,M,-34.3,M,0000,0000*6F 
145.888         GPS_NMEA_FROM_GPS    iGPS            $GPGGA,184341.000,4144.3599,N,06959.5156,W,2,09,0.94,10.6,M,-34.3,M,0000,0000*6B 
146.791         GPS_NMEA_FROM_GPS    iGPS            $GPGGA,184342.000,4144.3600,N,06959.5159,W,2,09,0.94,10.5,M,-34.3,M,0000,0000*67 
147.793         GPS_NMEA_FROM_GPS    iGPS            $GPGGA,184343.000,4144.3601,N,06959.5162,W,2,09,0.96,10.5,M,-34.3,M,0000,0000*6D 
148.695         GPS_NMEA_FROM_GPS    iGPS            $GPGGA,184344.000,4144.3601,N,06959.5165,W,2,08,1.07,10.5,M,-34.3,M,0000,0000*65 
149.798         GPS_NMEA_FROM_GPS    iGPS            $GPGGA,184345.000,4144.3602,N,06959.5168,W,2,09,0.94,10.4,M,-34.3,M,0000,0000*61 
151.000         GPS_NMEA_FROM_GPS    iGPS            $GPRMC,184346.000,A,4144.3603,N,06959.5171,W,0.71,278.29,270321,,,D*72 
151.902         GPS_NMEA_FROM_GPS    iGPS            $GPRMC,184347.000,A,4144.3603,N,06959.5175,W,0.71,275.59,270321,,,D*7D 
152.904         GPS_NMEA_FROM_GPS    iGPS            $GPRMC,184348.000,A,4144.3603,N,06959.5178,W,0.71,272.61,270321,,,D*73 
153.905         GPS_NMEA_FROM_GPS    iGPS            $GPGGA,184349.000,4144.3603,N,06959.5181,W,2,09,0.96,10.1,M,-34.3,M,0000,0000*6C 
154.907         GPS_NMEA_FROM_GPS    iGPS            $GPGGA,184350.000,4144.3603,N,06959.5184,W,2,09,0.94,10.0,M,-34.3,M,0000,0000*62 
155.909         GPS_NMEA_FROM_GPS    iGPS            $GPGGA,184351.000,4144.3603,N,06959.5188,W,2,09,0.94,10.0,M,-34.3,M,0000,0000*6F 
156.911         GPS_NMEA_FROM_GPS    iGPS            $GPRMC,184352.000,A,4144.3603,N,06959.5191,W,0.69,259.98,270321,,,D*79 
157.913         GPS_NMEA_FROM_GPS    iGPS            $GPGGA,184353.000,4144.3602,N,06959.5194,W,2,09,0.94,10.1,M,-34.3,M,0000,0000*60 
158.815         GPS_NMEA_FROM_GPS    iGPS            $GPGGA,184354.000,4144.3602,N,06959.5198,W,2,09,0.94,10.2,M,-34.3,M,0000,0000*68 
159.917         GPS_NMEA_FROM_GPS    iGPS            $GPRMC,184355.000,A,4144.3601,N,06959.5201,W,0.77,249.73,270321,,,D*7D 
160.819         GPS_NMEA_FROM_GPS    iGPS            $GPGGA,184356.000,4144.3600,N,06959.5204,W,2,09,0.94,10.3,M,-34.3,M,0000,0000*6F 
161.921         GPS_NMEA_FROM_GPS    iGPS            $GPGGA,184357.000,4144.3599,N,06959.5207,W,2,09,0.94,10.3,M,-34.3,M,0000,0000*6E 
162.923         GPS_NMEA_FROM_GPS    iGPS            $GPGGA,184358.000,4144.3598,N,06959.5210,W,2,09,0.94,10.4,M,-34.3,M,0000,0000*61 
163.926         GPS_NMEA_FROM_GPS    iGPS            $GPGGA,184359.000,4144.3597,N,06959.5213,W,2,09,0.94,10.5,M,-34.3,M,0000,0000*6D 
164.928         GPS_NMEA_FROM_GPS    iGPS            $GPGGA,184400.000,4144.3595,N,06959.5216,W,2,09,0.94,10.6,M,-34.3,M,0000,0000*62 
165.829         GPS_NMEA_FROM_GPS    iGPS            $GPGGA,184401.000,4144.3594,N,06959.5219,W,2,09,0.94,10.6,M,-34.3,M,0000,0000*6D 
166.832         GPS_NMEA_FROM_GPS    iGPS            $GPGGA,184402.000,4144.3592,N,06959.5222,W,2,09,0.94,10.5,M,-34.3,M,0000,0000*63 
167.733         GPS_NMEA_FROM_GPS    iGPS            $GPGGA,184403.000,4144.3591,N,06959.5225,W,2,09,0.95,10.6,M,-34.3,M,0000,0000*64 
168.836         GPS_NMEA_FROM_GPS    iGPS            $GPGGA,184404.000,4144.3589,N,06959.5228,W,2,09,0.94,10.7,M,-34.3,M,0000,0000*67 
169.838         GPS_NMEA_FROM_GPS    iGPS            $GPRMC,184405.000,A,4144.3588,N,06959.5231,W,0.76,231.97,270321,,,D*7A 
170.740         GPS_NMEA_FROM_GPS    iGPS            $GPGGA,184406.000,4144.3586,N,06959.5235,W,2,09,0.94,10.8,M,-34.3,M,0000,0000*69 
171.741         GPS_NMEA_FROM_GPS    iGPS            $GPGGA,184407.000,4144.3585,N,06959.5238,W,2,09,0.94,10.9,M,-34.3,M,0000,0000*67 
172.844         GPS_NMEA_FROM_GPS    iGPS            $GPRMC,184408.000,A,4144.3584,N,06959.5241,W,0.80,234.27,270321,,,D*7B 
173.846         GPS_NMEA_FROM_GPS    iGPS            $GPRMC,184409.000,A,4144.3583,N,06959.5244,W,0.88,234.23,270321,,,D*74 
174.848         GPS_NMEA_FROM_GPS    iGPS            $GPRMC,184410.000,A,4144.3581,N,06959.5248,W,0.87,234.84,270321,,,D*70 
175.850         GPS_NMEA_FROM_GPS    iGPS            $GPRMC,184411.000,A,4144.3580,N,06959.5251,W,0.85,234.29,270321,,,D*7D 
176.752         GPS_NMEA_FROM_GPS    iGPS            $GPGGA,184412.000,4144.3579,N,06959.5254,W,2,09,0.95,11.4,M,-34.3,M,0000,0000*67 
177.754         GPS_NMEA_FROM_GPS    iGPS            $GPGGA,184413.000,4144.3577,N,06959.5258,W,2,09,0.95,11.5,M,-34.3,M,0000,0000*65 
178.856         GPS_NMEA_FROM_GPS    iGPS            $GPRMC,184414.000,A,4144.3576,N,06959.5261,W,0.90,233.06,270321,,,D*7C 
179.758         GPS_NMEA_FROM_GPS    iGPS            $GPGGA,184415.000,4144.3575,N,06959.5264,W,2,09,0.95,11.7,M,-34.3,M,0000,0000*6C 
180.760         GPS_NMEA_FROM_GPS    iGPS            $GPGGA,184416.000,4144.3573,N,06959.5267,W,2,09,0.95,11.7,M,-34.3,M,0000,0000*6A 
181.763         GPS_NMEA_FROM_GPS    iGPS            $GPGGA,184417.000,4144.3572,N,06959.5270,W,2,09,0.95,11.8,M,-34.3,M,0000,0000*63 
182.765         GPS_NMEA_FROM_GPS    iGPS            $GPGGA,184418.000,4144.3571,N,06959.5273,W,2,09,0.94,11.8,M,-34.3,M,0000,0000*6D 
183.766         GPS_NMEA_FROM_GPS    iGPS            $GPGGA,184419.000,4144.3569,N,06959.5276,W,2,09,0.94,11.8,M,-34.3,M,0000,0000*60 
184.768         GPS_NMEA_FROM_GPS    iGPS            $GPGGA,184420.000,4144.3568,N,06959.5279,W,2,09,0.95,11.8,M,-34.3,M,0000,0000*65 
185.871         GPS_NMEA_FROM_GPS    iGPS            $GPRMC,184421.000,A,4144.3567,N,06959.5282,W,0.86,233.47,270321,,,D*75 
186.772         GPS_NMEA_FROM_GPS    iGPS            $GPGGA,184422.000,4144.3566,N,06959.5285,W,2,09,0.95,12.0,M,-34.3,M,0000,0000*61 
187.775         GPS_NMEA_FROM_GPS    iGPS            $GPGGA,184423.000,4144.3565,N,06959.5288,W,2,09,0.95,12.2,M,-34.3,M,0000,0000*6C 
188.778         GPS_NMEA_FROM_GPS    iGPS            $GPGGA,184424.000,4144.3563,N,06959.5291,W,2,09,0.95,12.3,M,-34.3,M,0000,0000*64 
189.780         GPS_NMEA_FROM_GPS    iGPS            $GPGGA,184425.000,4144.3562,N,06959.5294,W,2,09,0.95,12.5,M,-34.3,M,0000,0000*67 
190.782         GPS_NMEA_FROM_GPS    iGPS            $GPRMC,184426.000,A,4144.3561,N,06959.5297,W,0.78,238.09,270321,,,D*70 
191.784         GPS_NMEA_FROM_GPS    iGPS            $GPGGA,184427.000,4144.3560,N,06959.5300,W,2,09,0.95,12.7,M,-34.3,M,0000,0000*69 
192.786         GPS_NMEA_FROM_GPS    iGPS            $GPGGA,184428.000,4144.3559,N,06959.5302,W,2,09,0.95,12.7,M,-34.3,M,0000,0000*6E 
193.788         GPS_NMEA_FROM_GPS    iGPS            $GPGGA,184429.000,4144.3557,N,06959.5305,W,2,09,0.95,12.7,M,-34.3,M,0000,0000*66 
194.790         GPS_NMEA_FROM_GPS    iGPS            $GPRMC,184430.000,A,4144.3556,N,06959.5308,W,0.89,235.19,270321,,,D*76 
195.792         GPS_NMEA_FROM_GPS    iGPS            $GPGGA,184431.000,4144.3554,N,06959.5311,W,2,09,0.95,12.7,M,-34.3,M,0000,0000*69 
196.394         GPS_NMEA_FROM_GPS    iGPS            $GPGGA,184432.000,4144.3552,N,06959.5314,W,2,09,0.95,12.7,M,-34.3,M,0000,0000*69 
197.396         GPS_NMEA_FROM_GPS    iGPS            $GPGGA,184433.000,4144.3551,N,06959.5317,W,2,09,0.95,12.8,M,-34.3,M,0000,0000*67 
198.398         GPS_NMEA_FROM_GPS    iGPS            $GPGGA,184434.000,4144.3550,N,06959.5320,W,2,09,0.95,12.9,M,-34.3,M,0000,0000*64 
199.400         GPS_NMEA_FROM_GPS    iGPS            $GPGGA,184435.000,4144.3548,N,06959.5324,W,2,09,0.95,13.0,M,-34.3,M,0000,0000*60 
200.402         GPS_NMEA_FROM_GPS    iGPS            $GPGGA,184436.000,4144.3547,N,06959.5326,W,2,09,0.95,13.2,M,-34.3,M,0000,0000*6C 
201.404         GPS_NMEA_FROM_GPS    iGPS            $GPGGA,184437.000,4144.3546,N,06959.5329,W,2,09,0.95,13.3,M,-34.3,M,0000,0000*62 
202.406         GPS_NMEA_FROM_GPS    iGPS            $GPGGA,184438.000,4144.3545,N,06959.5332,W,2,09,0.95,13.5,M,-34.3,M,0000,0000*62 
203.408         GPS_NMEA_FROM_GPS    iGPS            $GPGGA,184439.000,4144.3544,N,06959.5335,W,2,09,0.95,13.5,M,-34.3,M,0000,0000*65 
204.410         GPS_NMEA_FROM_GPS    iGPS            $GPGGA,184440.000,4144.3543,N,06959.5338,W,2,09,0.95,13.6,M,-34.3,M,0000,0000*62 
205.413         GPS_NMEA_FROM_GPS    iGPS            $GPGGA,184441.000,4144.3541,N,06959.5341,W,2,09,0.95,13.6,M,-34.3,M,0000,0000*6F 
206.415         GPS_NMEA_FROM_GPS    iGPS            $GPGGA,184442.000,4144.3540,N,06959.5343,W,2,09,0.95,13.6,M,-34.3,M,0000,0000*6F 
207.416         GPS_NMEA_FROM_GPS    iGPS            $GPGGA,184443.000,4144.3538,N,06959.5346,W,2,09,0.95,13.6,M,-34.3,M,0000,0000*64 
208.418         GPS_NMEA_FROM_GPS    iGPS            $GPGGA,184444.000,4144.3536,N,06959.5349,W,2,09,0.95,13.6,M,-34.3,M,0000,0000*62 
209.420         GPS_NMEA_FROM_GPS    iGPS            $GPGGA,184445.000,4144.3535,N,06959.5352,W,2,09,0.95,13.6,M,-34.3,M,0000,0000*6A 
210.424         GPS_NMEA_FROM_GPS    iGPS            $GPGGA,184446.000,4144.3533,N,06959.5354,W,2,09,0.95,13.6,M,-34.3,M,0000,0000*69 
211.426         GPS_NMEA_FROM_GPS    iGPS            $GPGGA,184447.000,4144.3532,N,06959.5357,W,2,09,0.95,13.7,M,-34.3,M,0000,0000*6B 
212.428         GPS_NMEA_FROM_GPS    iGPS            $GPGGA,184448.000,4144.3530,N,06959.5359,W,2,09,0.95,13.8,M,-34.3,M,0000,0000*67 
213.430         GPS_NMEA_FROM_GPS    iGPS            $GPGGA,184449.000,4144.3530,N,06959.5361,W,2,09,0.96,13.9,M,-34.3,M,0000,0000*6F 
214.432         GPS_NMEA_FROM_GPS    iGPS            $GPGGA,184450.000,4144.3529,N,06959.5363,W,2,08,1.07,13.9,M,-34.3,M,0000,0000*65 
215.435         GPS_NMEA_FROM_GPS    iGPS            $GPGGA,184451.000,4144.3528,N,06959.5365,W,2,08,1.07,13.9,M,-34.3,M,0000,0000*63 
216.437         GPS_NMEA_FROM_GPS    iGPS            $GPGGA,184452.000,4144.3528,N,06959.5367,W,2,08,1.07,13.9,M,-34.3,M,0000,0000*62 
217.439         GPS_NMEA_FROM_GPS    iGPS            $GPGGA,184453.000,4144.3528,N,06959.5369,W,2,09,0.95,13.7,M,-34.3,M,0000,0000*68 
218.441         GPS_NMEA_FROM_GPS    iGPS            $GPGGA,184454.000,4144.3528,N,06959.5371,W,2,09,0.96,13.7,M,-34.3,M,0000,0000*65 
219.444         GPS_NMEA_FROM_GPS    iGPS            $GPGGA,184455.000,4144.3528,N,06959.5374,W,2,09,1.16,13.5,M,-34.3,M,0000,0000*6A 
220.446         GPS_NMEA_FROM_GPS    iGPS            $GPGGA,184456.000,4144.3529,N,06959.5376,W,2,10,0.88,13.4,M,-34.3,M,0000,0000*65 
221.448         GPS_NMEA_FROM_GPS    iGPS            $GPGGA,184457.000,4144.3530,N,06959.5377,W,2,08,1.07,13.3,M,-34.3,M,0000,0000*65 
222.450         GPS_NMEA_FROM_GPS    iGPS            $GPRMC,184458.000,A,4144.3531,N,06959.5378,W,0.68,295.17,270321,,,D*75 
223.452         GPS_NMEA_FROM_GPS    iGPS            $GPGGA,184459.000,4144.3533,N,06959.5378,W,2,08,1.07,13.2,M,-34.3,M,0000,0000*66 
224.454         GPS_NMEA_FROM_GPS    iGPS            $GPGGA,184500.000,4144.3535,N,06959.5378,W,2,08,1.07,13.1,M,-34.3,M,0000,0000*6E 
225.457         GPS_NMEA_FROM_GPS    iGPS            $GPRMC,184501.000,A,4144.3537,N,06959.5378,W,0.73,321.06,270321,,,D*7A 
226.464         GPS_NMEA_FROM_GPS    iGPS            $GPRMC,184502.000,A,4144.3538,N,06959.5378,W,0.63,325.15,270321,,,D*71 
227.766         GPS_NMEA_FROM_GPS    iGPS            $GPGGA,184503.000,4144.3539,N,06959.5378,W,2,09,0.95,12.9,M,-34.3,M,0000,0000*63 
228.868         GPS_NMEA_FROM_GPS    iGPS            $GPGGA,184504.000,4144.3541,N,06959.5379,W,2,10,0.88,12.9,M,-34.3,M,0000,0000*6E 
229.870         GPS_NMEA_FROM_GPS    iGPS            $GPGGA,184505.000,4144.3542,N,06959.5379,W,2,10,0.88,12.8,M,-34.3,M,0000,0000*6D 
230.872         GPS_NMEA_FROM_GPS    iGPS            $GPRMC,184506.000,A,4144.3543,N,06959.5381,W,0.69,325.10,270321,,,D*70 
231.874         GPS_NMEA_FROM_GPS    iGPS            $GPGGA,184507.000,4144.3544,N,06959.5382,W,2,10,0.88,12.7,M,-34.3,M,0000,0000*62 
232.776         GPS_NMEA_FROM_GPS    iGPS            $GPGGA,184508.000,4144.3546,N,06959.5384,W,2,09,1.16,12.6,M,-34.3,M,0000,0000*66 
233.778         GPS_NMEA_FROM_GPS    iGPS            $GPGGA,184509.000,4144.3547,N,06959.5385,W,2,10,0.88,12.6,M,-34.3,M,0000,0000*69 
234.781         GPS_NMEA_FROM_GPS    iGPS            $GPGGA,184510.000,4144.3549,N,06959.5387,W,2,10,0.88,12.5,M,-34.3,M,0000,0000*6E 
235.883         GPS_NMEA_FROM_GPS    iGPS            $GPRMC,184511.000,A,4144.3551,N,06959.5389,W,0.81,323.45,270321,,,D*7D 
236.885         GPS_NMEA_FROM_GPS    iGPS            $GPRMC,184512.000,A,4144.3553,N,06959.5390,W,0.81,323.90,270321,,,D*7C 
237.788         GPS_NMEA_FROM_GPS    iGPS            $GPGGA,184513.000,4144.3554,N,06959.5392,W,2,10,0.88,12.3,M,-34.3,M,0000,0000*63 
238.890         GPS_NMEA_FROM_GPS    iGPS            $GPRMC,184514.000,A,4144.3556,N,06959.5394,W,0.82,323.95,270321,,,D*7D 
239.893         GPS_NMEA_FROM_GPS    iGPS            $GPRMC,184515.000,A,4144.3558,N,06959.5396,W,0.74,322.84,270321,,,D*78 
240.896         GPS_NMEA_FROM_GPS    iGPS            $GPRMC,184516.000,A,4144.3559,N,06959.5397,W,0.70,321.89,270321,,,D*71 
241.797         GPS_NMEA_FROM_GPS    iGPS            $GPGGA,184517.000,4144.3560,N,06959.5399,W,2,10,0.92,12.0,M,-34.3,M,0000,0000*63 
242.799         GPS_NMEA_FROM_GPS    iGPS            $GPGGA,184518.000,4144.3562,N,06959.5401,W,2,10,0.88,12.0,M,-34.3,M,0000,0000*63 
243.801         GPS_NMEA_FROM_GPS    iGPS            $GPGGA,184519.000,4144.3564,N,06959.5403,W,2,09,1.03,11.9,M,-34.3,M,0000,0000*66 
244.804         GPS_NMEA_FROM_GPS    iGPS            $GPRMC,184520.000,A,4144.3565,N,06959.5405,W,0.74,322.66,270321,,,D*71 
245.805         GPS_NMEA_FROM_GPS    iGPS            $GPGGA,184521.000,4144.3567,N,06959.5406,W,2,08,1.07,11.7,M,-34.3,M,0000,0000*60 
246.707         GPS_NMEA_FROM_GPS    iGPS            $GPGGA,184522.000,4144.3570,N,06959.5408,W,2,08,1.07,11.7,M,-34.3,M,0000,0000*6B 
247.710         GPS_NMEA_FROM_GPS    iGPS            $GPGGA,184523.000,4144.3572,N,06959.5409,W,2,08,1.07,11.7,M,-34.3,M,0000,0000*69 
248.812         GPS_NMEA_FROM_GPS    iGPS            $GPGGA,184524.000,4144.3574,N,06959.5409,W,2,08,1.07,11.7,M,-34.3,M,0000,0000*68 
249.814         GPS_NMEA_FROM_GPS    iGPS            $GPGGA,184525.000,4144.3576,N,06959.5410,W,2,08,1.07,11.7,M,-34.3,M,0000,0000*63 
250.816         GPS_NMEA_FROM_GPS    iGPS            $GPGGA,184526.000,4144.3578,N,06959.5410,W,2,08,1.07,11.7,M,-34.3,M,0000,0000*6E 
251.818         GPS_NMEA_FROM_GPS    iGPS            $GPGGA,184527.000,4144.3579,N,06959.5411,W,2,10,0.88,11.7,M,-34.3,M,0000,0000*60 
252.820         GPS_NMEA_FROM_GPS    iGPS            $GPGGA,184528.000,4144.3580,N,06959.5412,W,2,10,0.88,11.6,M,-34.3,M,0000,0000*6B 
253.823         GPS_NMEA_FROM_GPS    iGPS            $GPGGA,184529.000,4144.3582,N,06959.5414,W,2,09,0.95,11.6,M,-34.3,M,0000,0000*6A 
254.825         GPS_NMEA_FROM_GPS    iGPS            $GPRMC,184530.000,A,4144.3583,N,06959.5415,W,0.72,327.81,270321,,,D*73 
255.827         GPS_NMEA_FROM_GPS    iGPS            $GPRMC,184531.000,A,4144.3585,N,06959.5417,W,0.73,325.09,270321,,,D*75 
256.829         GPS_NMEA_FROM_GPS    iGPS            $GPRMC,184532.000,A,4144.3586,N,06959.5418,W,0.71,323.17,270321,,,D*71 
257.831         GPS_NMEA_FROM_GPS    iGPS            $GPGGA,184533.000,4144.3587,N,06959.5420,W,2,09,0.95,11.5,M,-34.3,M,0000,0000*60 
258.836         GPS_NMEA_FROM_GPS    iGPS            $GPRMC,184534.000,A,4144.3589,N,06959.5422,W,0.85,324.14,270321,,,D*7E 
259.838         GPS_NMEA_FROM_GPS    iGPS            $GPGGA,184535.000,4144.3591,N,06959.5423,W,2,09,0.95,11.5,M,-34.3,M,0000,0000*62 
260.840         GPS_NMEA_FROM_GPS    iGPS            $GPRMC,184536.000,A,4144.3593,N,06959.5425,W,0.81,327.30,270321,,,D*71 
261.842         GPS_NMEA_FROM_GPS    iGPS            $GPGGA,184537.000,4144.3595,N,06959.5426,W,2,08,1.07,11.4,M,-34.3,M,0000,0000*6B 
262.744         GPS_NMEA_FROM_GPS    iGPS            $GPGGA,184538.000,4144.3597,N,06959.5428,W,2,08,1.07,11.4,M,-34.3,M,0000,0000*68 
263.846         GPS_NMEA_FROM_GPS    iGPS            $GPGGA,184539.000,4144.3599,N,06959.5429,W,2,08,1.07,11.4,M,-34.3,M,0000,0000*66 
264.748         GPS_NMEA_FROM_GPS    iGPS            $GPGGA,184540.000,4144.3601,N,06959.5430,W,2,09,0.95,11.3,M,-34.3,M,0000,0000*6E 
265.850         GPS_NMEA_FROM_GPS    iGPS            $GPRMC,184541.000,A,4144.3602,N,06959.5431,W,0.69,328.80,270321,,,D*7D 
266.852         GPS_NMEA_FROM_GPS    iGPS            $GPRMC,184542.000,A,4144.3604,N,06959.5433,W,0.72,328.13,270321,,,D*7A 
267.854         GPS_NMEA_FROM_GPS    iGPS            $GPGGA,184543.000,4144.3605,N,06959.5434,W,2,09,0.95,11.2,M,-34.3,M,0000,0000*6C 
268.857         GPS_NMEA_FROM_GPS    iGPS            $GPGGA,184544.000,4144.3607,N,06959.5435,W,2,09,0.95,11.2,M,-34.3,M,0000,0000*68 
269.859         GPS_NMEA_FROM_GPS    iGPS            $GPGGA,184545.000,4144.3608,N,06959.5437,W,2,09,0.95,11.2,M,-34.3,M,0000,0000*64 
270.861         GPS_NMEA_FROM_GPS    iGPS            $GPGGA,184546.000,4144.3610,N,06959.5438,W,2,08,1.07,11.1,M,-34.3,M,0000,0000*69 
271.763         GPS_NMEA_FROM_GPS    iGPS            $GPGGA,184547.000,4144.3612,N,06959.5440,W,2,09,0.95,11.1,M,-34.3,M,0000,0000*6E 
272.865         GPS_NMEA_FROM_GPS    iGPS            $GPRMC,184548.000,A,4144.3614,N,06959.5441,W,0.82,331.62,270321,,,D*75 
273.767         GPS_NMEA_FROM_GPS    iGPS            $GPGGA,184549.000,4144.3616,N,06959.5443,W,2,09,0.95,11.2,M,-34.3,M,0000,0000*64 
274.869         GPS_NMEA_FROM_GPS    iGPS            $GPGGA,184550.000,4144.3618,N,06959.5444,W,2,09,0.95,11.2,M,-34.3,M,0000,0000*65 
275.872         GPS_NMEA_FROM_GPS    iGPS            $GPGGA,184551.000,4144.3620,N,06959.5445,W,2,09,0.95,11.1,M,-34.3,M,0000,0000*6D 
276.774         GPS_NMEA_FROM_GPS    iGPS            $GPGGA,184552.000,4144.3621,N,06959.5446,W,2,09,0.95,11.1,M,-34.3,M,0000,0000*6C 
277.776         GPS_NMEA_FROM_GPS    iGPS            $GPGGA,184553.000,4144.3622,N,06959.5447,W,2,09,0.95,11.1,M,-34.3,M,0000,0000*6F 
278.878         GPS_NMEA_FROM_GPS    iGPS            $GPRMC,184554.000,A,4144.3624,N,06959.5449,W,0.73,327.56,270321,,,D*7D 
279.880         GPS_NMEA_FROM_GPS    iGPS            $GPRMC,184555.000,A,4144.3625,N,06959.5451,W,0.76,325.27,270321,,,D*75 
280.781         GPS_NMEA_FROM_GPS    iGPS            $GPGGA,184556.000,4144.3627,N,06959.5453,W,2,08,1.07,11.0,M,-34.3,M,0000,0000*60 
281.883         GPS_NMEA_FROM_GPS    iGPS            $GPRMC,184557.000,A,4144.3629,N,06959.5454,W,0.83,324.54,270321,,,D*71 
282.886         GPS_NMEA_FROM_GPS    iGPS            $GPRMC,184558.000,A,4144.3631,N,06959.5456,W,0.87,325.39,270321,,,D*7B 
283.787         GPS_NMEA_FROM_GPS    iGPS            $GPGGA,184559.000,4144.3633,N,06959.5458,W,2,08,1.07,10.9,M,-34.3,M,0000,0000*69 
284.890         GPS_NMEA_FROM_GPS    iGPS            $GPRMC,184600.000,A,4144.3635,N,06959.5459,W,0.76,327.66,270321,,,D*78 
285.791         GPS_NMEA_FROM_GPS    iGPS            $GPGGA,184601.000,4144.3637,N,06959.5461,W,2,08,1.18,11.0,M,-34.3,M,0000,0000*6F 
286.693         GPS_NMEA_FROM_GPS    iGPS            $GPGGA,184602.000,4144.3638,N,06959.5462,W,2,08,1.18,11.0,M,-34.3,M,0000,0000*60 
287.796         GPS_NMEA_FROM_GPS    iGPS            $GPRMC,184603.000,A,4144.3639,N,06959.5464,W,0.56,325.74,270321,,,D*7A 
288.798         GPS_NMEA_FROM_GPS    iGPS            $GPGGA,184604.000,4144.3640,N,06959.5465,W,2,08,1.18,11.0,M,-34.3,M,0000,0000*6E 
289.700         GPS_NMEA_FROM_GPS    iGPS            $GPGGA,184605.000,4144.3641,N,06959.5466,W,2,08,1.18,10.9,M,-34.3,M,0000,0000*65 
290.802         GPS_NMEA_FROM_GPS    iGPS            $GPGGA,184606.000,4144.3641,N,06959.5468,W,2,08,1.18,10.9,M,-34.3,M,0000,0000*68 
291.804         GPS_NMEA_FROM_GPS    iGPS            $GPGGA,184607.000,4144.3641,N,06959.5469,W,2,08,1.18,10.9,M,-34.3,M,0000,0000*68 
292.807         GPS_NMEA_FROM_GPS    iGPS            $GPRMC,184608.000,A,4144.3641,N,06959.5471,W,0.40,295.32,270321,,,D*75 
293.808         GPS_NMEA_FROM_GPS    iGPS            $GPGGA,184609.000,4144.3641,N,06959.5472,W,2,08,1.42,11.0,M,-34.3,M,0000,0000*6B 
294.710         GPS_NMEA_FROM_GPS    iGPS            $GPGGA,184610.000,4144.3641,N,06959.5473,W,2,07,1.52,11.0,M,-34.3,M,0000,0000*6C 
295.813         GPS_NMEA_FROM_GPS    iGPS            $GPGGA,184611.000,4144.3641,N,06959.5475,W,2,08,1.18,11.0,M,-34.3,M,0000,0000*6A 
296.715         GPS_NMEA_FROM_GPS    iGPS            $GPGGA,184612.000,4144.3640,N,06959.5476,W,2,09,0.96,11.0,M,-34.3,M,0000,0000*6D 
297.818         GPS_NMEA_FROM_GPS    iGPS            $GPRMC,184613.000,A,4144.3639,N,06959.5477,W,0.40,244.69,270321,,,D*74 
298.719         GPS_NMEA_FROM_GPS    iGPS            $GPGGA,184614.000,4144.3638,N,06959.5478,W,2,09,0.97,11.0,M,-34.3,M,0000,0000*6B 
299.821         GPS_NMEA_FROM_GPS    iGPS            $GPGGA,184615.000,4144.3637,N,06959.5478,W,2,09,0.97,10.9,M,-34.3,M,0000,0000*6D 
300.723         GPS_NMEA_FROM_GPS    iGPS            $GPGGA,184616.000,4144.3636,N,06959.5478,W,2,08,1.17,10.9,M,-34.3,M,0000,0000*67 
301.825         GPS_NMEA_FROM_GPS    iGPS            $GPGGA,184617.000,4144.3634,N,06959.5478,W,2,08,1.17,10.9,M,-34.3,M,0000,0000*64 
302.827         GPS_NMEA_FROM_GPS    iGPS            $GPGGA,184618.000,4144.3632,N,06959.5479,W,2,09,1.08,10.8,M,-34.3,M,0000,0000*62 
303.729         GPS_NMEA_FROM_GPS    iGPS            $GPGGA,184619.000,4144.3629,N,06959.5479,W,2,08,1.42,10.8,M,-34.3,M,0000,0000*66 
304.832         GPS_NMEA_FROM_GPS    iGPS            $GPRMC,184620.000,A,4144.3627,N,06959.5479,W,0.72,185.75,270321,,,D*77 
305.834         GPS_NMEA_FROM_GPS    iGPS            $GPRMC,184621.000,A,4144.3625,N,06959.5479,W,0.63,181.88,270321,,,D*72 
306.736         GPS_NMEA_FROM_GPS    iGPS            $GPGGA,184622.000,4144.3622,N,06959.5478,W,2,08,1.07,10.5,M,-34.3,M,0000,0000*68 
307.738         GPS_NMEA_FROM_GPS    iGPS            $GPGGA,184623.000,4144.3620,N,06959.5478,W,2,07,1.52,10.5,M,-34.3,M,0000,0000*64 
308.746         GPS_NMEA_FROM_GPS    iGPS            $GPGGA,184624.000,4144.3618,N,06959.5477,W,2,07,1.52,10.5,M,-34.3,M,0000,0000*67 
309.848         GPS_NMEA_FROM_GPS    iGPS            $GPGGA,184625.000,4144.3617,N,06959.5477,W,2,09,1.21,10.4,M,-34.3,M,0000,0000*62 
310.750         GPS_NMEA_FROM_GPS    iGPS            $GPGGA,184626.000,4144.3614,N,06959.5476,W,2,10,0.92,10.5,M,-34.3,M,0000,0000*63 
311.853         GPS_NMEA_FROM_GPS    iGPS            $GPGGA,184627.000,4144.3612,N,06959.5476,W,2,10,0.92,10.6,M,-34.3,M,0000,0000*67 
312.855         GPS_NMEA_FROM_GPS    iGPS            $GPRMC,184628.000,A,4144.3609,N,06959.5476,W,0.80,165.81,270321,,,D*74 
313.857         GPS_NMEA_FROM_GPS    iGPS            $GPGGA,184629.000,4144.3606,N,06959.5475,W,2,10,0.88,10.9,M,-34.3,M,0000,0000*6B 
314.859         GPS_NMEA_FROM_GPS    iGPS            $GPRMC,184630.000,A,4144.3604,N,06959.5474,W,0.75,161.25,270321,,,D*72 
315.861         GPS_NMEA_FROM_GPS    iGPS            $GPGGA,184631.000,4144.3601,N,06959.5472,W,2,09,1.03,10.9,M,-34.3,M,0000,0000*68 
316.763         GPS_NMEA_FROM_GPS    iGPS            $GPGGA,184632.000,4144.3599,N,06959.5471,W,2,08,1.08,10.9,M,-34.3,M,0000,0000*60 
317.765         GPS_NMEA_FROM_GPS    iGPS            $GPGGA,184633.000,4144.3597,N,06959.5469,W,2,09,1.17,10.8,M,-34.3,M,0000,0000*68 
318.767         GPS_NMEA_FROM_GPS    iGPS            $GPGGA,184634.000,4144.3595,N,06959.5467,W,2,10,0.92,10.7,M,-34.3,M,0000,0000*68 
319.769         GPS_NMEA_FROM_GPS    iGPS            $GPGGA,184635.000,4144.3593,N,06959.5465,W,2,08,1.08,10.7,M,-34.3,M,0000,0000*66 
320.772         GPS_NMEA_FROM_GPS    iGPS            $GPGGA,184636.000,4144.3592,N,06959.5463,W,2,09,0.95,10.6,M,-34.3,M,0000,0000*67 
321.773         GPS_NMEA_FROM_GPS    iGPS            $GPGGA,184637.000,4144.3590,N,06959.5461,W,2,10,0.92,10.5,M,-34.3,M,0000,0000*6A 
322.775         GPS_NMEA_FROM_GPS    iGPS            $GPGGA,184638.000,4144.3588,N,06959.5459,W,2,10,0.88,10.5,M,-34.3,M,0000,0000*6C 
323.878         GPS_NMEA_FROM_GPS    iGPS            $GPRMC,184639.000,A,4144.3587,N,06959.5457,W,0.70,137.77,270321,,,D*73 
324.880         GPS_NMEA_FROM_GPS    iGPS            $GPGGA,184640.000,4144.3584,N,06959.5455,W,2,10,0.88,10.4,M,-34.3,M,0000,0000*62 
325.883         GPS_NMEA_FROM_GPS    iGPS            $GPRMC,184641.000,A,4144.3582,N,06959.5454,W,0.79,141.58,270321,,,D*7F 
326.885         GPS_NMEA_FROM_GPS    iGPS            $GPRMC,184642.000,A,4144.3580,N,06959.5453,W,0.78,143.43,270321,,,D*70 
327.787         GPS_NMEA_FROM_GPS    iGPS            $GPGGA,184643.000,4144.3577,N,06959.5452,W,2,09,0.95,10.5,M,-34.3,M,0000,0000*6F 
328.788         GPS_NMEA_FROM_GPS    iGPS            $GPGGA,184644.000,4144.3575,N,06959.5450,W,2,10,0.88,10.4,M,-34.3,M,0000,0000*6D 
329.791         GPS_NMEA_FROM_GPS    iGPS            $GPRMC,184645.000,A,4144.3573,N,06959.5449,W,0.69,145.84,270321,,,D*7D 
330.894         GPS_NMEA_FROM_GPS    iGPS            $GPRMC,184646.000,A,4144.3571,N,06959.5448,W,0.65,144.40,270321,,,D*78 
331.795         GPS_NMEA_FROM_GPS    iGPS            $GPGGA,184647.000,4144.3569,N,06959.5446,W,2,10,0.88,10.2,M,-34.3,M,0000,0000*62 
332.798         GPS_NMEA_FROM_GPS    iGPS            $GPGGA,184648.000,4144.3568,N,06959.5444,W,2,09,1.17,10.1,M,-34.3,M,0000,0000*62 
333.800         GPS_NMEA_FROM_GPS    iGPS            $GPGGA,184649.000,4144.3566,N,06959.5442,W,2,09,1.03,10.0,M,-34.3,M,0000,0000*6F 
334.802         GPS_NMEA_FROM_GPS    iGPS            $GPGGA,184650.000,4144.3564,N,06959.5439,W,2,09,1.03,9.9,M,-34.3,M,0000,0000*58 
335.804         GPS_NMEA_FROM_GPS    iGPS            $GPGGA,184651.000,4144.3562,N,06959.5437,W,2,09,1.18,9.7,M,-34.3,M,0000,0000*55 
336.807         GPS_NMEA_FROM_GPS    iGPS            $GPGGA,184652.000,4144.3561,N,06959.5435,W,2,09,1.03,9.5,M,-34.3,M,0000,0000*5F 
337.809         GPS_NMEA_FROM_GPS    iGPS            $GPGGA,184653.000,4144.3559,N,06959.5433,W,2,10,0.88,9.4,M,-34.3,M,0000,0000*58 
338.811         GPS_NMEA_FROM_GPS    iGPS            $GPGGA,184654.000,4144.3557,N,06959.5431,W,2,10,0.92,9.3,M,-34.3,M,0000,0000*5F 
339.813         GPS_NMEA_FROM_GPS    iGPS            $GPGGA,184655.000,4144.3556,N,06959.5428,W,2,09,1.03,9.2,M,-34.3,M,0000,0000*57 
340.815         GPS_NMEA_FROM_GPS    iGPS            $GPRMC,184656.000,A,4144.3554,N,06959.5427,W,0.82,136.13,270321,,,D*7D 
341.816         GPS_NMEA_FROM_GPS    iGPS            $GPGGA,184657.000,4144.3552,N,06959.5425,W,2,10,0.92,9.1,M,-34.3,M,0000,0000*5E 
342.818         GPS_NMEA_FROM_GPS    iGPS            $GPGGA,184658.000,4144.3550,N,06959.5423,W,2,10,0.88,9.1,M,-34.3,M,0000,0000*5E 
343.821         GPS_NMEA_FROM_GPS    iGPS            $GPRMC,184659.000,A,4144.3548,N,06959.5422,W,0.76,139.52,270321,,,D*7B 
344.823         GPS_NMEA_FROM_GPS    iGPS            $GPGGA,184700.000,4144.3546,N,06959.5421,W,2,10,0.88,9.0,M,-34.3,M,0000,0000*56 
345.825         GPS_NMEA_FROM_GPS    iGPS            $GPGGA,184701.000,4144.3544,N,06959.5419,W,2,09,0.95,9.0,M,-34.3,M,0000,0000*5A 
346.827         GPS_NMEA_FROM_GPS    iGPS            $GPRMC,184702.000,A,4144.3541,N,06959.5418,W,0.78,143.14,270321,,,D*75 
347.829         GPS_NMEA_FROM_GPS    iGPS            $GPRMC,184703.000,A,4144.3539,N,06959.5417,W,0.78,143.56,270321,,,D*72 
348.832         GPS_NMEA_FROM_GPS    iGPS            $GPGGA,184704.000,4144.3537,N,06959.5415,W,2,09,1.03,8.8,M,-34.3,M,0000,0000*50 
349.834         GPS_NMEA_FROM_GPS    iGPS            $GPRMC,184705.000,A,4144.3535,N,06959.5413,W,0.70,143.61,270321,,,D*70 
350.837         GPS_NMEA_FROM_GPS    iGPS            $GPRMC,184706.000,A,4144.3533,N,06959.5412,W,0.71,142.56,270321,,,D*70 
351.738         GPS_NMEA_FROM_GPS    iGPS            $GPGGA,184707.000,4144.3531,N,06959.5410,W,2,08,1.19,8.7,M,-34.3,M,0000,0000*55 
352.740         GPS_NMEA_FROM_GPS    iGPS            $GPGGA,184708.000,4144.3530,N,06959.5408,W,2,09,1.18,8.7,M,-34.3,M,0000,0000*52 
353.742         GPS_NMEA_FROM_GPS    iGPS            $GPGGA,184709.000,4144.3528,N,06959.5406,W,2,09,1.03,8.7,M,-34.3,M,0000,0000*5E 
354.845         GPS_NMEA_FROM_GPS    iGPS            $GPRMC,184710.000,A,4144.3526,N,06959.5404,W,0.67,136.62,270321,,,D*77 
355.847         GPS_NMEA_FROM_GPS    iGPS            $GPRMC,184711.000,A,4144.3525,N,06959.5402,W,0.67,134.25,270321,,,D*72 
356.849         GPS_NMEA_FROM_GPS    iGPS            $GPRMC,184712.000,A,4144.3524,N,06959.5400,W,0.61,132.20,270321,,,D*77 
357.851         GPS_NMEA_FROM_GPS    iGPS            $GPGGA,184713.000,4144.3522,N,06959.5398,W,2,09,1.03,8.6,M,-34.3,M,0000,0000*5E 
358.854         GPS_NMEA_FROM_GPS    iGPS            $GPRMC,184714.000,A,4144.3521,N,06959.5397,W,0.54,130.86,270321,,,D*75 
359.756         GPS_NMEA_FROM_GPS    iGPS            $GPGGA,184715.000,4144.3520,N,06959.5395,W,2,09,0.97,8.5,M,-34.3,M,0000,0000*58 
360.758         GPS_NMEA_FROM_GPS    iGPS            $GPGGA,184716.000,4144.3518,N,06959.5394,W,2,10,0.92,8.5,M,-34.3,M,0000,0000*5C 
361.760         GPS_NMEA_FROM_GPS    iGPS            $GPGGA,184717.000,4144.3517,N,06959.5393,W,2,09,0.97,8.5,M,-34.3,M,0000,0000*58 
362.762         GPS_NMEA_FROM_GPS    iGPS            $GPGGA,184718.000,4144.3515,N,06959.5392,W,2,09,0.97,8.5,M,-34.3,M,0000,0000*54 
363.865         GPS_NMEA_FROM_GPS    iGPS            $GPRMC,184719.000,A,4144.3514,N,06959.5392,W,0.58,154.23,270321,,,D*7A 
364.767         GPS_NMEA_FROM_GPS    iGPS            $GPGGA,184720.000,4144.3513,N,06959.5393,W,2,09,0.97,8.6,M,-34.3,M,0000,0000*5B 
365.768         GPS_NMEA_FROM_GPS    iGPS            $GPGGA,184721.000,4144.3511,N,06959.5394,W,2,09,0.97,8.7,M,-34.3,M,0000,0000*5E 
366.770         GPS_NMEA_FROM_GPS    iGPS            $GPGGA,184722.000,4144.3510,N,06959.5395,W,2,09,0.95,8.8,M,-34.3,M,0000,0000*50 
367.772         GPS_NMEA_FROM_GPS    iGPS            $GPGGA,184723.000,4144.3510,N,06959.5397,W,2,09,0.95,8.9,M,-34.3,M,0000,0000*52 
368.775         GPS_NMEA_FROM_GPS    iGPS            $GPRMC,184724.000,A,4144.3509,N,06959.5399,W,0.72,202.35,270321,,,D*7C 
369.776         GPS_NMEA_FROM_GPS    iGPS            $GPGGA,184725.000,4144.3508,N,06959.5401,W,2,09,0.95,9.1,M,-34.3,M,0000,0000*5C 
370.778         GPS_NMEA_FROM_GPS    iGPS            $GPGGA,184726.000,4144.3508,N,06959.5404,W,2,09,0.95,9.2,M,-34.3,M,0000,0000*59 
371.781         GPS_NMEA_FROM_GPS    iGPS            $GPRMC,184727.000,A,4144.3508,N,06959.5406,W,0.65,221.82,270321,,,D*74 
372.782         GPS_NMEA_FROM_GPS    iGPS            $GPGGA,184728.000,4144.3508,N,06959.5408,W,2,09,0.97,9.4,M,-34.3,M,0000,0000*5F 
373.784         GPS_NMEA_FROM_GPS    iGPS            $GPGGA,184729.000,4144.3507,N,06959.5411,W,2,09,0.95,9.4,M,-34.3,M,0000,0000*5B 
374.787         GPS_NMEA_FROM_GPS    iGPS            $GPGGA,184730.000,4144.3507,N,06959.5413,W,2,09,0.95,9.5,M,-34.3,M,0000,0000*50 
375.789         GPS_NMEA_FROM_GPS    iGPS            $GPGGA,184731.000,4144.3506,N,06959.5416,W,2,09,0.95,9.6,M,-34.3,M,0000,0000*56 
376.791         GPS_NMEA_FROM_GPS    iGPS            $GPGGA,184732.000,4144.3505,N,06959.5418,W,2,09,0.95,9.8,M,-34.3,M,0000,0000*56 
377.794         GPS_NMEA_FROM_GPS    iGPS            $GPGGA,184733.000,4144.3504,N,06959.5421,W,2,09,0.95,10.0,M,-34.3,M,0000,0000*6C 
378.796         GPS_NMEA_FROM_GPS    iGPS            $GPGGA,184734.000,4144.3503,N,06959.5423,W,2,09,0.95,10.1,M,-34.3,M,0000,0000*6F 
379.798         GPS_NMEA_FROM_GPS    iGPS            $GPGGA,184735.000,4144.3502,N,06959.5426,W,2,09,0.95,10.1,M,-34.3,M,0000,0000*6A 
380.800         GPS_NMEA_FROM_GPS    iGPS            $GPGGA,184736.000,4144.3501,N,06959.5428,W,2,09,0.95,10.2,M,-34.3,M,0000,0000*67 
381.802         GPS_NMEA_FROM_GPS    iGPS            $GPGGA,184737.000,4144.3500,N,06959.5431,W,2,09,0.95,10.2,M,-34.3,M,0000,0000*6F 
382.805         GPS_NMEA_FROM_GPS    iGPS            $GPRMC,184738.000,A,4144.3499,N,06959.5433,W,0.80,231.32,270321,,,D*74 
383.807         GPS_NMEA_FROM_GPS    iGPS            $GPRMC,184739.000,A,4144.3498,N,06959.5436,W,0.83,232.03,270321,,,D*73 
384.809         GPS_NMEA_FROM_GPS    iGPS            $GPGGA,184740.000,4144.3497,N,06959.5439,W,2,09,0.95,10.5,M,-34.3,M,0000,0000*6F 
385.811         GPS_NMEA_FROM_GPS    iGPS            $GPGGA,184741.000,4144.3496,N,06959.5442,W,2,09,0.95,10.6,M,-34.3,M,0000,0000*60 
386.814         GPS_NMEA_FROM_GPS    iGPS            $GPGGA,184742.000,4144.3495,N,06959.5445,W,2,09,0.95,10.7,M,-34.3,M,0000,0000*66 
387.916         GPS_NMEA_FROM_GPS    iGPS            $GPRMC,184743.000,A,4144.3494,N,06959.5448,W,0.80,232.46,270321,,,D*79 
388.818         GPS_NMEA_FROM_GPS    iGPS            $GPGGA,184744.000,4144.3493,N,06959.5451,W,2,09,0.95,10.9,M,-34.3,M,0000,0000*6D 
389.720         GPS_NMEA_FROM_GPS    iGPS            $GPGGA,184745.000,4144.3492,N,06959.5454,W,2,09,0.95,11.0,M,-34.3,M,0000,0000*60 
390.822         GPS_NMEA_FROM_GPS    iGPS            $GPGGA,184746.000,4144.3491,N,06959.5457,W,2,09,0.95,11.1,M,-34.3,M,0000,0000*62 
391.825         GPS_NMEA_FROM_GPS    iGPS            $GPRMC,184747.000,A,4144.3490,N,06959.5460,W,0.83,234.60,270321,,,D*72 
392.726         GPS_NMEA_FROM_GPS    iGPS            $GPGGA,184748.000,4144.3489,N,06959.5463,W,2,09,0.95,11.2,M,-34.3,M,0000,0000*61 
393.729         GPS_NMEA_FROM_GPS    iGPS            $GPGGA,184749.000,4144.3488,N,06959.5466,W,2,09,0.95,11.2,M,-34.3,M,0000,0000*64 
394.832         GPS_NMEA_FROM_GPS    iGPS            $GPRMC,184750.000,A,4144.3487,N,06959.5469,W,0.88,236.83,270321,,,D*7F 
395.734         GPS_NMEA_FROM_GPS    iGPS            $GPGGA,184751.000,4144.3486,N,06959.5472,W,2,09,0.95,11.2,M,-34.3,M,0000,0000*66 
396.836         GPS_NMEA_FROM_GPS    iGPS            $GPRMC,184752.000,A,4144.3485,N,06959.5475,W,0.81,238.36,270321,,,D*7B 
397.838         GPS_NMEA_FROM_GPS    iGPS            $GPRMC,184753.000,A,4144.3485,N,06959.5477,W,0.79,239.08,270321,,,D*73 
398.840         GPS_NMEA_FROM_GPS    iGPS            $GPGGA,184754.000,4144.3484,N,06959.5480,W,2,10,0.89,11.4,M,-34.3,M,0000,0000*6F 
399.842         GPS_NMEA_FROM_GPS    iGPS            $GPGGA,184755.000,4144.3483,N,06959.5483,W,2,09,0.95,11.5,M,-34.3,M,0000,0000*6E 
400.845         GPS_NMEA_FROM_GPS    iGPS            $GPRMC,184756.000,A,4144.3482,N,06959.5485,W,0.75,238.75,270321,,,D*7B 
401.846         GPS_NMEA_FROM_GPS    iGPS            $GPRMC,184757.000,A,4144.3481,N,06959.5488,W,0.83,237.82,270321,,,D*7A 
402.748         GPS_NMEA_FROM_GPS    iGPS            $GPGGA,184758.000,4144.3480,N,06959.5491,W,2,09,0.95,11.8,M,-34.3,M,0000,0000*6E 
403.750         GPS_NMEA_FROM_GPS    iGPS            $GPGGA,184759.000,4144.3479,N,06959.5494,W,2,09,0.95,11.8,M,-34.3,M,0000,0000*6C 
404.752         GPS_NMEA_FROM_GPS    iGPS            $GPGGA,184800.000,4144.3478,N,06959.5496,W,2,09,0.95,11.9,M,-34.3,M,0000,0000*6D 
405.855         GPS_NMEA_FROM_GPS    iGPS            $GPRMC,184801.000,A,4144.3477,N,06959.5499,W,0.87,237.37,270321,,,D*75 
406.757         GPS_NMEA_FROM_GPS    iGPS            $GPGGA,184802.000,4144.3476,N,06959.5502,W,2,09,0.95,11.9,M,-34.3,M,0000,0000*6D 
407.759         GPS_NMEA_FROM_GPS    iGPS            $GPGGA,184803.000,4144.3475,N,06959.5505,W,2,09,0.95,11.9,M,-34.3,M,0000,0000*68 
408.761         GPS_NMEA_FROM_GPS    iGPS            $GPGGA,184804.000,4144.3474,N,06959.5508,W,2,09,0.95,12.0,M,-34.3,M,0000,0000*69 
409.763         GPS_NMEA_FROM_GPS    iGPS            $GPGGA,184805.000,4144.3473,N,06959.5511,W,2,09,0.95,12.1,M,-34.3,M,0000,0000*66 
410.765         GPS_NMEA_FROM_GPS    iGPS            $GPGGA,184806.000,4144.3471,N,06959.5514,W,2,09,0.95,12.1,M,-34.3,M,0000,0000*62 
411.767         GPS_NMEA_FROM_GPS    iGPS            $GPGGA,184807.000,4144.3470,N,06959.5517,W,2,09,0.95,12.3,M,-34.3,M,0000,0000*63 
412.770         GPS_NMEA_FROM_GPS    iGPS            $GPGGA,184808.000,4144.3469,N,06959.5520,W,2,09,0.95,12.4,M,-34.3,M,0000,0000*67 
413.772         GPS_NMEA_FROM_GPS    iGPS            $GPGGA,184809.000,4144.3468,N,06959.5523,W,2,09,0.95,12.5,M,-34.3,M,0000,0000*65 
414.774         GPS_NMEA_FROM_GPS    iGPS            $GPGGA,184810.000,4144.3467,N,06959.5525,W,2,09,0.95,12.6,M,-34.3,M,0000,0000*67 
415.776         GPS_NMEA_FROM_GPS    iGPS            $GPGGA,184811.000,4144.3466,N,06959.5528,W,2,09,0.95,12.6,M,-34.3,M,0000,0000*6A 
416.778         GPS_NMEA_FROM_GPS    iGPS            $GPRMC,184812.000,A,4144.3465,N,06959.5531,W,0.83,238.88,270321,,,D*78 
417.780         GPS_NMEA_FROM_GPS    iGPS            $GPGGA,184813.000,4144.3464,N,06959.5533,W,2,08,1.08,12.7,M,-34.3,M,0000,0000*65 
418.782         GPS_NMEA_FROM_GPS    iGPS            $GPRMC,184814.000,A,4144.3463,N,06959.5536,W,0.79,239.19,270321,,,D*73 
419.784         GPS_NMEA_FROM_GPS    iGPS            $GPGGA,184815.000,4144.3462,N,06959.5538,W,2,08,1.08,12.7,M,-34.3,M,0000,0000*6E 
420.786         GPS_NMEA_FROM_GPS    iGPS            $GPGGA,184816.000,4144.3461,N,06959.5541,W,2,08,1.08,12.8,M,-34.3,M,0000,0000*6F 
421.788         GPS_NMEA_FROM_GPS    iGPS            $GPGGA,184817.000,4144.3460,N,06959.5544,W,2,08,1.08,12.9,M,-34.3,M,0000,0000*6B 
422.791         GPS_NMEA_FROM_GPS    iGPS            $GPGGA,184818.000,4144.3459,N,06959.5546,W,2,08,1.08,12.9,M,-34.3,M,0000,0000*6C 
423.793         GPS_NMEA_FROM_GPS    iGPS            $GPGGA,184819.000,4144.3458,N,06959.5549,W,2,09,0.95,13.1,M,-34.3,M,0000,0000*6E 
424.796         GPS_NMEA_FROM_GPS    iGPS            $GPRMC,184820.000,A,4144.3456,N,06959.5552,W,0.87,236.22,270321,,,D*76 
425.798         GPS_NMEA_FROM_GPS    iGPS            $GPRMC,184821.000,A,4144.3455,N,06959.5555,W,0.78,236.20,270321,,,D*71 
426.800         GPS_NMEA_FROM_GPS    iGPS            $GPGGA,184822.000,4144.3454,N,06959.5557,W,2,08,1.08,13.4,M,-34.3,M,0000,0000*64 
427.702         GPS_NMEA_FROM_GPS    iGPS            $GPGGA,184823.000,4144.3453,N,06959.5560,W,2,08,1.08,13.4,M,-34.3,M,0000,0000*66 
428.805         GPS_NMEA_FROM_GPS    iGPS            $GPRMC,184824.000,A,4144.3452,N,06959.5562,W,0.82,238.42,270321,,,D*78 
429.806         GPS_NMEA_FROM_GPS    iGPS            $GPGGA,184825.000,4144.3451,N,06959.5564,W,2,08,1.08,13.4,M,-34.3,M,0000,0000*66 
430.808         GPS_NMEA_FROM_GPS    iGPS            $GPGGA,184826.000,4144.3451,N,06959.5567,W,2,08,1.08,13.4,M,-34.3,M,0000,0000*66 
431.810         GPS_NMEA_FROM_GPS    iGPS            $GPGGA,184827.000,4144.3450,N,06959.5569,W,2,08,1.08,13.4,M,-34.3,M,0000,0000*68 
432.812         GPS_NMEA_FROM_GPS    iGPS            $GPGGA,184828.000,4144.3449,N,06959.5571,W,2,08,1.08,13.5,M,-34.3,M,0000,0000*67 
433.715         GPS_NMEA_FROM_GPS    iGPS            $GPGGA,184829.000,4144.3448,N,06959.5574,W,2,08,1.08,13.5,M,-34.3,M,0000,0000*62 
434.817         GPS_NMEA_FROM_GPS    iGPS            $GPRMC,184830.000,A,4144.3447,N,06959.5576,W,0.81,239.62,270321,,,D*7C 
435.719         GPS_NMEA_FROM_GPS    iGPS            $GPGGA,184831.000,4144.3446,N,06959.5578,W,2,08,1.08,13.5,M,-34.3,M,0000,0000*69 
436.821         GPS_NMEA_FROM_GPS    iGPS            $GPGGA,184832.000,4144.3445,N,06959.5580,W,2,08,1.08,13.6,M,-34.3,M,0000,0000*6D 
437.723         GPS_NMEA_FROM_GPS    iGPS            $GPGGA,184833.000,4144.3444,N,06959.5583,W,2,08,1.08,13.6,M,-34.3,M,0000,0000*6E 
438.826         GPS_NMEA_FROM_GPS    iGPS            $GPGGA,184834.000,4144.3443,N,06959.5585,W,2,08,1.08,13.7,M,-34.3,M,0000,0000*69 
439.828         GPS_NMEA_FROM_GPS    iGPS            $GPGGA,184835.000,4144.3442,N,06959.5587,W,2,08,1.08,13.7,M,-34.3,M,0000,0000*6B 
440.831         GPS_NMEA_FROM_GPS    iGPS            $GPGGA,184836.000,4144.3441,N,06959.5590,W,2,08,1.08,13.7,M,-34.3,M,0000,0000*6D 
441.833         GPS_NMEA_FROM_GPS    iGPS            $GPGGA,184837.000,4144.3440,N,06959.5592,W,2,08,1.08,13.7,M,-34.3,M,0000,0000*6F 
442.836         GPS_NMEA_FROM_GPS    iGPS            $GPRMC,184838.000,A,4144.3439,N,06959.5595,W,0.79,242.76,270321,,,D*7E 
443.838         GPS_NMEA_FROM_GPS    iGPS            $GPRMC,184839.000,A,4144.3438,N,06959.5597,W,0.81,243.26,270321,,,D*7F 
444.741         GPS_NMEA_FROM_GPS    iGPS            $GPGGA,184840.000,4144.3437,N,06959.5600,W,2,08,1.08,13.6,M,-34.3,M,0000,0000*66 
445.743         GPS_NMEA_FROM_GPS    iGPS            $GPGGA,184841.000,4144.3436,N,06959.5602,W,2,08,1.08,13.6,M,-34.3,M,0000,0000*64 
446.745         GPS_NMEA_FROM_GPS    iGPS            $GPGGA,184842.000,4144.3435,N,06959.5605,W,2,08,1.08,13.7,M,-34.3,M,0000,0000*62 
447.847         GPS_NMEA_FROM_GPS    iGPS            $GPRMC,184843.000,A,4144.3434,N,06959.5608,W,0.83,241.84,270321,,,D*73 
448.850         GPS_NMEA_FROM_GPS    iGPS            $GPRMC,184844.000,A,4144.3433,N,06959.5610,W,0.83,241.77,270321,,,D*76 
