2.878           GPS_NMEA_FROM_GPS    iGPS            $GPGGA,195924.000,4144.3475,N,06959.5712,W,2,11,1.00,1.2,M,-34.3,M,0000,0000*56 
3.881           GPS_NMEA_FROM_GPS    iGPS            $GPGGA,195925.000,4144.3475,N,06959.5712,W,2,11,1.00,1.2,M,-34.3,M,0000,0000*57 
3.881           GPS_NMEA_FROM_GPS    iGPS            $GPGGA,195925.000,4144.3475,N,06959.5712,W,2,11,1.00,1.2,M,-34.3,M,0000,0000*57 
4.983           GPS_NMEA_FROM_GPS    iGPS            $GPGGA,195926.000,4144.3475,N,06959.5712,W,2,11,1.00,1.2,M,-34.3,M,0000,0000*54 
5.886           GPS_NMEA_FROM_GPS    iGPS            $GPGGA,195927.000,4144.3475,N,06959.5712,W,2,11,1.00,1.2,M,-34.3,M,0000,0000*55 
6.988           GPS_NMEA_FROM_GPS    iGPS            $GPGGA,195928.000,4144.3475,N,06959.5712,W,2,11,1.00,1.2,M,-34.3,M,0000,0000*5A 
7.991           GPS_NMEA_FROM_GPS    iGPS            $GPGGA,195929.000,4144.3475,N,06959.5712,W,2,11,1.00,1.2,M,-34.3,M,0000,0000*5B 
8.993           GPS_NMEA_FROM_GPS    iGPS            $GPGGA,195930.000,4144.3475,N,06959.5712,W,2,11,1.00,1.2,M,-34.3,M,0000,0000*53 
9.996           GPS_NMEA_FROM_GPS    iGPS            $GPRMC,195931.000,A,4144.3475,N,06959.5712,W,0.02,212.37,300321,,,D*79 
10.998          GPS_NMEA_FROM_GPS    iGPS            $GPRMC,195932.000,A,4144.3475,N,06959.5712,W,0.01,201.73,300321,,,D*7B 
11.900          GPS_NMEA_FROM_GPS    iGPS            $GPGGA,195933.000,4144.3475,N,06959.5712,W,2,11,1.00,1.2,M,-34.3,M,0000,0000*50 
13.003          GPS_NMEA_FROM_GPS    iGPS            $GPRMC,195934.000,A,4144.3475,N,06959.5712,W,0.02,240.44,300321,,,D*7F 
13.905          GPS_NMEA_FROM_GPS    iGPS            $GPGGA,195935.000,4144.3475,N,06959.5712,W,2,11,1.00,1.2,M,-34.3,M,0000,0000*56 
13.905          GPS_NMEA_FROM_GPS    iGPS            $GPGGA,195935.000,4144.3475,N,06959.5712,W,2,11,1.00,1.2,M,-34.3,M,0000,0000*56 
14.908          GPS_NMEA_FROM_GPS    iGPS            $GPGGA,195936.000,4144.3475,N,06959.5712,W,2,11,1.00,1.2,M,-34.3,M,0000,0000*55 
16.012          GPS_NMEA_FROM_GPS    iGPS            $GPRMC,195937.000,A,4144.3475,N,06959.5712,W,0.01,236.13,300321,,,D*7C 
16.913          GPS_NMEA_FROM_GPS    iGPS            $GPGGA,195938.000,4144.3475,N,06959.5712,W,2,11,1.00,1.2,M,-34.3,M,0000,0000*5B 
17.916          GPS_NMEA_FROM_GPS    iGPS            $GPGGA,195939.000,4144.3475,N,06959.5712,W,2,11,1.00,1.2,M,-34.3,M,0000,0000*5A 
18.919          GPS_NMEA_FROM_GPS    iGPS            $GPGGA,195940.000,4144.3475,N,06959.5712,W,2,11,1.00,1.2,M,-34.3,M,0000,0000*54 
19.921          GPS_NMEA_FROM_GPS    iGPS            $GPGGA,195941.000,4144.3475,N,06959.5712,W,2,11,1.00,1.2,M,-34.3,M,0000,0000*55 
20.924          GPS_NMEA_FROM_GPS    iGPS            $GPGGA,195942.000,4144.3475,N,06959.5712,W,2,11,1.00,1.2,M,-34.3,M,0000,0000*56 
21.927          GPS_NMEA_FROM_GPS    iGPS            $GPRMC,195943.000,A,4144.3475,N,06959.5712,W,0.00,156.31,300321,,,D*7B 
22.929          GPS_NMEA_FROM_GPS    iGPS            $GPGGA,195944.000,4144.3475,N,06959.5712,W,2,11,1.00,1.2,M,-34.3,M,0000,0000*50 
23.931          GPS_NMEA_FROM_GPS    iGPS            $GPGGA,195945.000,4144.3475,N,06959.5712,W,2,10,1.05,1.2,M,-34.3,M,0000,0000*55 
24.934          GPS_NMEA_FROM_GPS    iGPS            $GPRMC,195946.000,A,4144.3475,N,06959.5712,W,0.00,137.84,300321,,,D*77 
25.936          GPS_NMEA_FROM_GPS    iGPS            $GPGGA,195947.000,4144.3475,N,06959.5712,W,2,10,1.05,1.2,M,-34.3,M,0000,0000*57 
25.936          GPS_NMEA_FROM_GPS    iGPS            $GPGGA,195947.000,4144.3475,N,06959.5712,W,2,10,1.05,1.2,M,-34.3,M,0000,0000*57 
26.939          GPS_NMEA_FROM_GPS    iGPS            $GPRMC,195948.000,A,4144.3475,N,06959.5712,W,0.02,69.18,300321,,,D*44 
27.941          GPS_NMEA_FROM_GPS    iGPS            $GPRMC,195949.000,A,4144.3475,N,06959.5712,W,0.03,119.40,300321,,,D*7F 
28.944          GPS_NMEA_FROM_GPS    iGPS            $GPGGA,195950.000,4144.3475,N,06959.5712,W,2,11,1.00,1.2,M,-34.3,M,0000,0000*55 
29.947          GPS_NMEA_FROM_GPS    iGPS            $GPGGA,195951.000,4144.3475,N,06959.5712,W,2,11,1.00,1.2,M,-34.3,M,0000,0000*54 
30.849          GPS_NMEA_FROM_GPS    iGPS            $GPGGA,195952.000,4144.3475,N,06959.5712,W,2,11,1.00,1.2,M,-34.3,M,0000,0000*57 
31.953          GPS_NMEA_FROM_GPS    iGPS            $GPGGA,195953.000,4144.3475,N,06959.5712,W,2,11,1.00,1.2,M,-34.3,M,0000,0000*56 
31.953          GPS_NMEA_FROM_GPS    iGPS            $GPGGA,195953.000,4144.3475,N,06959.5712,W,2,11,1.00,1.2,M,-34.3,M,0000,0000*56 
32.957          GPS_NMEA_FROM_GPS    iGPS            $GPRMC,195954.000,A,4144.3475,N,06959.5712,W,0.01,50.67,300321,,,D*48 
33.959          GPS_NMEA_FROM_GPS    iGPS            $GPGGA,195955.000,4144.3475,N,06959.5712,W,2,10,1.05,1.2,M,-34.3,M,0000,0000*54 
34.861          GPS_NMEA_FROM_GPS    iGPS            $GPGGA,195956.000,4144.3475,N,06959.5712,W,2,10,1.05,1.2,M,-34.3,M,0000,0000*57 
35.864          GPS_NMEA_FROM_GPS    iGPS            $GPGGA,195957.000,4144.3475,N,06959.5712,W,2,10,1.05,1.2,M,-34.3,M,0000,0000*56 
36.966          GPS_NMEA_FROM_GPS    iGPS            $GPGGA,195958.000,4144.3475,N,06959.5712,W,2,10,1.05,1.2,M,-34.3,M,0000,0000*59 
37.968          GPS_NMEA_FROM_GPS    iGPS            $GPGGA,195959.000,4144.3475,N,06959.5712,W,2,10,1.05,1.2,M,-34.3,M,0000,0000*58 
39.071          GPS_NMEA_FROM_GPS    iGPS            $GPGGA,200000.000,4144.3475,N,06959.5712,W,2,11,1.00,1.2,M,-34.3,M,0000,0000*56 
39.973          GPS_NMEA_FROM_GPS    iGPS            $GPGGA,200001.000,4144.3475,N,06959.5712,W,2,10,1.05,1.2,M,-34.3,M,0000,0000*53 
40.976          GPS_NMEA_FROM_GPS    iGPS            $GPGGA,200002.000,4144.3475,N,06959.5712,W,2,10,1.05,1.2,M,-34.3,M,0000,0000*50 
41.878          GPS_NMEA_FROM_GPS    iGPS            $GPGGA,200003.000,4144.3475,N,06959.5712,W,2,10,1.05,1.2,M,-34.3,M,0000,0000*51 
42.881          GPS_NMEA_FROM_GPS    iGPS            $GPGGA,200004.000,4144.3475,N,06959.5712,W,2,10,1.05,1.2,M,-34.3,M,0000,0000*56 
43.883          GPS_NMEA_FROM_GPS    iGPS            $GPGGA,200005.000,4144.3475,N,06959.5712,W,2,10,1.05,1.2,M,-34.3,M,0000,0000*57 
44.987          GPS_NMEA_FROM_GPS    iGPS            $GPRMC,200006.000,A,4144.3475,N,06959.5712,W,0.14,269.20,300321,,,D*76 
45.889          GPS_NMEA_FROM_GPS    iGPS            $GPGGA,200007.000,4144.3475,N,06959.5712,W,2,10,1.05,1.2,M,-34.3,M,0000,0000*55 
46.892          GPS_NMEA_FROM_GPS    iGPS            $GPGGA,200008.000,4144.3475,N,06959.5712,W,2,10,1.05,1.2,M,-34.3,M,0000,0000*5A 
47.995          GPS_NMEA_FROM_GPS    iGPS            $GPRMC,200009.000,A,4144.3475,N,06959.5712,W,0.18,273.67,300321,,,D*7D 
48.897          GPS_NMEA_FROM_GPS    iGPS            $GPGGA,200010.000,4144.3475,N,06959.5713,W,2,10,1.05,1.2,M,-34.3,M,0000,0000*52 
50.100          GPS_NMEA_FROM_GPS    iGPS            $GPRMC,200011.000,A,4144.3475,N,06959.5713,W,0.16,292.83,300321,,,D*7E 
51.002          GPS_NMEA_FROM_GPS    iGPS            $GPGGA,200012.000,4144.3475,N,06959.5713,W,2,11,1.00,1.2,M,-34.3,M,0000,0000*54 
52.005          GPS_NMEA_FROM_GPS    iGPS            $GPGGA,200013.000,4144.3475,N,06959.5713,W,2,11,1.00,1.2,M,-34.3,M,0000,0000*55 
53.008          GPS_NMEA_FROM_GPS    iGPS            $GPGGA,200014.000,4144.3475,N,06959.5713,W,2,11,1.00,1.2,M,-34.3,M,0000,0000*52 
54.010          GPS_NMEA_FROM_GPS    iGPS            $GPGGA,200015.000,4144.3475,N,06959.5713,W,2,11,1.00,1.2,M,-34.3,M,0000,0000*53 
55.013          GPS_NMEA_FROM_GPS    iGPS            $GPGGA,200016.000,4144.3475,N,06959.5713,W,2,11,1.00,1.2,M,-34.3,M,0000,0000*50 
56.015          GPS_NMEA_FROM_GPS    iGPS            $GPGGA,200017.000,4144.3475,N,06959.5713,W,2,11,1.00,1.2,M,-34.3,M,0000,0000*51 
57.018          GPS_NMEA_FROM_GPS    iGPS            $GPGGA,200018.000,4144.3475,N,06959.5713,W,2,11,1.00,1.2,M,-34.3,M,0000,0000*5E 
58.022          GPS_NMEA_FROM_GPS    iGPS            $GPGGA,200019.000,4144.3475,N,06959.5713,W,2,11,1.00,1.2,M,-34.3,M,0000,0000*5F 
59.023          GPS_NMEA_FROM_GPS    iGPS            $GPGGA,200020.000,4144.3476,N,06959.5714,W,2,11,1.00,1.2,M,-34.3,M,0000,0000*51 
60.026          GPS_NMEA_FROM_GPS    iGPS            $GPGGA,200021.000,4144.3477,N,06959.5714,W,2,11,1.00,1.2,M,-34.3,M,0000,0000*51 
61.028          GPS_NMEA_FROM_GPS    iGPS            $GPGGA,200022.000,4144.3478,N,06959.5714,W,2,11,1.00,1.2,M,-34.3,M,0000,0000*5D 
61.930          GPS_NMEA_FROM_GPS    iGPS            $GPGGA,200023.000,4144.3479,N,06959.5715,W,2,10,1.05,1.2,M,-34.3,M,0000,0000*58 
62.933          GPS_NMEA_FROM_GPS    iGPS            $GPGGA,200024.000,4144.3481,N,06959.5716,W,2,10,1.05,1.2,M,-34.3,M,0000,0000*5B 
64.036          GPS_NMEA_FROM_GPS    iGPS            $GPRMC,200025.000,A,4144.3483,N,06959.5717,W,0.69,353.85,300321,,,D*76 
64.943          GPS_NMEA_FROM_GPS    iGPS            $GPGGA,200026.000,4144.3485,N,06959.5717,W,2,11,1.00,1.4,M,-34.3,M,0000,0000*5E 
66.046          GPS_NMEA_FROM_GPS    iGPS            $GPGGA,200027.000,4144.3487,N,06959.5718,W,2,11,1.00,1.5,M,-34.3,M,0000,0000*53 
67.048          GPS_NMEA_FROM_GPS    iGPS            $GPRMC,200028.000,A,4144.3489,N,06959.5718,W,0.71,2.52,300321,,,D*7A 
67.950          GPS_NMEA_FROM_GPS    iGPS            $GPRMC,200029.000,A,4144.3491,N,06959.5718,W,0.70,5.66,300321,,,D*73 
68.953          GPS_NMEA_FROM_GPS    iGPS            $GPGGA,200030.000,4144.3492,N,06959.5718,W,2,10,1.05,1.7,M,-34.3,M,0000,0000*57 
69.955          GPS_NMEA_FROM_GPS    iGPS            $GPRMC,200031.000,A,4144.3494,N,06959.5719,W,0.69,12.02,300321,,,D*42 
70.557          GPS_NMEA_FROM_GPS    iGPS            $GPGGA,200032.000,4144.3496,N,06959.5718,W,2,11,0.90,1.6,M,-34.3,M,0000,0000*5C 
72.060          GPS_NMEA_FROM_GPS    iGPS            $GPGGA,200033.000,4144.3498,N,06959.5717,W,2,11,0.90,1.6,M,-34.3,M,0000,0000*5C 
73.063          GPS_NMEA_FROM_GPS    iGPS            $GPGGA,200034.000,4144.3499,N,06959.5717,W,2,11,0.90,1.6,M,-34.3,M,0000,0000*5A 
74.065          GPS_NMEA_FROM_GPS    iGPS            $GPGGA,200035.000,4144.3501,N,06959.5716,W,2,11,0.90,1.5,M,-34.3,M,0000,0000*59 
75.068          GPS_NMEA_FROM_GPS    iGPS            $GPRMC,200036.000,A,4144.3503,N,06959.5715,W,0.73,23.63,300321,,,D*48 
75.970          GPS_NMEA_FROM_GPS    iGPS            $GPGGA,200037.000,4144.3505,N,06959.5714,W,2,11,0.90,1.4,M,-34.3,M,0000,0000*5C 
76.973          GPS_NMEA_FROM_GPS    iGPS            $GPRMC,200038.000,A,4144.3506,N,06959.5713,W,0.71,26.34,300321,,,D*40 
77.975          GPS_NMEA_FROM_GPS    iGPS            $GPGGA,200039.000,4144.3508,N,06959.5712,W,2,11,0.90,1.5,M,-34.3,M,0000,0000*58 
78.977          GPS_NMEA_FROM_GPS    iGPS            $GPGGA,200040.000,4144.3510,N,06959.5711,W,2,11,0.90,1.4,M,-34.3,M,0000,0000*5D 
80.080          GPS_NMEA_FROM_GPS    iGPS            $GPGGA,200041.000,4144.3512,N,06959.5710,W,2,11,0.90,1.4,M,-34.3,M,0000,0000*5F 
81.082          GPS_NMEA_FROM_GPS    iGPS            $GPGGA,200042.000,4144.3513,N,06959.5709,W,2,11,0.90,1.4,M,-34.3,M,0000,0000*55 
82.085          GPS_NMEA_FROM_GPS    iGPS            $GPRMC,200043.000,A,4144.3515,N,06959.5707,W,0.79,31.66,300321,,,D*42 
82.987          GPS_NMEA_FROM_GPS    iGPS            $GPGGA,200044.000,4144.3517,N,06959.5706,W,2,11,0.90,1.4,M,-34.3,M,0000,0000*58 
83.990          GPS_NMEA_FROM_GPS    iGPS            $GPGGA,200045.000,4144.3519,N,06959.5704,W,2,11,0.90,1.3,M,-34.3,M,0000,0000*52 
84.992          GPS_NMEA_FROM_GPS    iGPS            $GPGGA,200046.000,4144.3520,N,06959.5703,W,2,11,0.90,1.3,M,-34.3,M,0000,0000*5C 
85.995          GPS_NMEA_FROM_GPS    iGPS            $GPGGA,200047.000,4144.3522,N,06959.5702,W,2,11,0.90,1.3,M,-34.3,M,0000,0000*5E 
86.997          GPS_NMEA_FROM_GPS    iGPS            $GPGGA,200048.000,4144.3524,N,06959.5701,W,2,11,0.90,1.3,M,-34.3,M,0000,0000*54 
87.999          GPS_NMEA_FROM_GPS    iGPS            $GPGGA,200049.000,4144.3525,N,06959.5699,W,2,11,0.90,1.3,M,-34.3,M,0000,0000*54 
89.102          GPS_NMEA_FROM_GPS    iGPS            $GPRMC,200050.000,A,4144.3527,N,06959.5698,W,0.80,35.25,300321,,,D*43 
90.004          GPS_NMEA_FROM_GPS    iGPS            $GPGGA,200051.000,4144.3529,N,06959.5696,W,2,11,0.90,1.3,M,-34.3,M,0000,0000*5E 
91.107          GPS_NMEA_FROM_GPS    iGPS            $GPRMC,200052.000,A,4144.3531,N,06959.5694,W,0.76,36.85,300321,,,D*4A 
91.909          GPS_NMEA_FROM_GPS    iGPS            $GPGGA,200053.000,4144.3532,N,06959.5693,W,2,11,0.90,1.3,M,-34.3,M,0000,0000*53 
93.112          GPS_NMEA_FROM_GPS    iGPS            $GPRMC,200054.000,A,4144.3534,N,06959.5691,W,0.77,38.63,300321,,,D*4B 
94.115          GPS_NMEA_FROM_GPS    iGPS            $GPRMC,200055.000,A,4144.3535,N,06959.5690,W,0.76,39.51,300321,,,D*4B 
95.017          GPS_NMEA_FROM_GPS    iGPS            $GPGGA,200056.000,4144.3537,N,06959.5688,W,2,11,0.90,1.5,M,-34.3,M,0000,0000*5F 
95.922          GPS_NMEA_FROM_GPS    iGPS            $GPGGA,200057.000,4144.3538,N,06959.5687,W,2,11,0.90,1.4,M,-34.3,M,0000,0000*5F 
97.023          GPS_NMEA_FROM_GPS    iGPS            $GPGGA,200058.000,4144.3539,N,06959.5685,W,2,11,0.90,1.5,M,-34.3,M,0000,0000*52 
97.925          GPS_NMEA_FROM_GPS    iGPS            $GPGGA,200059.000,4144.3541,N,06959.5683,W,2,11,0.90,1.5,M,-34.3,M,0000,0000*5A 
99.028          GPS_NMEA_FROM_GPS    iGPS            $GPGGA,200100.000,4144.3542,N,06959.5682,W,2,11,0.90,1.5,M,-34.3,M,0000,0000*55 
99.930          GPS_NMEA_FROM_GPS    iGPS            $GPGGA,200101.000,4144.3544,N,06959.5680,W,2,11,0.90,1.5,M,-34.3,M,0000,0000*50 
100.533         GPS_NMEA_FROM_GPS    iGPS            $GPGGA,200102.000,4144.3545,N,06959.5679,W,2,11,0.90,1.6,M,-34.3,M,0000,0000*57 
101.535         GPS_NMEA_FROM_GPS    iGPS            $GPGGA,200103.000,4144.3547,N,06959.5677,W,2,11,0.90,1.6,M,-34.3,M,0000,0000*5A 
102.538         GPS_NMEA_FROM_GPS    iGPS            $GPGGA,200104.000,4144.3549,N,06959.5676,W,2,11,0.90,1.6,M,-34.3,M,0000,0000*52 
103.540         GPS_NMEA_FROM_GPS    iGPS            $GPGGA,200105.000,4144.3550,N,06959.5675,W,2,11,0.90,1.7,M,-34.3,M,0000,0000*59 
104.543         GPS_NMEA_FROM_GPS    iGPS            $GPGGA,200106.000,4144.3551,N,06959.5674,W,2,11,0.90,1.7,M,-34.3,M,0000,0000*5A 
105.545         GPS_NMEA_FROM_GPS    iGPS            $GPGGA,200107.000,4144.3551,N,06959.5672,W,2,11,0.90,1.8,M,-34.3,M,0000,0000*52 
106.548         GPS_NMEA_FROM_GPS    iGPS            $GPGGA,200108.000,4144.3551,N,06959.5670,W,2,11,0.90,2.0,M,-34.3,M,0000,0000*54 
107.551         GPS_NMEA_FROM_GPS    iGPS            $GPGGA,200109.000,4144.3551,N,06959.5668,W,2,11,0.90,2.0,M,-34.3,M,0000,0000*5C 
108.553         GPS_NMEA_FROM_GPS    iGPS            $GPGGA,200110.000,4144.3552,N,06959.5666,W,2,11,0.90,2.0,M,-34.3,M,0000,0000*59 
109.556         GPS_NMEA_FROM_GPS    iGPS            $GPGGA,200111.000,4144.3551,N,06959.5664,W,2,11,0.90,2.0,M,-34.3,M,0000,0000*59 
110.559         GPS_NMEA_FROM_GPS    iGPS            $GPGGA,200112.000,4144.3551,N,06959.5663,W,2,11,0.90,2.0,M,-34.3,M,0000,0000*5D 
111.561         GPS_NMEA_FROM_GPS    iGPS            $GPGGA,200113.000,4144.3550,N,06959.5662,W,2,11,0.90,1.9,M,-34.3,M,0000,0000*56 
112.564         GPS_NMEA_FROM_GPS    iGPS            $GPGGA,200114.000,4144.3549,N,06959.5661,W,2,11,0.90,1.9,M,-34.3,M,0000,0000*5A 
113.567         GPS_NMEA_FROM_GPS    iGPS            $GPGGA,200115.000,4144.3548,N,06959.5660,W,2,11,0.90,2.0,M,-34.3,M,0000,0000*51 
114.569         GPS_NMEA_FROM_GPS    iGPS            $GPGGA,200116.000,4144.3547,N,06959.5660,W,2,11,0.90,2.0,M,-34.3,M,0000,0000*5D 
115.572         GPS_NMEA_FROM_GPS    iGPS            $GPGGA,200117.000,4144.3545,N,06959.5660,W,2,11,0.90,2.0,M,-34.3,M,0000,0000*5E 
116.575         GPS_NMEA_FROM_GPS    iGPS            $GPGGA,200118.000,4144.3544,N,06959.5660,W,2,11,0.90,2.0,M,-34.3,M,0000,0000*50 
117.578         GPS_NMEA_FROM_GPS    iGPS            $GPRMC,200119.000,A,4144.3543,N,06959.5661,W,0.52,172.53,300321,,,D*77 
118.580         GPS_NMEA_FROM_GPS    iGPS            $GPRMC,200120.000,A,4144.3541,N,06959.5661,W,0.49,176.30,300321,,,D*74 
119.582         GPS_NMEA_FROM_GPS    iGPS            $GPRMC,200121.000,A,4144.3540,N,06959.5661,W,0.52,177.76,300321,,,D*7D 
120.585         GPS_NMEA_FROM_GPS    iGPS            $GPGGA,200122.000,4144.3538,N,06959.5661,W,2,11,0.90,1.9,M,-34.3,M,0000,0000*59 
121.587         GPS_NMEA_FROM_GPS    iGPS            $GPRMC,200123.000,A,4144.3537,N,06959.5662,W,0.68,178.10,300321,,,D*7A 
122.590         GPS_NMEA_FROM_GPS    iGPS            $GPRMC,200124.000,A,4144.3536,N,06959.5662,W,0.65,178.20,300321,,,D*72 
123.592         GPS_NMEA_FROM_GPS    iGPS            $GPRMC,200125.000,A,4144.3534,N,06959.5663,W,0.67,178.96,300321,,,D*7F 
124.595         GPS_NMEA_FROM_GPS    iGPS            $GPRMC,200126.000,A,4144.3533,N,06959.5663,W,0.67,179.96,300321,,,D*7A 
125.497         GPS_NMEA_FROM_GPS    iGPS            $GPGGA,200127.000,4144.3531,N,06959.5664,W,2,11,0.90,1.6,M,-34.3,M,0000,0000*5F 
126.600         GPS_NMEA_FROM_GPS    iGPS            $GPRMC,200128.000,A,4144.3530,N,06959.5665,W,0.65,184.57,300321,,,D*7C 
127.502         GPS_NMEA_FROM_GPS    iGPS            $GPGGA,200129.000,4144.3529,N,06959.5667,W,2,11,0.90,1.6,M,-34.3,M,0000,0000*5B 
128.905         GPS_NMEA_FROM_GPS    iGPS            $GPGGA,200130.000,4144.3527,N,06959.5668,W,2,11,0.90,1.6,M,-34.3,M,0000,0000*52 
129.908         GPS_NMEA_FROM_GPS    iGPS            $GPGGA,200131.000,4144.3525,N,06959.5670,W,2,11,0.90,1.6,M,-34.3,M,0000,0000*58 
130.910         GPS_NMEA_FROM_GPS    iGPS            $GPGGA,200132.000,4144.3523,N,06959.5671,W,2,11,0.90,1.6,M,-34.3,M,0000,0000*5C 
131.913         GPS_NMEA_FROM_GPS    iGPS            $GPGGA,200133.000,4144.3521,N,06959.5673,W,2,11,0.90,1.6,M,-34.3,M,0000,0000*5D 
132.916         GPS_NMEA_FROM_GPS    iGPS            $GPGGA,200134.000,4144.3519,N,06959.5674,W,2,11,0.90,1.7,M,-34.3,M,0000,0000*57 
133.918         GPS_NMEA_FROM_GPS    iGPS            $GPGGA,200135.000,4144.3516,N,06959.5676,W,2,11,0.90,1.7,M,-34.3,M,0000,0000*5B 
134.921         GPS_NMEA_FROM_GPS    iGPS            $GPGGA,200136.000,4144.3515,N,06959.5678,W,2,11,0.90,1.8,M,-34.3,M,0000,0000*5A 
135.923         GPS_NMEA_FROM_GPS    iGPS            $GPGGA,200137.000,4144.3513,N,06959.5679,W,2,11,0.90,1.9,M,-34.3,M,0000,0000*5D 
136.926         GPS_NMEA_FROM_GPS    iGPS            $GPRMC,200138.000,A,4144.3511,N,06959.5681,W,0.75,205.11,300321,,,D*7D 
137.928         GPS_NMEA_FROM_GPS    iGPS            $GPGGA,200139.000,4144.3509,N,06959.5682,W,2,11,0.90,2.0,M,-34.3,M,0000,0000*56 
138.831         GPS_NMEA_FROM_GPS    iGPS            $GPGGA,200140.000,4144.3507,N,06959.5683,W,2,11,0.90,2.1,M,-34.3,M,0000,0000*56 
139.934         GPS_NMEA_FROM_GPS    iGPS            $GPRMC,200141.000,A,4144.3505,N,06959.5684,W,0.77,207.34,300321,,,D*74 
140.936         GPS_NMEA_FROM_GPS    iGPS            $GPGGA,200142.000,4144.3503,N,06959.5686,W,2,11,0.90,2.2,M,-34.3,M,0000,0000*56 
141.939         GPS_NMEA_FROM_GPS    iGPS            $GPGGA,200143.000,4144.3501,N,06959.5687,W,2,11,0.90,2.3,M,-34.3,M,0000,0000*55 
142.942         GPS_NMEA_FROM_GPS    iGPS            $GPGGA,200144.000,4144.3499,N,06959.5688,W,2,11,0.90,2.3,M,-34.3,M,0000,0000*5D 
143.945         GPS_NMEA_FROM_GPS    iGPS            $GPRMC,200145.000,A,4144.3497,N,06959.5690,W,0.77,209.20,300321,,,D*74 
144.847         GPS_NMEA_FROM_GPS    iGPS            $GPGGA,200146.000,4144.3495,N,06959.5691,W,2,11,0.90,2.4,M,-34.3,M,0000,0000*5C 
145.850         GPS_NMEA_FROM_GPS    iGPS            $GPGGA,200147.000,4144.3493,N,06959.5693,W,2,11,0.90,2.5,M,-34.3,M,0000,0000*58 
146.852         GPS_NMEA_FROM_GPS    iGPS            $GPGGA,200148.000,4144.3491,N,06959.5694,W,2,11,0.90,2.5,M,-34.3,M,0000,0000*52 
147.855         GPS_NMEA_FROM_GPS    iGPS            $GPGGA,200149.000,4144.3489,N,06959.5695,W,2,11,0.90,2.6,M,-34.3,M,0000,0000*58 
148.958         GPS_NMEA_FROM_GPS    iGPS            $GPGGA,200150.000,4144.3487,N,06959.5696,W,2,11,0.90,2.6,M,-34.3,M,0000,0000*5D 
149.860         GPS_NMEA_FROM_GPS    iGPS            $GPGGA,200151.000,4144.3485,N,06959.5698,W,2,11,0.90,2.7,M,-34.3,M,0000,0000*51 
150.963         GPS_NMEA_FROM_GPS    iGPS            $GPGGA,200152.000,4144.3483,N,06959.5699,W,2,11,0.90,2.7,M,-34.3,M,0000,0000*55 
151.865         GPS_NMEA_FROM_GPS    iGPS            $GPGGA,200153.000,4144.3481,N,06959.5701,W,2,11,0.90,2.8,M,-34.3,M,0000,0000*59 
152.868         GPS_NMEA_FROM_GPS    iGPS            $GPGGA,200154.000,4144.3478,N,06959.5702,W,2,11,0.90,2.8,M,-34.3,M,0000,0000*5B 
153.971         GPS_NMEA_FROM_GPS    iGPS            $GPGGA,200155.000,4144.3476,N,06959.5704,W,2,12,0.84,2.9,M,-34.3,M,0000,0000*55 
154.974         GPS_NMEA_FROM_GPS    iGPS            $GPRMC,200156.000,A,4144.3474,N,06959.5705,W,0.76,208.49,300321,,,D*79 
155.976         GPS_NMEA_FROM_GPS    iGPS            $GPGGA,200157.000,4144.3472,N,06959.5706,W,2,12,0.84,3.1,M,-34.3,M,0000,0000*58 
156.978         GPS_NMEA_FROM_GPS    iGPS            $GPGGA,200158.000,4144.3469,N,06959.5708,W,2,12,0.84,3.1,M,-34.3,M,0000,0000*53 
157.981         GPS_NMEA_FROM_GPS    iGPS            $GPRMC,200159.000,A,4144.3467,N,06959.5709,W,0.80,207.32,300321,,,D*72 
158.983         GPS_NMEA_FROM_GPS    iGPS            $GPRMC,200200.000,A,4144.3465,N,06959.5711,W,0.79,207.26,300321,,,D*75 
159.986         GPS_NMEA_FROM_GPS    iGPS            $GPRMC,200201.000,A,4144.3463,N,06959.5713,W,0.78,207.91,300321,,,D*7D 
160.888         GPS_NMEA_FROM_GPS    iGPS            $GPGGA,200202.000,4144.3460,N,06959.5715,W,2,12,0.84,3.3,M,-34.3,M,0000,0000*58 
161.991         GPS_NMEA_FROM_GPS    iGPS            $GPRMC,200203.000,A,4144.3459,N,06959.5716,W,0.74,208.76,300321,,,D*79 
162.893         GPS_NMEA_FROM_GPS    iGPS            $GPGGA,200204.000,4144.3456,N,06959.5718,W,2,11,0.90,3.3,M,-34.3,M,0000,0000*50 
163.896         GPS_NMEA_FROM_GPS    iGPS            $GPGGA,200205.000,4144.3454,N,06959.5720,W,2,12,0.84,3.4,M,-34.3,M,0000,0000*59 
164.899         GPS_NMEA_FROM_GPS    iGPS            $GPGGA,200206.000,4144.3452,N,06959.5721,W,2,12,0.83,3.4,M,-34.3,M,0000,0000*5A 
165.901         GPS_NMEA_FROM_GPS    iGPS            $GPGGA,200207.000,4144.3451,N,06959.5723,W,2,12,0.84,3.5,M,-34.3,M,0000,0000*5C 
166.904         GPS_NMEA_FROM_GPS    iGPS            $GPGGA,200208.000,4144.3449,N,06959.5724,W,2,12,0.84,3.4,M,-34.3,M,0000,0000*5C 
167.907         GPS_NMEA_FROM_GPS    iGPS            $GPGGA,200209.000,4144.3448,N,06959.5725,W,2,12,0.84,3.4,M,-34.3,M,0000,0000*5D 
168.909         GPS_NMEA_FROM_GPS    iGPS            $GPRMC,200210.000,A,4144.3447,N,06959.5726,W,0.52,203.73,300321,,,D*7D 
170.012         GPS_NMEA_FROM_GPS    iGPS            $GPRMC,200211.000,A,4144.3446,N,06959.5727,W,0.51,201.49,300321,,,D*74 
170.915         GPS_NMEA_FROM_GPS    iGPS            $GPRMC,200212.000,A,4144.3445,N,06959.5728,W,0.56,196.69,300321,,,D*73 
171.917         GPS_NMEA_FROM_GPS    iGPS            $GPGGA,200213.000,4144.3443,N,06959.5728,W,2,11,0.90,3.2,M,-34.3,M,0000,0000*50 
172.920         GPS_NMEA_FROM_GPS    iGPS            $GPGGA,200214.000,4144.3441,N,06959.5728,W,2,12,0.83,3.3,M,-34.3,M,0000,0000*55 
173.923         GPS_NMEA_FROM_GPS    iGPS            $GPRMC,200215.000,A,4144.3439,N,06959.5727,W,0.57,176.29,300321,,,D*7B 
174.925         GPS_NMEA_FROM_GPS    iGPS            $GPGGA,200216.000,4144.3437,N,06959.5727,W,2,11,0.90,3.4,M,-34.3,M,0000,0000*5F 
175.928         GPS_NMEA_FROM_GPS    iGPS            $GPGGA,200217.000,4144.3436,N,06959.5726,W,2,11,0.90,3.5,M,-34.3,M,0000,0000*5F 
176.930         GPS_NMEA_FROM_GPS    iGPS            $GPGGA,200218.000,4144.3434,N,06959.5725,W,2,11,0.90,3.5,M,-34.3,M,0000,0000*51 
177.933         GPS_NMEA_FROM_GPS    iGPS            $GPGGA,200219.000,4144.3433,N,06959.5724,W,2,11,0.90,3.6,M,-34.3,M,0000,0000*55 
178.936         GPS_NMEA_FROM_GPS    iGPS            $GPGGA,200220.000,4144.3431,N,06959.5722,W,2,11,0.90,3.6,M,-34.3,M,0000,0000*5B 
179.938         GPS_NMEA_FROM_GPS    iGPS            $GPGGA,200221.000,4144.3430,N,06959.5721,W,2,11,0.90,3.6,M,-34.3,M,0000,0000*58 
180.941         GPS_NMEA_FROM_GPS    iGPS            $GPGGA,200222.000,4144.3429,N,06959.5719,W,2,11,0.90,3.7,M,-34.3,M,0000,0000*59 
181.843         GPS_NMEA_FROM_GPS    iGPS            $GPGGA,200223.000,4144.3427,N,06959.5716,W,2,11,0.90,3.7,M,-34.3,M,0000,0000*59 
182.946         GPS_NMEA_FROM_GPS    iGPS            $GPRMC,200224.000,A,4144.3426,N,06959.5714,W,0.67,131.20,300321,,,D*7E 
183.848         GPS_NMEA_FROM_GPS    iGPS            $GPGGA,200225.000,4144.3424,N,06959.5712,W,2,11,0.90,3.8,M,-34.3,M,0000,0000*57 
184.951         GPS_NMEA_FROM_GPS    iGPS            $GPGGA,200226.000,4144.3423,N,06959.5710,W,2,11,0.90,3.9,M,-34.3,M,0000,0000*50 
185.954         GPS_NMEA_FROM_GPS    iGPS            $GPRMC,200227.000,A,4144.3421,N,06959.5708,W,0.70,129.13,300321,,,D*78 
186.956         GPS_NMEA_FROM_GPS    iGPS            $GPRMC,200228.000,A,4144.3420,N,06959.5707,W,0.73,129.11,300321,,,D*78 
187.858         GPS_NMEA_FROM_GPS    iGPS            $GPGGA,200229.000,4144.3418,N,06959.5705,W,2,12,0.84,4.1,M,-34.3,M,0000,0000*5A 
188.961         GPS_NMEA_FROM_GPS    iGPS            $GPRMC,200230.000,A,4144.3417,N,06959.5703,W,0.72,128.69,300321,,,D*7E 
189.964         GPS_NMEA_FROM_GPS    iGPS            $GPRMC,200231.000,A,4144.3415,N,06959.5701,W,0.72,128.31,300321,,,D*72 
190.966         GPS_NMEA_FROM_GPS    iGPS            $GPGGA,200232.000,4144.3414,N,06959.5699,W,2,12,0.84,4.2,M,-34.3,M,0000,0000*5B 
191.869         GPS_NMEA_FROM_GPS    iGPS            $GPGGA,200233.000,4144.3413,N,06959.5696,W,2,12,0.84,4.2,M,-34.3,M,0000,0000*52 
192.972         GPS_NMEA_FROM_GPS    iGPS            $GPGGA,200234.000,4144.3412,N,06959.5693,W,2,12,0.84,4.2,M,-34.3,M,0000,0000*51 
193.874         GPS_NMEA_FROM_GPS    iGPS            $GPGGA,200235.000,4144.3410,N,06959.5691,W,2,12,0.84,4.2,M,-34.3,M,0000,0000*50 
194.877         GPS_NMEA_FROM_GPS    iGPS            $GPGGA,200236.000,4144.3410,N,06959.5688,W,2,12,0.84,4.2,M,-34.3,M,0000,0000*5B 
195.979         GPS_NMEA_FROM_GPS    iGPS            $GPGGA,200237.000,4144.3408,N,06959.5685,W,2,12,0.84,4.2,M,-34.3,M,0000,0000*5E 
196.982         GPS_NMEA_FROM_GPS    iGPS            $GPGGA,200238.000,4144.3407,N,06959.5682,W,2,12,0.84,4.2,M,-34.3,M,0000,0000*59 
197.985         GPS_NMEA_FROM_GPS    iGPS            $GPGGA,200239.000,4144.3406,N,06959.5680,W,2,12,0.84,4.2,M,-34.3,M,0000,0000*5B 
198.987         GPS_NMEA_FROM_GPS    iGPS            $GPRMC,200240.000,A,4144.3405,N,06959.5677,W,0.76,120.56,300321,,,D*78 
199.990         GPS_NMEA_FROM_GPS    iGPS            $GPRMC,200241.000,A,4144.3405,N,06959.5674,W,0.74,119.45,300321,,,D*70 
200.992         GPS_NMEA_FROM_GPS    iGPS            $GPRMC,200242.000,A,4144.3404,N,06959.5671,W,0.76,118.72,300321,,,D*70 
201.995         GPS_NMEA_FROM_GPS    iGPS            $GPRMC,200243.000,A,4144.3403,N,06959.5668,W,0.73,118.02,300321,,,D*7C 
202.897         GPS_NMEA_FROM_GPS    iGPS            $GPGGA,200244.000,4144.3402,N,06959.5665,W,2,11,0.90,4.1,M,-34.3,M,0000,0000*5B 
204.000         GPS_NMEA_FROM_GPS    iGPS            $GPRMC,200245.000,A,4144.3401,N,06959.5662,W,0.75,118.02,300321,,,D*74 
205.003         GPS_NMEA_FROM_GPS    iGPS            $GPRMC,200246.000,A,4144.3400,N,06959.5660,W,0.74,118.24,300321,,,D*71 
205.905         GPS_NMEA_FROM_GPS    iGPS            $GPGGA,200247.000,4144.3399,N,06959.5657,W,2,11,0.90,4.1,M,-34.3,M,0000,0000*5C 
207.008         GPS_NMEA_FROM_GPS    iGPS            $GPRMC,200248.000,A,4144.3398,N,06959.5655,W,0.77,119.43,300321,,,D*7C 
208.010         GPS_NMEA_FROM_GPS    iGPS            $GPRMC,200249.000,A,4144.3397,N,06959.5652,W,0.72,119.79,300321,,,D*79 
208.912         GPS_NMEA_FROM_GPS    iGPS            $GPGGA,200250.000,4144.3396,N,06959.5650,W,2,11,0.90,4.1,M,-34.3,M,0000,0000*52 
209.815         GPS_NMEA_FROM_GPS    iGPS            $GPGGA,200251.000,4144.3395,N,06959.5647,W,2,11,0.90,4.1,M,-34.3,M,0000,0000*56 
210.918         GPS_NMEA_FROM_GPS    iGPS            $GPGGA,200252.000,4144.3394,N,06959.5645,W,2,11,0.90,4.1,M,-34.3,M,0000,0000*56 
211.920         GPS_NMEA_FROM_GPS    iGPS            $GPGGA,200253.000,4144.3393,N,06959.5642,W,2,11,0.90,4.1,M,-34.3,M,0000,0000*57 
212.923         GPS_NMEA_FROM_GPS    iGPS            $GPGGA,200254.000,4144.3392,N,06959.5639,W,2,11,0.90,4.1,M,-34.3,M,0000,0000*5D 
213.925         GPS_NMEA_FROM_GPS    iGPS            $GPGGA,200255.000,4144.3391,N,06959.5637,W,2,10,0.98,4.1,M,-34.3,M,0000,0000*58 
214.928         GPS_NMEA_FROM_GPS    iGPS            $GPRMC,200256.000,A,4144.3390,N,06959.5634,W,0.73,120.41,300321,,,D*70 
215.930         GPS_NMEA_FROM_GPS    iGPS            $GPGGA,200257.000,4144.3389,N,06959.5631,W,2,11,0.90,4.2,M,-34.3,M,0000,0000*5F 
216.933         GPS_NMEA_FROM_GPS    iGPS            $GPGGA,200258.000,4144.3388,N,06959.5628,W,2,11,0.90,4.2,M,-34.3,M,0000,0000*59 
217.935         GPS_NMEA_FROM_GPS    iGPS            $GPRMC,200259.000,A,4144.3387,N,06959.5625,W,0.75,118.58,300321,,,D*7C 
218.937         GPS_NMEA_FROM_GPS    iGPS            $GPGGA,200300.000,4144.3386,N,06959.5622,W,2,11,0.90,4.3,M,-34.3,M,0000,0000*50 
219.940         GPS_NMEA_FROM_GPS    iGPS            $GPRMC,200301.000,A,4144.3385,N,06959.5619,W,0.77,117.06,300321,,,D*7B 
220.943         GPS_NMEA_FROM_GPS    iGPS            $GPGGA,200302.000,4144.3384,N,06959.5616,W,2,11,0.90,4.4,M,-34.3,M,0000,0000*50 
221.946         GPS_NMEA_FROM_GPS    iGPS            $GPRMC,200303.000,A,4144.3383,N,06959.5614,W,0.69,115.01,300321,,,D*78 
222.949         GPS_NMEA_FROM_GPS    iGPS            $GPGGA,200304.000,4144.3383,N,06959.5611,W,2,11,0.90,4.5,M,-34.3,M,0000,0000*57 
223.951         GPS_NMEA_FROM_GPS    iGPS            $GPGGA,200305.000,4144.3382,N,06959.5609,W,2,11,0.90,4.5,M,-34.3,M,0000,0000*5E 
224.954         GPS_NMEA_FROM_GPS    iGPS            $GPGGA,200306.000,4144.3382,N,06959.5606,W,2,12,0.84,4.5,M,-34.3,M,0000,0000*54 
225.856         GPS_NMEA_FROM_GPS    iGPS            $GPGGA,200307.000,4144.3381,N,06959.5603,W,2,12,0.84,4.5,M,-34.3,M,0000,0000*53 
226.960         GPS_NMEA_FROM_GPS    iGPS            $GPGGA,200308.000,4144.3381,N,06959.5601,W,2,12,0.84,4.5,M,-34.3,M,0000,0000*5E 
227.962         GPS_NMEA_FROM_GPS    iGPS            $GPGGA,200309.000,4144.3381,N,06959.5598,W,2,12,0.84,4.5,M,-34.3,M,0000,0000*5C 
228.965         GPS_NMEA_FROM_GPS    iGPS            $GPGGA,200310.000,4144.3381,N,06959.5595,W,2,12,0.84,4.5,M,-34.3,M,0000,0000*59 
229.868         GPS_NMEA_FROM_GPS    iGPS            $GPGGA,200311.000,4144.3380,N,06959.5592,W,2,12,0.84,4.5,M,-34.3,M,0000,0000*5E 
230.870         GPS_NMEA_FROM_GPS    iGPS            $GPGGA,200312.000,4144.3380,N,06959.5589,W,2,12,0.84,4.5,M,-34.3,M,0000,0000*57 
231.873         GPS_NMEA_FROM_GPS    iGPS            $GPGGA,200313.000,4144.3380,N,06959.5586,W,2,12,0.84,4.5,M,-34.3,M,0000,0000*59 
232.976         GPS_NMEA_FROM_GPS    iGPS            $GPGGA,200314.000,4144.3380,N,06959.5583,W,2,12,0.84,4.5,M,-34.3,M,0000,0000*5B 
233.878         GPS_NMEA_FROM_GPS    iGPS            $GPGGA,200315.000,4144.3379,N,06959.5581,W,2,12,0.84,4.5,M,-34.3,M,0000,0000*5E 
234.880         GPS_NMEA_FROM_GPS    iGPS            $GPGGA,200316.000,4144.3379,N,06959.5578,W,2,12,0.84,4.4,M,-34.3,M,0000,0000*5A 
235.983         GPS_NMEA_FROM_GPS    iGPS            $GPGGA,200317.000,4144.3379,N,06959.5575,W,2,12,0.84,4.4,M,-34.3,M,0000,0000*56 
236.886         GPS_NMEA_FROM_GPS    iGPS            $GPGGA,200318.000,4144.3378,N,06959.5572,W,2,12,0.84,4.4,M,-34.3,M,0000,0000*5F 
237.989         GPS_NMEA_FROM_GPS    iGPS            $GPRMC,200319.000,A,4144.3378,N,06959.5569,W,0.76,100.63,300321,,,D*70 
238.891         GPS_NMEA_FROM_GPS    iGPS            $GPGGA,200320.000,4144.3378,N,06959.5566,W,2,12,0.84,4.3,M,-34.3,M,0000,0000*56 
239.993         GPS_NMEA_FROM_GPS    iGPS            $GPGGA,200321.000,4144.3377,N,06959.5563,W,2,12,0.84,4.3,M,-34.3,M,0000,0000*5D 
240.896         GPS_NMEA_FROM_GPS    iGPS            $GPGGA,200322.000,4144.3377,N,06959.5560,W,2,12,0.83,4.3,M,-34.3,M,0000,0000*5A 
241.999         GPS_NMEA_FROM_GPS    iGPS            $GPRMC,200323.000,A,4144.3377,N,06959.5558,W,0.77,99.51,300321,,,D*45 
242.901         GPS_NMEA_FROM_GPS    iGPS            $GPGGA,200324.000,4144.3377,N,06959.5555,W,2,12,0.84,4.3,M,-34.3,M,0000,0000*5D 
244.004         GPS_NMEA_FROM_GPS    iGPS            $GPRMC,200325.000,A,4144.3376,N,06959.5552,W,0.79,98.67,300321,,,D*42 
244.905         GPS_NMEA_FROM_GPS    iGPS            $GPGGA,200326.000,4144.3376,N,06959.5549,W,2,12,0.84,4.3,M,-34.3,M,0000,0000*53 
246.008         GPS_NMEA_FROM_GPS    iGPS            $GPRMC,200327.000,A,4144.3376,N,06959.5546,W,0.79,98.32,300321,,,D*45 
246.910         GPS_NMEA_FROM_GPS    iGPS            $GPGGA,200328.000,4144.3375,N,06959.5542,W,2,12,0.84,4.3,M,-34.3,M,0000,0000*55 
247.913         GPS_NMEA_FROM_GPS    iGPS            $GPGGA,200329.000,4144.3375,N,06959.5539,W,2,12,0.84,4.3,M,-34.3,M,0000,0000*58 
248.915         GPS_NMEA_FROM_GPS    iGPS            $GPGGA,200330.000,4144.3375,N,06959.5536,W,2,12,0.84,4.2,M,-34.3,M,0000,0000*5E 
249.918         GPS_NMEA_FROM_GPS    iGPS            $GPGGA,200331.000,4144.3375,N,06959.5533,W,2,12,0.84,4.2,M,-34.3,M,0000,0000*5A 
250.921         GPS_NMEA_FROM_GPS    iGPS            $GPGGA,200332.000,4144.3375,N,06959.5530,W,2,12,0.84,4.2,M,-34.3,M,0000,0000*5A 
251.923         GPS_NMEA_FROM_GPS    iGPS            $GPGGA,200333.000,4144.3375,N,06959.5527,W,2,12,0.84,4.2,M,-34.3,M,0000,0000*5D 
252.926         GPS_NMEA_FROM_GPS    iGPS            $GPGGA,200334.000,4144.3374,N,06959.5524,W,2,12,0.84,4.2,M,-34.3,M,0000,0000*58 
253.929         GPS_NMEA_FROM_GPS    iGPS            $GPGGA,200335.000,4144.3374,N,06959.5522,W,2,12,0.84,4.1,M,-34.3,M,0000,0000*5C 
255.032         GPS_NMEA_FROM_GPS    iGPS            $GPRMC,200336.000,A,4144.3374,N,06959.5519,W,0.77,96.46,300321,,,D*4E 
255.934         GPS_NMEA_FROM_GPS    iGPS            $GPGGA,200337.000,4144.3374,N,06959.5516,W,2,12,0.84,4.1,M,-34.3,M,0000,0000*59 
256.937         GPS_NMEA_FROM_GPS    iGPS            $GPGGA,200338.000,4144.3374,N,06959.5513,W,2,12,0.84,4.1,M,-34.3,M,0000,0000*53 
257.940         GPS_NMEA_FROM_GPS    iGPS            $GPGGA,200339.000,4144.3374,N,06959.5510,W,2,12,0.84,4.1,M,-34.3,M,0000,0000*51 
258.942         GPS_NMEA_FROM_GPS    iGPS            $GPRMC,200340.000,A,4144.3374,N,06959.5507,W,0.79,94.45,300321,,,D*4F 
259.945         GPS_NMEA_FROM_GPS    iGPS            $GPGGA,200341.000,4144.3374,N,06959.5504,W,2,12,0.84,4.1,M,-34.3,M,0000,0000*5B 
260.947         GPS_NMEA_FROM_GPS    iGPS            $GPGGA,200342.000,4144.3374,N,06959.5501,W,2,12,0.84,4.2,M,-34.3,M,0000,0000*5E 
261.950         GPS_NMEA_FROM_GPS    iGPS            $GPRMC,200343.000,A,4144.3374,N,06959.5498,W,0.78,93.18,300321,,,D*45 
262.952         GPS_NMEA_FROM_GPS    iGPS            $GPGGA,200344.000,4144.3374,N,06959.5494,W,2,12,0.84,4.2,M,-34.3,M,0000,0000*55 
263.955         GPS_NMEA_FROM_GPS    iGPS            $GPGGA,200345.000,4144.3374,N,06959.5491,W,2,12,0.84,4.2,M,-34.3,M,0000,0000*51 
264.958         GPS_NMEA_FROM_GPS    iGPS            $GPRMC,200346.000,A,4144.3374,N,06959.5488,W,0.79,92.04,300321,,,D*4C 
265.960         GPS_NMEA_FROM_GPS    iGPS            $GPRMC,200347.000,A,4144.3374,N,06959.5485,W,0.78,92.05,300321,,,D*40 
266.862         GPS_NMEA_FROM_GPS    iGPS            $GPGGA,200348.000,4144.3374,N,06959.5482,W,2,12,0.84,4.3,M,-34.3,M,0000,0000*5F 
267.965         GPS_NMEA_FROM_GPS    iGPS            $GPGGA,200349.000,4144.3374,N,06959.5478,W,2,12,0.84,4.2,M,-34.3,M,0000,0000*5A 
268.967         GPS_NMEA_FROM_GPS    iGPS            $GPGGA,200350.000,4144.3373,N,06959.5475,W,2,12,0.84,4.2,M,-34.3,M,0000,0000*58 
269.970         GPS_NMEA_FROM_GPS    iGPS            $GPGGA,200351.000,4144.3373,N,06959.5472,W,2,12,0.84,4.2,M,-34.3,M,0000,0000*5E 
270.973         GPS_NMEA_FROM_GPS    iGPS            $GPGGA,200352.000,4144.3373,N,06959.5470,W,2,12,0.84,4.1,M,-34.3,M,0000,0000*5C 
271.975         GPS_NMEA_FROM_GPS    iGPS            $GPGGA,200353.000,4144.3373,N,06959.5467,W,2,12,0.84,4.1,M,-34.3,M,0000,0000*5B 
272.978         GPS_NMEA_FROM_GPS    iGPS            $GPGGA,200354.000,4144.3373,N,06959.5464,W,2,12,0.84,4.2,M,-34.3,M,0000,0000*5C 
273.980         GPS_NMEA_FROM_GPS    iGPS            $GPGGA,200355.000,4144.3373,N,06959.5461,W,2,12,0.84,4.2,M,-34.3,M,0000,0000*58 
274.883         GPS_NMEA_FROM_GPS    iGPS            $GPGGA,200356.000,4144.3373,N,06959.5458,W,2,12,0.84,4.2,M,-34.3,M,0000,0000*51 
275.986         GPS_NMEA_FROM_GPS    iGPS            $GPRMC,200357.000,A,4144.3374,N,06959.5455,W,0.79,88.66,300321,,,D*43 
276.889         GPS_NMEA_FROM_GPS    iGPS            $GPGGA,200358.000,4144.3374,N,06959.5452,W,2,12,0.84,4.3,M,-34.3,M,0000,0000*53 
277.992         GPS_NMEA_FROM_GPS    iGPS            $GPRMC,200359.000,A,4144.3374,N,06959.5449,W,0.77,88.12,300321,,,D*4D 
278.894         GPS_NMEA_FROM_GPS    iGPS            $GPGGA,200400.000,4144.3374,N,06959.5445,W,2,12,0.84,4.2,M,-34.3,M,0000,0000*5E 
279.896         GPS_NMEA_FROM_GPS    iGPS            $GPGGA,200401.000,4144.3374,N,06959.5442,W,2,12,0.84,4.2,M,-34.3,M,0000,0000*58 
280.999         GPS_NMEA_FROM_GPS    iGPS            $GPRMC,200402.000,A,4144.3374,N,06959.5439,W,0.79,89.49,300321,,,D*42 
282.002         GPS_NMEA_FROM_GPS    iGPS            $GPRMC,200403.000,A,4144.3374,N,06959.5436,W,0.77,90.49,300321,,,D*4A 
282.904         GPS_NMEA_FROM_GPS    iGPS            $GPGGA,200404.000,4144.3374,N,06959.5434,W,2,12,0.84,4.2,M,-34.3,M,0000,0000*5C 
283.906         GPS_NMEA_FROM_GPS    iGPS            $GPGGA,200405.000,4144.3374,N,06959.5431,W,2,11,0.99,4.2,M,-34.3,M,0000,0000*57 
284.909         GPS_NMEA_FROM_GPS    iGPS            $GPGGA,200406.000,4144.3375,N,06959.5428,W,2,12,0.84,4.2,M,-34.3,M,0000,0000*52 
285.912         GPS_NMEA_FROM_GPS    iGPS            $GPGGA,200407.000,4144.3374,N,06959.5425,W,2,11,0.99,4.2,M,-34.3,M,0000,0000*50 
286.915         GPS_NMEA_FROM_GPS    iGPS            $GPGGA,200408.000,4144.3374,N,06959.5423,W,2,12,0.84,4.2,M,-34.3,M,0000,0000*56 
287.918         GPS_NMEA_FROM_GPS    iGPS            $GPGGA,200409.000,4144.3374,N,06959.5420,W,2,12,0.84,4.2,M,-34.3,M,0000,0000*54 
288.920         GPS_NMEA_FROM_GPS    iGPS            $GPGGA,200410.000,4144.3374,N,06959.5418,W,2,12,0.84,4.2,M,-34.3,M,0000,0000*57 
289.923         GPS_NMEA_FROM_GPS    iGPS            $GPGGA,200411.000,4144.3373,N,06959.5415,W,2,12,0.84,4.2,M,-34.3,M,0000,0000*5C 
290.926         GPS_NMEA_FROM_GPS    iGPS            $GPGGA,200412.000,4144.3373,N,06959.5413,W,2,12,0.84,4.2,M,-34.3,M,0000,0000*59 
291.929         GPS_NMEA_FROM_GPS    iGPS            $GPGGA,200413.000,4144.3373,N,06959.5410,W,2,12,0.84,4.1,M,-34.3,M,0000,0000*58 
292.932         GPS_NMEA_FROM_GPS    iGPS            $GPGGA,200414.000,4144.3374,N,06959.5407,W,2,12,0.84,4.2,M,-34.3,M,0000,0000*5D 
293.934         GPS_NMEA_FROM_GPS    iGPS            $GPGGA,200415.000,4144.3374,N,06959.5404,W,2,12,0.84,4.2,M,-34.3,M,0000,0000*5F 
294.937         GPS_NMEA_FROM_GPS    iGPS            $GPGGA,200416.000,4144.3374,N,06959.5402,W,2,12,0.84,4.2,M,-34.3,M,0000,0000*5A 
295.940         GPS_NMEA_FROM_GPS    iGPS            $GPRMC,200417.000,A,4144.3374,N,06959.5399,W,0.77,90.74,300321,,,D*43 
296.943         GPS_NMEA_FROM_GPS    iGPS            $GPGGA,200418.000,4144.3374,N,06959.5396,W,2,12,0.84,4.3,M,-34.3,M,0000,0000*5F 
297.945         GPS_NMEA_FROM_GPS    iGPS            $GPGGA,200419.000,4144.3374,N,06959.5394,W,2,12,0.84,4.3,M,-34.3,M,0000,0000*5C 
298.948         GPS_NMEA_FROM_GPS    iGPS            $GPGGA,200420.000,4144.3374,N,06959.5391,W,2,12,0.84,4.3,M,-34.3,M,0000,0000*53 
299.951         GPS_NMEA_FROM_GPS    iGPS            $GPRMC,200421.000,A,4144.3374,N,06959.5388,W,0.77,91.35,300321,,,D*42 
300.853         GPS_NMEA_FROM_GPS    iGPS            $GPGGA,200422.000,4144.3374,N,06959.5385,W,2,12,0.84,4.4,M,-34.3,M,0000,0000*53 
301.956         GPS_NMEA_FROM_GPS    iGPS            $GPGGA,200423.000,4144.3374,N,06959.5383,W,2,12,0.84,4.4,M,-34.3,M,0000,0000*54 
302.958         GPS_NMEA_FROM_GPS    iGPS            $GPGGA,200424.000,4144.3374,N,06959.5380,W,2,12,0.84,4.4,M,-34.3,M,0000,0000*50 
303.961         GPS_NMEA_FROM_GPS    iGPS            $GPGGA,200425.000,4144.3374,N,06959.5377,W,2,12,0.84,4.4,M,-34.3,M,0000,0000*59 
304.863         GPS_NMEA_FROM_GPS    iGPS            $GPGGA,200426.000,4144.3373,N,06959.5375,W,2,12,0.84,4.4,M,-34.3,M,0000,0000*5F 
305.966         GPS_NMEA_FROM_GPS    iGPS            $GPGGA,200427.000,4144.3373,N,06959.5372,W,2,12,0.84,4.5,M,-34.3,M,0000,0000*58 
306.969         GPS_NMEA_FROM_GPS    iGPS            $GPGGA,200428.000,4144.3373,N,06959.5369,W,2,12,0.84,4.5,M,-34.3,M,0000,0000*5D 
307.871         GPS_NMEA_FROM_GPS    iGPS            $GPGGA,200429.000,4144.3373,N,06959.5366,W,2,12,0.84,4.5,M,-34.3,M,0000,0000*53 
308.874         GPS_NMEA_FROM_GPS    iGPS            $GPGGA,200430.000,4144.3373,N,06959.5363,W,2,12,0.84,4.6,M,-34.3,M,0000,0000*5D 
309.977         GPS_NMEA_FROM_GPS    iGPS            $GPGGA,200431.000,4144.3373,N,06959.5360,W,2,12,0.84,4.6,M,-34.3,M,0000,0000*5F 
310.980         GPS_NMEA_FROM_GPS    iGPS            $GPGGA,200432.000,4144.3374,N,06959.5358,W,2,11,0.99,4.6,M,-34.3,M,0000,0000*5F 
311.982         GPS_NMEA_FROM_GPS    iGPS            $GPRMC,200433.000,A,4144.3374,N,06959.5355,W,0.71,86.00,300321,,,D*47 
312.985         GPS_NMEA_FROM_GPS    iGPS            $GPRMC,200434.000,A,4144.3374,N,06959.5352,W,0.73,83.93,300321,,,D*4A 
313.987         GPS_NMEA_FROM_GPS    iGPS            $GPGGA,200435.000,4144.3375,N,06959.5349,W,2,12,0.84,4.7,M,-34.3,M,0000,0000*57 
314.990         GPS_NMEA_FROM_GPS    iGPS            $GPGGA,200436.000,4144.3375,N,06959.5347,W,2,12,0.84,4.7,M,-34.3,M,0000,0000*5A 
315.892         GPS_NMEA_FROM_GPS    iGPS            $GPGGA,200437.000,4144.3376,N,06959.5344,W,2,12,0.84,4.8,M,-34.3,M,0000,0000*54 
316.895         GPS_NMEA_FROM_GPS    iGPS            $GPGGA,200438.000,4144.3377,N,06959.5341,W,2,12,0.84,4.8,M,-34.3,M,0000,0000*5F 
317.998         GPS_NMEA_FROM_GPS    iGPS            $GPRMC,200439.000,A,4144.3378,N,06959.5339,W,0.78,75.80,300321,,,D*46 
319.000         GPS_NMEA_FROM_GPS    iGPS            $GPGGA,200440.000,4144.3378,N,06959.5336,W,2,12,0.84,4.9,M,-34.3,M,0000,0000*5E 
320.003         GPS_NMEA_FROM_GPS    iGPS            $GPRMC,200441.000,A,4144.3379,N,06959.5333,W,0.75,71.22,300321,,,D*43 
320.906         GPS_NMEA_FROM_GPS    iGPS            $GPGGA,200442.000,4144.3380,N,06959.5330,W,2,11,0.99,4.9,M,-34.3,M,0000,0000*52 
321.909         GPS_NMEA_FROM_GPS    iGPS            $GPGGA,200443.000,4144.3380,N,06959.5327,W,2,11,0.99,4.9,M,-34.3,M,0000,0000*55 
323.012         GPS_NMEA_FROM_GPS    iGPS            $GPRMC,200444.000,A,4144.3381,N,06959.5324,W,0.72,79.86,300321,,,D*46 
323.914         GPS_NMEA_FROM_GPS    iGPS            $GPGGA,200445.000,4144.3382,N,06959.5321,W,2,12,0.83,5.0,M,-34.3,M,0000,0000*57 
324.917         GPS_NMEA_FROM_GPS    iGPS            $GPGGA,200446.000,4144.3382,N,06959.5318,W,2,11,0.99,5.0,M,-34.3,M,0000,0000*56 
325.920         GPS_NMEA_FROM_GPS    iGPS            $GPGGA,200447.000,4144.3383,N,06959.5315,W,2,11,0.99,5.1,M,-34.3,M,0000,0000*5A 
326.922         GPS_NMEA_FROM_GPS    iGPS            $GPGGA,200448.000,4144.3384,N,06959.5313,W,2,12,0.84,5.1,M,-34.3,M,0000,0000*5B 
327.925         GPS_NMEA_FROM_GPS    iGPS            $GPGGA,200449.000,4144.3384,N,06959.5310,W,2,11,0.99,5.1,M,-34.3,M,0000,0000*56 
328.928         GPS_NMEA_FROM_GPS    iGPS            $GPGGA,200450.000,4144.3385,N,06959.5307,W,2,12,0.84,5.1,M,-34.3,M,0000,0000*56 
329.930         GPS_NMEA_FROM_GPS    iGPS            $GPGGA,200451.000,4144.3385,N,06959.5305,W,2,12,0.84,5.2,M,-34.3,M,0000,0000*56 
330.933         GPS_NMEA_FROM_GPS    iGPS            $GPGGA,200452.000,4144.3386,N,06959.5302,W,2,12,0.84,5.2,M,-34.3,M,0000,0000*51 
331.936         GPS_NMEA_FROM_GPS    iGPS            $GPRMC,200453.000,A,4144.3387,N,06959.5299,W,0.74,73.30,300321,,,D*40 
332.938         GPS_NMEA_FROM_GPS    iGPS            $GPGGA,200454.000,4144.3388,N,06959.5296,W,2,12,0.84,5.3,M,-34.3,M,0000,0000*54 
333.940         GPS_NMEA_FROM_GPS    iGPS            $GPGGA,200455.000,4144.3388,N,06959.5294,W,2,12,0.84,5.3,M,-34.3,M,0000,0000*57 
334.943         GPS_NMEA_FROM_GPS    iGPS            $GPGGA,200456.000,4144.3389,N,06959.5291,W,2,12,0.84,5.4,M,-34.3,M,0000,0000*57 
335.946         GPS_NMEA_FROM_GPS    iGPS            $GPGGA,200457.000,4144.3389,N,06959.5289,W,2,12,0.84,5.3,M,-34.3,M,0000,0000*58 
336.948         GPS_NMEA_FROM_GPS    iGPS            $GPRMC,200458.000,A,4144.3390,N,06959.5286,W,0.74,73.31,300321,,,D*42 
337.951         GPS_NMEA_FROM_GPS    iGPS            $GPRMC,200459.000,A,4144.3391,N,06959.5283,W,0.69,74.46,300321,,,D*4C 
338.955         GPS_NMEA_FROM_GPS    iGPS            $GPGGA,200500.000,4144.3391,N,06959.5281,W,2,11,0.99,5.3,M,-34.3,M,0000,0000*55 
339.956         GPS_NMEA_FROM_GPS    iGPS            $GPRMC,200501.000,A,4144.3392,N,06959.5278,W,0.71,73.38,300321,,,D*40 
340.958         GPS_NMEA_FROM_GPS    iGPS            $GPRMC,200502.000,A,4144.3393,N,06959.5276,W,0.69,70.27,300321,,,D*48 
341.960         GPS_NMEA_FROM_GPS    iGPS            $GPGGA,200503.000,4144.3394,N,06959.5273,W,2,12,0.84,5.3,M,-34.3,M,0000,0000*51 
342.863         GPS_NMEA_FROM_GPS    iGPS            $GPGGA,200504.000,4144.3395,N,06959.5271,W,2,12,0.84,5.2,M,-34.3,M,0000,0000*54 
343.965         GPS_NMEA_FROM_GPS    iGPS            $GPGGA,200505.000,4144.3396,N,06959.5269,W,2,12,0.84,5.2,M,-34.3,M,0000,0000*5F 
344.968         GPS_NMEA_FROM_GPS    iGPS            $GPGGA,200506.000,4144.3397,N,06959.5266,W,2,12,0.84,5.2,M,-34.3,M,0000,0000*52 
345.971         GPS_NMEA_FROM_GPS    iGPS            $GPRMC,200507.000,A,4144.3397,N,06959.5263,W,0.75,67.30,300321,,,D*40 
346.873         GPS_NMEA_FROM_GPS    iGPS            $GPGGA,200508.000,4144.3398,N,06959.5260,W,2,12,0.84,5.3,M,-34.3,M,0000,0000*54 
347.976         GPS_NMEA_FROM_GPS    iGPS            $GPRMC,200509.000,A,4144.3399,N,06959.5257,W,0.72,68.58,300321,,,D*41 
348.878         GPS_NMEA_FROM_GPS    iGPS            $GPGGA,200510.000,4144.3400,N,06959.5254,W,2,11,0.99,5.4,M,-34.3,M,0000,0000*54 
349.981         GPS_NMEA_FROM_GPS    iGPS            $GPRMC,200511.000,A,4144.3400,N,06959.5252,W,0.73,70.40,300321,,,D*4B 
350.883         GPS_NMEA_FROM_GPS    iGPS            $GPGGA,200512.000,4144.3401,N,06959.5249,W,2,11,0.99,5.5,M,-34.3,M,0000,0000*5A 
351.986         GPS_NMEA_FROM_GPS    iGPS            $GPRMC,200513.000,A,4144.3402,N,06959.5246,W,0.68,72.21,300321,,,D*41 
352.988         GPS_NMEA_FROM_GPS    iGPS            $GPRMC,200514.000,A,4144.3402,N,06959.5243,W,0.77,72.76,300321,,,D*4F 
353.991         GPS_NMEA_FROM_GPS    iGPS            $GPRMC,200515.000,A,4144.3403,N,06959.5241,W,0.70,72.30,300321,,,D*48 
354.893         GPS_NMEA_FROM_GPS    iGPS            $GPGGA,200516.000,4144.3403,N,06959.5238,W,2,11,0.99,5.5,M,-34.3,M,0000,0000*5A 
355.896         GPS_NMEA_FROM_GPS    iGPS            $GPGGA,200517.000,4144.3404,N,06959.5236,W,2,12,0.84,5.5,M,-34.3,M,0000,0000*5D 
356.899         GPS_NMEA_FROM_GPS    iGPS            $GPGGA,200518.000,4144.3405,N,06959.5234,W,2,12,0.84,5.5,M,-34.3,M,0000,0000*51 
357.901         GPS_NMEA_FROM_GPS    iGPS            $GPGGA,200519.000,4144.3405,N,06959.5231,W,2,12,0.84,5.4,M,-34.3,M,0000,0000*54 
358.904         GPS_NMEA_FROM_GPS    iGPS            $GPGGA,200520.000,4144.3406,N,06959.5229,W,2,11,0.99,5.4,M,-34.3,M,0000,0000*5B 
359.907         GPS_NMEA_FROM_GPS    iGPS            $GPRMC,200521.000,A,4144.3407,N,06959.5227,W,0.74,67.10,300321,,,D*49 
360.909         GPS_NMEA_FROM_GPS    iGPS            $GPGGA,200522.000,4144.3408,N,06959.5225,W,2,12,0.84,5.5,M,-34.3,M,0000,0000*55 
361.912         GPS_NMEA_FROM_GPS    iGPS            $GPGGA,200523.000,4144.3409,N,06959.5223,W,2,12,0.84,5.4,M,-34.3,M,0000,0000*52 
362.915         GPS_NMEA_FROM_GPS    iGPS            $GPGGA,200524.000,4144.3410,N,06959.5221,W,2,12,0.84,5.4,M,-34.3,M,0000,0000*5F 
363.918         GPS_NMEA_FROM_GPS    iGPS            $GPRMC,200525.000,A,4144.3411,N,06959.5218,W,0.78,65.50,300321,,,D*4C 
364.920         GPS_NMEA_FROM_GPS    iGPS            $GPGGA,200526.000,4144.3411,N,06959.5216,W,2,12,0.84,5.5,M,-34.3,M,0000,0000*59 
365.923         GPS_NMEA_FROM_GPS    iGPS            $GPGGA,200527.000,4144.3412,N,06959.5214,W,2,12,0.84,5.5,M,-34.3,M,0000,0000*59 
366.926         GPS_NMEA_FROM_GPS    iGPS            $GPGGA,200528.000,4144.3413,N,06959.5211,W,2,12,0.84,5.5,M,-34.3,M,0000,0000*52 
367.928         GPS_NMEA_FROM_GPS    iGPS            $GPGGA,200529.000,4144.3414,N,06959.5208,W,2,12,0.84,5.5,M,-34.3,M,0000,0000*5C 
368.931         GPS_NMEA_FROM_GPS    iGPS            $GPGGA,200530.000,4144.3414,N,06959.5206,W,2,12,0.84,5.6,M,-34.3,M,0000,0000*59 
369.933         GPS_NMEA_FROM_GPS    iGPS            $GPGGA,200531.000,4144.3415,N,06959.5203,W,2,12,0.84,5.6,M,-34.3,M,0000,0000*5C 
370.936         GPS_NMEA_FROM_GPS    iGPS            $GPGGA,200532.000,4144.3416,N,06959.5200,W,2,12,0.84,5.6,M,-34.3,M,0000,0000*5F 
371.939         GPS_NMEA_FROM_GPS    iGPS            $GPRMC,200533.000,A,4144.3417,N,06959.5198,W,0.73,68.91,300321,,,D*4D 
372.942         GPS_NMEA_FROM_GPS    iGPS            $GPRMC,200534.000,A,4144.3418,N,06959.5195,W,0.75,68.99,300321,,,D*46 
373.944         GPS_NMEA_FROM_GPS    iGPS            $GPGGA,200535.000,4144.3418,N,06959.5193,W,2,12,0.84,5.6,M,-34.3,M,0000,0000*5F 
374.946         GPS_NMEA_FROM_GPS    iGPS            $GPGGA,200536.000,4144.3419,N,06959.5190,W,2,12,0.84,5.6,M,-34.3,M,0000,0000*5E 
375.949         GPS_NMEA_FROM_GPS    iGPS            $GPGGA,200537.000,4144.3420,N,06959.5188,W,2,12,0.84,5.6,M,-34.3,M,0000,0000*5C 
376.951         GPS_NMEA_FROM_GPS    iGPS            $GPGGA,200538.000,4144.3421,N,06959.5185,W,2,12,0.84,5.6,M,-34.3,M,0000,0000*5F 
377.954         GPS_NMEA_FROM_GPS    iGPS            $GPGGA,200539.000,4144.3422,N,06959.5183,W,2,12,0.84,5.6,M,-34.3,M,0000,0000*5B 
378.957         GPS_NMEA_FROM_GPS    iGPS            $GPGGA,200540.000,4144.3422,N,06959.5181,W,2,12,0.84,5.6,M,-34.3,M,0000,0000*57 
379.859         GPS_NMEA_FROM_GPS    iGPS            $GPGGA,200541.000,4144.3423,N,06959.5179,W,2,12,0.84,5.6,M,-34.3,M,0000,0000*50 
380.862         GPS_NMEA_FROM_GPS    iGPS            $GPGGA,200542.000,4144.3424,N,06959.5177,W,2,12,0.84,5.6,M,-34.3,M,0000,0000*5A 
381.965         GPS_NMEA_FROM_GPS    iGPS            $GPGGA,200543.000,4144.3425,N,06959.5175,W,2,12,0.84,5.5,M,-34.3,M,0000,0000*5B 
382.968         GPS_NMEA_FROM_GPS    iGPS            $GPRMC,200544.000,A,4144.3426,N,06959.5173,W,0.70,61.87,300321,,,D*47 
383.969         GPS_NMEA_FROM_GPS    iGPS            $GPGGA,200545.000,4144.3428,N,06959.5171,W,2,12,0.84,5.5,M,-34.3,M,0000,0000*54 
384.872         GPS_NMEA_FROM_GPS    iGPS            $GPGGA,200546.000,4144.3429,N,06959.5169,W,2,12,0.84,5.5,M,-34.3,M,0000,0000*5F 
385.874         GPS_NMEA_FROM_GPS    iGPS            $GPGGA,200547.000,4144.3431,N,06959.5167,W,2,12,0.84,5.5,M,-34.3,M,0000,0000*59 
386.977         GPS_NMEA_FROM_GPS    iGPS            $GPRMC,200548.000,A,4144.3432,N,06959.5164,W,0.74,53.12,300321,,,D*41 
387.980         GPS_NMEA_FROM_GPS    iGPS            $GPGGA,200549.000,4144.3433,N,06959.5162,W,2,12,0.84,5.6,M,-34.3,M,0000,0000*53 
388.882         GPS_NMEA_FROM_GPS    iGPS            $GPGGA,200550.000,4144.3435,N,06959.5160,W,2,12,0.84,5.6,M,-34.3,M,0000,0000*5F 
389.985         GPS_NMEA_FROM_GPS    iGPS            $GPGGA,200551.000,4144.3436,N,06959.5158,W,2,12,0.84,5.5,M,-34.3,M,0000,0000*55 
390.988         GPS_NMEA_FROM_GPS    iGPS            $GPGGA,200552.000,4144.3437,N,06959.5156,W,2,12,0.84,5.5,M,-34.3,M,0000,0000*59 
391.990         GPS_NMEA_FROM_GPS    iGPS            $GPRMC,200553.000,A,4144.3439,N,06959.5154,W,0.74,44.73,300321,,,D*42 
392.893         GPS_NMEA_FROM_GPS    iGPS            $GPGGA,200554.000,4144.3440,N,06959.5152,W,2,12,0.84,5.6,M,-34.3,M,0000,0000*58 
393.895         GPS_NMEA_FROM_GPS    iGPS            $GPGGA,200555.000,4144.3442,N,06959.5150,W,2,12,0.84,5.7,M,-34.3,M,0000,0000*58 
394.998         GPS_NMEA_FROM_GPS    iGPS            $GPRMC,200556.000,A,4144.3443,N,06959.5148,W,0.74,40.79,300321,,,D*49 
395.900         GPS_NMEA_FROM_GPS    iGPS            $GPGGA,200557.000,4144.3445,N,06959.5147,W,2,12,0.84,5.6,M,-34.3,M,0000,0000*5A 
397.013         GPS_NMEA_FROM_GPS    iGPS            $GPRMC,200558.000,A,4144.3447,N,06959.5145,W,0.75,38.56,300321,,,D*4D 
397.914         GPS_NMEA_FROM_GPS    iGPS            $GPGGA,200559.000,4144.3448,N,06959.5144,W,2,12,0.84,5.5,M,-34.3,M,0000,0000*59 
398.917         GPS_NMEA_FROM_GPS    iGPS            $GPGGA,200600.000,4144.3450,N,06959.5142,W,2,12,0.84,5.5,M,-34.3,M,0000,0000*59 
399.920         GPS_NMEA_FROM_GPS    iGPS            $GPGGA,200601.000,4144.3451,N,06959.5140,W,2,12,0.84,5.6,M,-34.3,M,0000,0000*58 
400.922         GPS_NMEA_FROM_GPS    iGPS            $GPGGA,200602.000,4144.3453,N,06959.5139,W,2,12,0.84,5.6,M,-34.3,M,0000,0000*57 
401.925         GPS_NMEA_FROM_GPS    iGPS            $GPGGA,200603.000,4144.3454,N,06959.5137,W,2,12,0.84,5.6,M,-34.3,M,0000,0000*5F 
403.028         GPS_NMEA_FROM_GPS    iGPS            $GPRMC,200604.000,A,4144.3456,N,06959.5135,W,0.76,37.58,300321,,,D*42 
403.930         GPS_NMEA_FROM_GPS    iGPS            $GPGGA,200605.000,4144.3458,N,06959.5134,W,2,12,0.84,5.4,M,-34.3,M,0000,0000*54 
404.932         GPS_NMEA_FROM_GPS    iGPS            $GPGGA,200606.000,4144.3460,N,06959.5133,W,2,12,0.84,5.4,M,-34.3,M,0000,0000*5B 
405.935         GPS_NMEA_FROM_GPS    iGPS            $GPGGA,200607.000,4144.3461,N,06959.5131,W,2,12,0.84,5.4,M,-34.3,M,0000,0000*59 
406.938         GPS_NMEA_FROM_GPS    iGPS            $GPRMC,200608.000,A,4144.3463,N,06959.5129,W,0.77,38.15,300321,,,D*42 
407.940         GPS_NMEA_FROM_GPS    iGPS            $GPGGA,200609.000,4144.3464,N,06959.5127,W,2,12,0.84,5.4,M,-34.3,M,0000,0000*55 
408.943         GPS_NMEA_FROM_GPS    iGPS            $GPGGA,200610.000,4144.3466,N,06959.5125,W,2,12,0.84,5.5,M,-34.3,M,0000,0000*5C 
409.946         GPS_NMEA_FROM_GPS    iGPS            $GPGGA,200611.000,4144.3468,N,06959.5123,W,2,12,0.84,5.5,M,-34.3,M,0000,0000*55 
410.948         GPS_NMEA_FROM_GPS    iGPS            $GPGGA,200612.000,4144.3469,N,06959.5121,W,2,12,0.84,5.5,M,-34.3,M,0000,0000*55 
411.951         GPS_NMEA_FROM_GPS    iGPS            $GPGGA,200613.000,4144.3471,N,06959.5120,W,2,12,0.84,5.4,M,-34.3,M,0000,0000*5D 
412.954         GPS_NMEA_FROM_GPS    iGPS            $GPGGA,200614.000,4144.3472,N,06959.5118,W,2,12,0.84,5.4,M,-34.3,M,0000,0000*52 
413.957         GPS_NMEA_FROM_GPS    iGPS            $GPRMC,200615.000,A,4144.3474,N,06959.5117,W,0.74,36.86,300321,,,D*42 
414.959         GPS_NMEA_FROM_GPS    iGPS            $GPRMC,200616.000,A,4144.3476,N,06959.5116,W,0.72,36.25,300321,,,D*4D 
415.961         GPS_NMEA_FROM_GPS    iGPS            $GPGGA,200617.000,4144.3477,N,06959.5114,W,2,12,0.84,5.4,M,-34.3,M,0000,0000*58 
416.964         GPS_NMEA_FROM_GPS    iGPS            $GPGGA,200618.000,4144.3479,N,06959.5112,W,2,12,0.84,5.5,M,-34.3,M,0000,0000*5E 
417.967         GPS_NMEA_FROM_GPS    iGPS            $GPGGA,200619.000,4144.3481,N,06959.5110,W,2,12,0.84,5.5,M,-34.3,M,0000,0000*5A 
418.970         GPS_NMEA_FROM_GPS    iGPS            $GPGGA,200620.000,4144.3482,N,06959.5109,W,2,12,0.84,5.4,M,-34.3,M,0000,0000*5A 
419.973         GPS_NMEA_FROM_GPS    iGPS            $GPGGA,200621.000,4144.3484,N,06959.5107,W,2,12,0.84,5.4,M,-34.3,M,0000,0000*53 
420.976         GPS_NMEA_FROM_GPS    iGPS            $GPGGA,200622.000,4144.3486,N,06959.5107,W,2,12,0.84,5.3,M,-34.3,M,0000,0000*55 
421.878         GPS_NMEA_FROM_GPS    iGPS            $GPGGA,200623.000,4144.3488,N,06959.5106,W,2,12,0.84,5.2,M,-34.3,M,0000,0000*5A 
422.881         GPS_NMEA_FROM_GPS    iGPS            $GPGGA,200624.000,4144.3490,N,06959.5105,W,2,12,0.84,5.1,M,-34.3,M,0000,0000*54 
423.984         GPS_NMEA_FROM_GPS    iGPS            $GPGGA,200625.000,4144.3491,N,06959.5104,W,2,12,0.84,5.0,M,-34.3,M,0000,0000*54 
424.986         GPS_NMEA_FROM_GPS    iGPS            $GPGGA,200626.000,4144.3493,N,06959.5103,W,2,12,0.84,5.1,M,-34.3,M,0000,0000*53 
425.989         GPS_NMEA_FROM_GPS    iGPS            $GPRMC,200627.000,A,4144.3495,N,06959.5101,W,0.75,29.26,300321,,,D*4E 
426.893         GPS_NMEA_FROM_GPS    iGPS            $GPGGA,200628.000,4144.3496,N,06959.5099,W,2,12,0.84,5.2,M,-34.3,M,0000,0000*59 
427.897         GPS_NMEA_FROM_GPS    iGPS            $GPGGA,200629.000,4144.3498,N,06959.5098,W,2,12,0.84,5.2,M,-34.3,M,0000,0000*57 
429.000         GPS_NMEA_FROM_GPS    iGPS            $GPRMC,200630.000,A,4144.3500,N,06959.5097,W,0.72,30.65,300321,,,D*43 
429.902         GPS_NMEA_FROM_GPS    iGPS            $GPGGA,200631.000,4144.3502,N,06959.5095,W,2,12,0.84,5.2,M,-34.3,M,0000,0000*51 
431.005         GPS_NMEA_FROM_GPS    iGPS            $GPRMC,200632.000,A,4144.3504,N,06959.5094,W,0.77,31.84,300321,,,D*4D 
431.907         GPS_NMEA_FROM_GPS    iGPS            $GPGGA,200633.000,4144.3506,N,06959.5092,W,2,12,0.84,5.1,M,-34.3,M,0000,0000*53 
432.910         GPS_NMEA_FROM_GPS    iGPS            $GPGGA,200634.000,4144.3507,N,06959.5091,W,2,12,0.84,5.1,M,-34.3,M,0000,0000*56 
434.012         GPS_NMEA_FROM_GPS    iGPS            $GPRMC,200635.000,A,4144.3509,N,06959.5089,W,0.75,33.88,300321,,,D*47 
435.015         GPS_NMEA_FROM_GPS    iGPS            $GPRMC,200636.000,A,4144.3511,N,06959.5088,W,0.72,34.25,300321,,,D*4B 
435.917         GPS_NMEA_FROM_GPS    iGPS            $GPGGA,200637.000,4144.3513,N,06959.5086,W,2,12,0.84,5.0,M,-34.3,M,0000,0000*57 
436.920         GPS_NMEA_FROM_GPS    iGPS            $GPGGA,200638.000,4144.3515,N,06959.5085,W,2,12,0.84,5.0,M,-34.3,M,0000,0000*5D 
437.922         GPS_NMEA_FROM_GPS    iGPS            $GPGGA,200639.000,4144.3517,N,06959.5083,W,2,12,0.84,5.0,M,-34.3,M,0000,0000*58 
438.925         GPS_NMEA_FROM_GPS    iGPS            $GPGGA,200640.000,4144.3518,N,06959.5081,W,2,12,0.84,5.1,M,-34.3,M,0000,0000*5A 
439.927         GPS_NMEA_FROM_GPS    iGPS            $GPGGA,200641.000,4144.3520,N,06959.5079,W,2,12,0.84,5.2,M,-34.3,M,0000,0000*54 
440.930         GPS_NMEA_FROM_GPS    iGPS            $GPGGA,200642.000,4144.3522,N,06959.5077,W,2,12,0.84,5.3,M,-34.3,M,0000,0000*5A 
441.933         GPS_NMEA_FROM_GPS    iGPS            $GPGGA,200643.000,4144.3523,N,06959.5076,W,2,12,0.84,5.3,M,-34.3,M,0000,0000*5B 
442.935         GPS_NMEA_FROM_GPS    iGPS            $GPGGA,200644.000,4144.3525,N,06959.5074,W,2,12,0.84,5.3,M,-34.3,M,0000,0000*58 
443.938         GPS_NMEA_FROM_GPS    iGPS            $GPRMC,200645.000,A,4144.3527,N,06959.5073,W,0.75,32.21,300321,,,D*4B 
444.940         GPS_NMEA_FROM_GPS    iGPS            $GPGGA,200646.000,4144.3528,N,06959.5072,W,2,12,0.84,5.1,M,-34.3,M,0000,0000*53 
445.943         GPS_NMEA_FROM_GPS    iGPS            $GPRMC,200647.000,A,4144.3530,N,06959.5071,W,0.76,31.22,300321,,,D*4E 
446.945         GPS_NMEA_FROM_GPS    iGPS            $GPGGA,200648.000,4144.3532,N,06959.5070,W,2,12,0.84,4.9,M,-34.3,M,0000,0000*5D 
447.948         GPS_NMEA_FROM_GPS    iGPS            $GPGGA,200649.000,4144.3533,N,06959.5069,W,2,12,0.84,4.7,M,-34.3,M,0000,0000*5B 
448.952         GPS_NMEA_FROM_GPS    iGPS            $GPRMC,200650.000,A,4144.3535,N,06959.5068,W,0.74,31.23,300321,,,D*46 
449.953         GPS_NMEA_FROM_GPS    iGPS            $GPGGA,200651.000,4144.3537,N,06959.5068,W,2,12,0.84,4.5,M,-34.3,M,0000,0000*55 
450.855         GPS_NMEA_FROM_GPS    iGPS            $GPGGA,200652.000,4144.3539,N,06959.5067,W,2,12,0.84,4.4,M,-34.3,M,0000,0000*56 
451.958         GPS_NMEA_FROM_GPS    iGPS            $GPGGA,200653.000,4144.3540,N,06959.5065,W,2,12,0.84,4.3,M,-34.3,M,0000,0000*5C 
452.860         GPS_NMEA_FROM_GPS    iGPS            $GPGGA,200654.000,4144.3542,N,06959.5064,W,2,12,0.84,4.3,M,-34.3,M,0000,0000*58 
