1.663           GPS_NMEA_FROM_GPS    iGPS            $GPRMC,184927.000,A,4144.3630,N,06959.5165,W,0.07,253.32,240321,,,D*7B 
2.364           GPS_NMEA_FROM_GPS    iGPS            $GPRMC,184928.000,A,4144.3630,N,06959.5165,W,0.08,254.75,240321,,,D*7F 
2.364           GPS_NMEA_FROM_GPS    iGPS            $GPRMC,184928.000,A,4144.3630,N,06959.5165,W,0.08,254.75,240321,,,D*7F 
3.366           GPS_NMEA_FROM_GPS    iGPS            $GPGGA,184929.000,4144.3630,N,06959.5166,W,2,09,0.96,3.3,M,-34.3,M,0000,0000*59 
3.366           GPS_NMEA_FROM_GPS    iGPS            $GPGGA,184929.000,4144.3630,N,06959.5166,W,2,09,0.96,3.3,M,-34.3,M,0000,0000*59 
4.368           GPS_NMEA_FROM_GPS    iGPS            $GPRMC,184930.000,A,4144.3629,N,06959.5166,W,0.09,249.42,240321,,,D*74 
5.370           GPS_NMEA_FROM_GPS    iGPS            $GPGGA,184931.000,4144.3629,N,06959.5166,W,2,09,0.96,3.2,M,-34.3,M,0000,0000*59 
6.372           GPS_NMEA_FROM_GPS    iGPS            $GPRMC,184932.000,A,4144.3629,N,06959.5166,W,0.08,251.37,240321,,,D*7C 
7.374           GPS_NMEA_FROM_GPS    iGPS            $GPGGA,184933.000,4144.3629,N,06959.5167,W,2,09,0.96,3.1,M,-34.3,M,0000,0000*59 
8.376           GPS_NMEA_FROM_GPS    iGPS            $GPGGA,184934.000,4144.3628,N,06959.5167,W,2,09,0.96,3.1,M,-34.3,M,0000,0000*5F 
9.379           GPS_NMEA_FROM_GPS    iGPS            $GPGGA,184935.000,4144.3628,N,06959.5167,W,2,09,0.96,3.1,M,-34.3,M,0000,0000*5E 
10.381          GPS_NMEA_FROM_GPS    iGPS            $GPGGA,184936.000,4144.3628,N,06959.5168,W,2,09,0.96,3.0,M,-34.3,M,0000,0000*53 
11.383          GPS_NMEA_FROM_GPS    iGPS            $GPGGA,184937.000,4144.3628,N,06959.5168,W,2,08,1.55,3.0,M,-34.3,M,0000,0000*5D 
11.383          GPS_NMEA_FROM_GPS    iGPS            $GPGGA,184937.000,4144.3628,N,06959.5168,W,2,08,1.55,3.0,M,-34.3,M,0000,0000*5D 
12.386          GPS_NMEA_FROM_GPS    iGPS            $GPGGA,184938.000,4144.3628,N,06959.5168,W,2,08,1.55,2.9,M,-34.3,M,0000,0000*5A 
12.386          GPS_NMEA_FROM_GPS    iGPS            $GPGGA,184938.000,4144.3628,N,06959.5168,W,2,08,1.55,2.9,M,-34.3,M,0000,0000*5A 
13.389          GPS_NMEA_FROM_GPS    iGPS            $GPGGA,184939.000,4144.3628,N,06959.5168,W,2,09,0.96,2.9,M,-34.3,M,0000,0000*54 
14.291          GPS_NMEA_FROM_GPS    iGPS            $GPGGA,184940.000,4144.3627,N,06959.5168,W,2,09,0.96,2.8,M,-34.3,M,0000,0000*54 
15.293          GPS_NMEA_FROM_GPS    iGPS            $GPGGA,184941.000,4144.3627,N,06959.5168,W,2,09,0.96,2.8,M,-34.3,M,0000,0000*55 
16.296          GPS_NMEA_FROM_GPS    iGPS            $GPGGA,184942.000,4144.3627,N,06959.5168,W,2,09,0.96,2.7,M,-34.3,M,0000,0000*59 
17.299          GPS_NMEA_FROM_GPS    iGPS            $GPGGA,184943.000,4144.3626,N,06959.5169,W,2,09,0.96,2.7,M,-34.3,M,0000,0000*58 
18.301          GPS_NMEA_FROM_GPS    iGPS            $GPGGA,184944.000,4144.3626,N,06959.5169,W,2,09,0.96,2.7,M,-34.3,M,0000,0000*5F 
18.301          GPS_NMEA_FROM_GPS    iGPS            $GPGGA,184944.000,4144.3626,N,06959.5169,W,2,09,0.96,2.7,M,-34.3,M,0000,0000*5F 
19.304          GPS_NMEA_FROM_GPS    iGPS            $GPGGA,184945.000,4144.3626,N,06959.5169,W,2,09,0.96,2.7,M,-34.3,M,0000,0000*5E 
20.406          GPS_NMEA_FROM_GPS    iGPS            $GPGGA,184946.000,4144.3626,N,06959.5169,W,2,09,0.96,2.6,M,-34.3,M,0000,0000*5C 
21.308          GPS_NMEA_FROM_GPS    iGPS            $GPGGA,184947.000,4144.3626,N,06959.5169,W,2,09,0.96,2.6,M,-34.3,M,0000,0000*5D 
22.412          GPS_NMEA_FROM_GPS    iGPS            $GPRMC,184948.000,A,4144.3625,N,06959.5169,W,0.06,237.25,240321,,,D*7F 
22.412          GPS_NMEA_FROM_GPS    iGPS            $GPRMC,184948.000,A,4144.3625,N,06959.5169,W,0.06,237.25,240321,,,D*7F 
23.315          GPS_NMEA_FROM_GPS    iGPS            $GPGGA,184949.000,4144.3625,N,06959.5169,W,2,09,0.96,2.5,M,-34.3,M,0000,0000*53 
24.318          GPS_NMEA_FROM_GPS    iGPS            $GPGGA,184950.000,4144.3625,N,06959.5170,W,2,09,0.96,2.5,M,-34.3,M,0000,0000*53 
25.421          GPS_NMEA_FROM_GPS    iGPS            $GPRMC,184951.000,A,4144.3625,N,06959.5169,W,0.09,195.95,240321,,,D*78 
26.322          GPS_NMEA_FROM_GPS    iGPS            $GPGGA,184952.000,4144.3625,N,06959.5169,W,2,09,0.96,2.5,M,-34.3,M,0000,0000*59 
27.325          GPS_NMEA_FROM_GPS    iGPS            $GPRMC,184953.000,A,4144.3624,N,06959.5170,W,0.19,188.29,240321,,,D*79 
28.327          GPS_NMEA_FROM_GPS    iGPS            $GPGGA,184954.000,4144.3624,N,06959.5170,W,2,09,0.94,2.5,M,-34.3,M,0000,0000*54 
29.430          GPS_NMEA_FROM_GPS    iGPS            $GPRMC,184955.000,A,4144.3623,N,06959.5170,W,0.15,199.84,240321,,,D*73 
30.432          GPS_NMEA_FROM_GPS    iGPS            $GPRMC,184956.000,A,4144.3623,N,06959.5169,W,0.12,203.42,240321,,,D*75 
31.435          GPS_NMEA_FROM_GPS    iGPS            $GPRMC,184957.000,A,4144.3623,N,06959.5169,W,0.11,200.50,240321,,,D*77 
32.337          GPS_NMEA_FROM_GPS    iGPS            $GPGGA,184958.000,4144.3622,N,06959.5169,W,2,08,1.55,2.4,M,-34.3,M,0000,0000*5A 
33.339          GPS_NMEA_FROM_GPS    iGPS            $GPGGA,184959.000,4144.3622,N,06959.5169,W,2,08,1.21,2.4,M,-34.3,M,0000,0000*58 
34.344          GPS_NMEA_FROM_GPS    iGPS            $GPGGA,185000.000,4144.3621,N,06959.5170,W,2,08,1.21,2.3,M,-34.3,M,0000,0000*50 
35.446          GPS_NMEA_FROM_GPS    iGPS            $GPRMC,185001.000,A,4144.3620,N,06959.5170,W,0.26,196.46,240321,,,D*78 
36.348          GPS_NMEA_FROM_GPS    iGPS            $GPGGA,185002.000,4144.3619,N,06959.5171,W,2,09,0.94,2.3,M,-34.3,M,0000,0000*56 
37.352          GPS_NMEA_FROM_GPS    iGPS            $GPRMC,185003.000,A,4144.3618,N,06959.5171,W,0.32,198.16,240321,,,D*7E 
38.254          GPS_NMEA_FROM_GPS    iGPS            $GPGGA,185004.000,4144.3618,N,06959.5172,W,2,09,0.94,2.3,M,-34.3,M,0000,0000*52 
39.257          GPS_NMEA_FROM_GPS    iGPS            $GPGGA,185005.000,4144.3617,N,06959.5173,W,2,09,0.94,2.3,M,-34.3,M,0000,0000*5D 
40.259          GPS_NMEA_FROM_GPS    iGPS            $GPGGA,185006.000,4144.3617,N,06959.5175,W,2,09,0.94,2.3,M,-34.3,M,0000,0000*58 
41.262          GPS_NMEA_FROM_GPS    iGPS            $GPGGA,185007.000,4144.3616,N,06959.5176,W,2,09,0.94,2.3,M,-34.3,M,0000,0000*5B 
42.364          GPS_NMEA_FROM_GPS    iGPS            $GPGGA,185008.000,4144.3616,N,06959.5178,W,2,09,0.94,2.3,M,-34.3,M,0000,0000*5A 
43.366          GPS_NMEA_FROM_GPS    iGPS            $GPGGA,185009.000,4144.3615,N,06959.5179,W,2,09,0.94,2.4,M,-34.3,M,0000,0000*5E 
44.369          GPS_NMEA_FROM_GPS    iGPS            $GPRMC,185010.000,A,4144.3615,N,06959.5181,W,0.44,222.70,240321,,,D*7D 
45.273          GPS_NMEA_FROM_GPS    iGPS            $GPGGA,185011.000,4144.3614,N,06959.5183,W,2,09,0.94,2.5,M,-34.3,M,0000,0000*52 
46.276          GPS_NMEA_FROM_GPS    iGPS            $GPGGA,185012.000,4144.3613,N,06959.5185,W,2,09,0.94,2.6,M,-34.3,M,0000,0000*53 
47.378          GPS_NMEA_FROM_GPS    iGPS            $GPRMC,185013.000,A,4144.3613,N,06959.5187,W,0.48,235.02,240321,,,D*71 
48.280          GPS_NMEA_FROM_GPS    iGPS            $GPGGA,185014.000,4144.3613,N,06959.5190,W,2,09,0.94,2.8,M,-34.3,M,0000,0000*5F 
49.283          GPS_NMEA_FROM_GPS    iGPS            $GPGGA,185015.000,4144.3612,N,06959.5192,W,2,09,0.94,2.8,M,-34.3,M,0000,0000*5D 
50.285          GPS_NMEA_FROM_GPS    iGPS            $GPGGA,185016.000,4144.3612,N,06959.5194,W,2,08,1.06,2.8,M,-34.3,M,0000,0000*53 
51.287          GPS_NMEA_FROM_GPS    iGPS            $GPGGA,185017.000,4144.3612,N,06959.5196,W,2,08,1.06,2.9,M,-34.3,M,0000,0000*51 
52.290          GPS_NMEA_FROM_GPS    iGPS            $GPGGA,185018.000,4144.3612,N,06959.5199,W,2,08,1.06,2.9,M,-34.3,M,0000,0000*51 
53.191          GPS_NMEA_FROM_GPS    iGPS            $GPGGA,185019.000,4144.3612,N,06959.5201,W,2,08,1.06,2.9,M,-34.3,M,0000,0000*52 
54.294          GPS_NMEA_FROM_GPS    iGPS            $GPGGA,185020.000,4144.3612,N,06959.5204,W,2,08,1.06,2.9,M,-34.3,M,0000,0000*5D 
55.296          GPS_NMEA_FROM_GPS    iGPS            $GPRMC,185021.000,A,4144.3612,N,06959.5206,W,0.63,256.66,240321,,,D*75 
56.298          GPS_NMEA_FROM_GPS    iGPS            $GPGGA,185022.000,4144.3612,N,06959.5209,W,2,08,1.06,3.0,M,-34.3,M,0000,0000*5A 
57.301          GPS_NMEA_FROM_GPS    iGPS            $GPGGA,185023.000,4144.3612,N,06959.5211,W,2,08,1.06,3.0,M,-34.3,M,0000,0000*52 
58.303          GPS_NMEA_FROM_GPS    iGPS            $GPGGA,185024.000,4144.3612,N,06959.5214,W,2,09,0.94,3.1,M,-34.3,M,0000,0000*5A 
59.305          GPS_NMEA_FROM_GPS    iGPS            $GPGGA,185025.000,4144.3612,N,06959.5216,W,2,09,0.94,3.1,M,-34.3,M,0000,0000*59 
60.207          GPS_NMEA_FROM_GPS    iGPS            $GPGGA,185026.000,4144.3612,N,06959.5219,W,2,09,0.94,3.1,M,-34.3,M,0000,0000*55 
61.310          GPS_NMEA_FROM_GPS    iGPS            $GPRMC,185027.000,A,4144.3611,N,06959.5222,W,0.70,262.61,240321,,,D*74 
62.313          GPS_NMEA_FROM_GPS    iGPS            $GPGGA,185028.000,4144.3611,N,06959.5225,W,2,09,0.94,3.1,M,-34.3,M,0000,0000*57 
63.214          GPS_NMEA_FROM_GPS    iGPS            $GPGGA,185029.000,4144.3611,N,06959.5227,W,2,09,0.94,3.2,M,-34.3,M,0000,0000*57 
64.316          GPS_NMEA_FROM_GPS    iGPS            $GPRMC,185030.000,A,4144.3612,N,06959.5230,W,0.78,265.49,240321,,,D*77 
65.318          GPS_NMEA_FROM_GPS    iGPS            $GPGGA,185031.000,4144.3612,N,06959.5233,W,2,09,0.94,3.2,M,-34.3,M,0000,0000*58 
66.220          GPS_NMEA_FROM_GPS    iGPS            $GPGGA,185032.000,4144.3612,N,06959.5236,W,2,09,0.94,3.2,M,-34.3,M,0000,0000*5E 
67.222          GPS_NMEA_FROM_GPS    iGPS            $GPGGA,185033.000,4144.3612,N,06959.5239,W,2,09,0.94,3.2,M,-34.3,M,0000,0000*50 
68.325          GPS_NMEA_FROM_GPS    iGPS            $GPRMC,185034.000,A,4144.3612,N,06959.5242,W,0.79,268.17,240321,,,D*71 
69.228          GPS_NMEA_FROM_GPS    iGPS            $GPGGA,185035.000,4144.3612,N,06959.5245,W,2,09,0.94,3.2,M,-34.3,M,0000,0000*5D 
70.230          GPS_NMEA_FROM_GPS    iGPS            $GPGGA,185036.000,4144.3612,N,06959.5248,W,2,09,0.94,3.2,M,-34.3,M,0000,0000*53 
71.333          GPS_NMEA_FROM_GPS    iGPS            $GPRMC,185037.000,A,4144.3612,N,06959.5251,W,0.79,269.59,240321,,,D*7B 
72.236          GPS_NMEA_FROM_GPS    iGPS            $GPGGA,185038.000,4144.3613,N,06959.5254,W,2,09,0.94,3.3,M,-34.3,M,0000,0000*50 
73.337          GPS_NMEA_FROM_GPS    iGPS            $GPGGA,185039.000,4144.3613,N,06959.5257,W,2,09,0.94,3.3,M,-34.3,M,0000,0000*52 
74.240          GPS_NMEA_FROM_GPS    iGPS            $GPGGA,185040.000,4144.3613,N,06959.5260,W,2,09,0.94,3.3,M,-34.3,M,0000,0000*58 
75.342          GPS_NMEA_FROM_GPS    iGPS            $GPRMC,185041.000,A,4144.3613,N,06959.5263,W,0.79,271.01,240321,,,D*7E 
76.244          GPS_NMEA_FROM_GPS    iGPS            $GPGGA,185042.000,4144.3613,N,06959.5266,W,2,09,0.94,3.3,M,-34.3,M,0000,0000*5C 
77.247          GPS_NMEA_FROM_GPS    iGPS            $GPGGA,185043.000,4144.3613,N,06959.5269,W,2,09,0.94,3.3,M,-34.3,M,0000,0000*52 
78.249          GPS_NMEA_FROM_GPS    iGPS            $GPGGA,185044.000,4144.3614,N,06959.5272,W,2,09,0.94,3.3,M,-34.3,M,0000,0000*58 
79.252          GPS_NMEA_FROM_GPS    iGPS            $GPGGA,185045.000,4144.3614,N,06959.5275,W,2,09,0.94,3.3,M,-34.3,M,0000,0000*5E 
80.254          GPS_NMEA_FROM_GPS    iGPS            $GPGGA,185046.000,4144.3614,N,06959.5277,W,2,09,0.94,3.3,M,-34.3,M,0000,0000*5F 
81.257          GPS_NMEA_FROM_GPS    iGPS            $GPRMC,185047.000,A,4144.3615,N,06959.5281,W,0.78,272.81,240321,,,D*78 
82.258          GPS_NMEA_FROM_GPS    iGPS            $GPGGA,185048.000,4144.3615,N,06959.5283,W,2,09,0.94,3.3,M,-34.3,M,0000,0000*5B 
83.261          GPS_NMEA_FROM_GPS    iGPS            $GPGGA,185049.000,4144.3616,N,06959.5286,W,2,09,0.94,3.3,M,-34.3,M,0000,0000*5C 
84.264          GPS_NMEA_FROM_GPS    iGPS            $GPRMC,185050.000,A,4144.3616,N,06959.5289,W,0.79,272.80,240321,,,D*75 
85.367          GPS_NMEA_FROM_GPS    iGPS            $GPRMC,185051.000,A,4144.3616,N,06959.5292,W,0.78,273.22,240321,,,D*76 
86.269          GPS_NMEA_FROM_GPS    iGPS            $GPGGA,185052.000,4144.3616,N,06959.5295,W,2,09,0.94,3.3,M,-34.3,M,0000,0000*54 
87.271          GPS_NMEA_FROM_GPS    iGPS            $GPRMC,185053.000,A,4144.3617,N,06959.5299,W,0.78,272.87,240321,,,D*70 
88.274          GPS_NMEA_FROM_GPS    iGPS            $GPGGA,185054.000,4144.3617,N,06959.5302,W,2,09,0.94,3.3,M,-34.3,M,0000,0000*5C 
89.376          GPS_NMEA_FROM_GPS    iGPS            $GPRMC,185055.000,A,4144.3617,N,06959.5305,W,0.78,272.48,240321,,,D*71 
90.278          GPS_NMEA_FROM_GPS    iGPS            $GPGGA,185056.000,4144.3617,N,06959.5308,W,2,09,0.94,3.2,M,-34.3,M,0000,0000*55 
91.281          GPS_NMEA_FROM_GPS    iGPS            $GPGGA,185057.000,4144.3617,N,06959.5311,W,2,09,0.94,3.2,M,-34.3,M,0000,0000*5C 
92.284          GPS_NMEA_FROM_GPS    iGPS            $GPRMC,185058.000,A,4144.3617,N,06959.5314,W,0.79,271.78,240321,,,D*7D 
93.291          GPS_NMEA_FROM_GPS    iGPS            $GPGGA,185059.000,4144.3618,N,06959.5317,W,2,09,0.94,3.2,M,-34.3,M,0000,0000*5B 
94.294          GPS_NMEA_FROM_GPS    iGPS            $GPGGA,185100.000,4144.3618,N,06959.5320,W,2,09,0.94,3.2,M,-34.3,M,0000,0000*52 
95.296          GPS_NMEA_FROM_GPS    iGPS            $GPGGA,185101.000,4144.3619,N,06959.5323,W,2,09,0.94,3.2,M,-34.3,M,0000,0000*51 
96.299          GPS_NMEA_FROM_GPS    iGPS            $GPGGA,185102.000,4144.3619,N,06959.5326,W,2,09,0.94,3.2,M,-34.3,M,0000,0000*57 
97.302          GPS_NMEA_FROM_GPS    iGPS            $GPGGA,185103.000,4144.3619,N,06959.5329,W,2,09,0.94,3.2,M,-34.3,M,0000,0000*59 
98.204          GPS_NMEA_FROM_GPS    iGPS            $GPGGA,185104.000,4144.3619,N,06959.5332,W,2,08,1.06,3.2,M,-34.3,M,0000,0000*5F 
99.307          GPS_NMEA_FROM_GPS    iGPS            $GPRMC,185105.000,A,4144.3619,N,06959.5335,W,0.79,272.08,240321,,,D*7D 
100.309         GPS_NMEA_FROM_GPS    iGPS            $GPRMC,185106.000,A,4144.3620,N,06959.5338,W,0.78,272.05,240321,,,D*75 
101.211         GPS_NMEA_FROM_GPS    iGPS            $GPGGA,185107.000,4144.3620,N,06959.5341,W,2,09,0.94,3.1,M,-34.3,M,0000,0000*5A 
102.214         GPS_NMEA_FROM_GPS    iGPS            $GPGGA,185108.000,4144.3620,N,06959.5344,W,2,09,0.94,3.1,M,-34.3,M,0000,0000*50 
103.218         GPS_NMEA_FROM_GPS    iGPS            $GPGGA,185109.000,4144.3620,N,06959.5347,W,2,08,1.06,3.1,M,-34.3,M,0000,0000*59 
104.220         GPS_NMEA_FROM_GPS    iGPS            $GPGGA,185110.000,4144.3620,N,06959.5350,W,2,08,1.06,3.1,M,-34.3,M,0000,0000*57 
105.322         GPS_NMEA_FROM_GPS    iGPS            $GPRMC,185111.000,A,4144.3620,N,06959.5353,W,0.77,271.27,240321,,,D*72 
106.225         GPS_NMEA_FROM_GPS    iGPS            $GPGGA,185112.000,4144.3620,N,06959.5355,W,2,09,0.94,3.1,M,-34.3,M,0000,0000*5B 
107.327         GPS_NMEA_FROM_GPS    iGPS            $GPGGA,185113.000,4144.3620,N,06959.5358,W,2,09,0.94,3.1,M,-34.3,M,0000,0000*57 
108.229         GPS_NMEA_FROM_GPS    iGPS            $GPGGA,185114.000,4144.3620,N,06959.5361,W,2,09,0.94,3.1,M,-34.3,M,0000,0000*5A 
109.231         GPS_NMEA_FROM_GPS    iGPS            $GPGGA,185115.000,4144.3619,N,06959.5364,W,2,09,0.94,3.1,M,-34.3,M,0000,0000*54 
110.233         GPS_NMEA_FROM_GPS    iGPS            $GPGGA,185116.000,4144.3619,N,06959.5367,W,2,09,0.94,3.1,M,-34.3,M,0000,0000*54 
111.235         GPS_NMEA_FROM_GPS    iGPS            $GPGGA,185117.000,4144.3619,N,06959.5370,W,2,09,0.94,3.1,M,-34.3,M,0000,0000*53 
112.237         GPS_NMEA_FROM_GPS    iGPS            $GPGGA,185118.000,4144.3619,N,06959.5373,W,2,08,1.06,3.1,M,-34.3,M,0000,0000*54 
113.240         GPS_NMEA_FROM_GPS    iGPS            $GPRMC,185119.000,A,4144.3619,N,06959.5376,W,0.80,270.34,240321,,,D*7C 
114.343         GPS_NMEA_FROM_GPS    iGPS            $GPRMC,185120.000,A,4144.3619,N,06959.5378,W,0.80,270.35,240321,,,D*79 
115.345         GPS_NMEA_FROM_GPS    iGPS            $GPGGA,185121.000,4144.3619,N,06959.5381,W,2,09,1.01,3.1,M,-34.3,M,0000,0000*55 
116.247         GPS_NMEA_FROM_GPS    iGPS            $GPGGA,185122.000,4144.3619,N,06959.5385,W,2,09,0.94,3.1,M,-34.3,M,0000,0000*5F 
117.349         GPS_NMEA_FROM_GPS    iGPS            $GPRMC,185123.000,A,4144.3619,N,06959.5387,W,0.79,270.05,240321,,,D*7F 
118.251         GPS_NMEA_FROM_GPS    iGPS            $GPGGA,185124.000,4144.3618,N,06959.5390,W,2,09,0.94,3.1,M,-34.3,M,0000,0000*5C 
119.354         GPS_NMEA_FROM_GPS    iGPS            $GPGGA,185125.000,4144.3619,N,06959.5393,W,2,10,0.87,3.1,M,-34.3,M,0000,0000*55 
120.356         GPS_NMEA_FROM_GPS    iGPS            $GPGGA,185126.000,4144.3619,N,06959.5396,W,2,10,0.87,3.1,M,-34.3,M,0000,0000*53 
121.258         GPS_NMEA_FROM_GPS    iGPS            $GPGGA,185127.000,4144.3618,N,06959.5398,W,2,10,0.87,3.1,M,-34.3,M,0000,0000*5D 
122.261         GPS_NMEA_FROM_GPS    iGPS            $GPRMC,185128.000,A,4144.3619,N,06959.5401,W,0.78,269.90,240321,,,D*78 
123.263         GPS_NMEA_FROM_GPS    iGPS            $GPGGA,185129.000,4144.3619,N,06959.5404,W,2,09,1.01,3.2,M,-34.3,M,0000,0000*54 
124.265         GPS_NMEA_FROM_GPS    iGPS            $GPGGA,185130.000,4144.3619,N,06959.5407,W,2,10,0.87,3.2,M,-34.3,M,0000,0000*58 
125.267         GPS_NMEA_FROM_GPS    iGPS            $GPGGA,185131.000,4144.3619,N,06959.5410,W,2,10,0.87,3.2,M,-34.3,M,0000,0000*5F 
126.370         GPS_NMEA_FROM_GPS    iGPS            $GPRMC,185132.000,A,4144.3619,N,06959.5413,W,0.77,269.08,240321,,,D*7E 
127.272         GPS_NMEA_FROM_GPS    iGPS            $GPGGA,185133.000,4144.3619,N,06959.5416,W,2,10,0.88,3.2,M,-34.3,M,0000,0000*54 
128.274         GPS_NMEA_FROM_GPS    iGPS            $GPGGA,185134.000,4144.3619,N,06959.5419,W,2,09,1.01,3.2,M,-34.3,M,0000,0000*54 
129.276         GPS_NMEA_FROM_GPS    iGPS            $GPGGA,185135.000,4144.3619,N,06959.5423,W,2,10,0.88,3.2,M,-34.3,M,0000,0000*54 
130.279         GPS_NMEA_FROM_GPS    iGPS            $GPRMC,185136.000,A,4144.3618,N,06959.5426,W,0.77,267.85,240321,,,D*76 
131.280         GPS_NMEA_FROM_GPS    iGPS            $GPGGA,185137.000,4144.3618,N,06959.5429,W,2,09,1.01,3.2,M,-34.3,M,0000,0000*55 
132.182         GPS_NMEA_FROM_GPS    iGPS            $GPGGA,185138.000,4144.3618,N,06959.5432,W,2,09,1.01,3.2,M,-34.3,M,0000,0000*50 
133.285         GPS_NMEA_FROM_GPS    iGPS            $GPGGA,185139.000,4144.3618,N,06959.5435,W,2,10,0.88,3.1,M,-34.3,M,0000,0000*5D 
134.287         GPS_NMEA_FROM_GPS    iGPS            $GPGGA,185140.000,4144.3618,N,06959.5438,W,2,10,0.88,3.1,M,-34.3,M,0000,0000*5E 
135.289         GPS_NMEA_FROM_GPS    iGPS            $GPGGA,185141.000,4144.3618,N,06959.5441,W,2,10,0.88,3.2,M,-34.3,M,0000,0000*52 
136.292         GPS_NMEA_FROM_GPS    iGPS            $GPGGA,185142.000,4144.3618,N,06959.5444,W,2,09,1.01,3.2,M,-34.3,M,0000,0000*5C 
137.294         GPS_NMEA_FROM_GPS    iGPS            $GPGGA,185143.000,4144.3617,N,06959.5447,W,2,10,0.88,3.2,M,-34.3,M,0000,0000*59 
138.297         GPS_NMEA_FROM_GPS    iGPS            $GPGGA,185144.000,4144.3617,N,06959.5450,W,2,10,0.87,3.2,M,-34.3,M,0000,0000*57 
139.300         GPS_NMEA_FROM_GPS    iGPS            $GPGGA,185145.000,4144.3617,N,06959.5453,W,2,09,0.94,3.2,M,-34.3,M,0000,0000*5F 
140.302         GPS_NMEA_FROM_GPS    iGPS            $GPGGA,185146.000,4144.3617,N,06959.5455,W,2,10,0.87,3.2,M,-34.3,M,0000,0000*50 
141.305         GPS_NMEA_FROM_GPS    iGPS            $GPGGA,185147.000,4144.3617,N,06959.5458,W,2,10,0.87,3.2,M,-34.3,M,0000,0000*5C 
142.308         GPS_NMEA_FROM_GPS    iGPS            $GPGGA,185148.000,4144.3617,N,06959.5461,W,2,10,0.88,3.3,M,-34.3,M,0000,0000*57 
143.310         GPS_NMEA_FROM_GPS    iGPS            $GPGGA,185149.000,4144.3616,N,06959.5464,W,2,10,0.88,3.3,M,-34.3,M,0000,0000*52 
144.212         GPS_NMEA_FROM_GPS    iGPS            $GPGGA,185150.000,4144.3616,N,06959.5467,W,2,09,1.01,3.3,M,-34.3,M,0000,0000*51 
145.215         GPS_NMEA_FROM_GPS    iGPS            $GPGGA,185151.000,4144.3616,N,06959.5469,W,2,08,1.06,3.4,M,-34.3,M,0000,0000*5F 
146.218         GPS_NMEA_FROM_GPS    iGPS            $GPGGA,185152.000,4144.3616,N,06959.5472,W,2,09,1.01,3.4,M,-34.3,M,0000,0000*50 
147.320         GPS_NMEA_FROM_GPS    iGPS            $GPGGA,185153.000,4144.3616,N,06959.5475,W,2,09,1.02,3.4,M,-34.3,M,0000,0000*55 
148.323         GPS_NMEA_FROM_GPS    iGPS            $GPRMC,185154.000,A,4144.3616,N,06959.5478,W,0.76,265.77,240321,,,D*79 
149.325         GPS_NMEA_FROM_GPS    iGPS            $GPGGA,185155.000,4144.3616,N,06959.5481,W,2,09,0.94,3.5,M,-34.3,M,0000,0000*57 
150.227         GPS_NMEA_FROM_GPS    iGPS            $GPGGA,185156.000,4144.3616,N,06959.5484,W,2,09,0.94,3.5,M,-34.3,M,0000,0000*51 
151.330         GPS_NMEA_FROM_GPS    iGPS            $GPRMC,185157.000,A,4144.3615,N,06959.5487,W,0.77,264.91,240321,,,D*71 
152.332         GPS_NMEA_FROM_GPS    iGPS            $GPGGA,185158.000,4144.3615,N,06959.5489,W,2,10,0.88,3.5,M,-34.3,M,0000,0000*54 
153.335         GPS_NMEA_FROM_GPS    iGPS            $GPRMC,185159.000,A,4144.3615,N,06959.5492,W,0.79,264.14,240321,,,D*78 
154.337         GPS_NMEA_FROM_GPS    iGPS            $GPGGA,185200.000,4144.3614,N,06959.5495,W,2,10,0.88,3.5,M,-34.3,M,0000,0000*56 
155.339         GPS_NMEA_FROM_GPS    iGPS            $GPGGA,185201.000,4144.3614,N,06959.5498,W,2,10,0.88,3.5,M,-34.3,M,0000,0000*5A 
156.341         GPS_NMEA_FROM_GPS    iGPS            $GPGGA,185202.000,4144.3614,N,06959.5501,W,2,10,0.88,3.5,M,-34.3,M,0000,0000*58 
157.343         GPS_NMEA_FROM_GPS    iGPS            $GPGGA,185203.000,4144.3614,N,06959.5504,W,2,09,0.94,3.5,M,-34.3,M,0000,0000*59 
158.347         GPS_NMEA_FROM_GPS    iGPS            $GPGGA,185204.000,4144.3614,N,06959.5507,W,2,09,0.94,3.5,M,-34.3,M,0000,0000*5D 
159.249         GPS_NMEA_FROM_GPS    iGPS            $GPGGA,185205.000,4144.3614,N,06959.5510,W,2,08,1.06,3.6,M,-34.3,M,0000,0000*52 
160.352         GPS_NMEA_FROM_GPS    iGPS            $GPGGA,185206.000,4144.3614,N,06959.5513,W,2,09,0.94,3.6,M,-34.3,M,0000,0000*59 
161.254         GPS_NMEA_FROM_GPS    iGPS            $GPGGA,185207.000,4144.3613,N,06959.5516,W,2,09,0.94,3.7,M,-34.3,M,0000,0000*5B 
162.256         GPS_NMEA_FROM_GPS    iGPS            $GPGGA,185208.000,4144.3613,N,06959.5519,W,2,09,0.94,3.7,M,-34.3,M,0000,0000*5B 
163.359         GPS_NMEA_FROM_GPS    iGPS            $GPGGA,185209.000,4144.3613,N,06959.5522,W,2,10,0.88,3.8,M,-34.3,M,0000,0000*58 
164.263         GPS_NMEA_FROM_GPS    iGPS            $GPGGA,185210.000,4144.3613,N,06959.5525,W,2,09,1.02,3.8,M,-34.3,M,0000,0000*5C 
165.266         GPS_NMEA_FROM_GPS    iGPS            $GPGGA,185211.000,4144.3612,N,06959.5528,W,2,09,0.94,3.9,M,-34.3,M,0000,0000*5E 
166.269         GPS_NMEA_FROM_GPS    iGPS            $GPGGA,185212.000,4144.3612,N,06959.5531,W,2,09,1.02,3.9,M,-34.3,M,0000,0000*5B 
167.273         GPS_NMEA_FROM_GPS    iGPS            $GPGGA,185213.000,4144.3612,N,06959.5534,W,2,09,0.94,3.9,M,-34.3,M,0000,0000*51 
168.274         GPS_NMEA_FROM_GPS    iGPS            $GPGGA,185214.000,4144.3611,N,06959.5536,W,2,09,0.94,3.9,M,-34.3,M,0000,0000*57 
169.276         GPS_NMEA_FROM_GPS    iGPS            $GPGGA,185215.000,4144.3611,N,06959.5539,W,2,09,0.94,4.0,M,-34.3,M,0000,0000*57 
170.378         GPS_NMEA_FROM_GPS    iGPS            $GPGGA,185216.000,4144.3611,N,06959.5542,W,2,10,0.88,4.0,M,-34.3,M,0000,0000*5D 
171.381         GPS_NMEA_FROM_GPS    iGPS            $GPGGA,185217.000,4144.3611,N,06959.5545,W,2,10,0.88,4.1,M,-34.3,M,0000,0000*5A 
172.282         GPS_NMEA_FROM_GPS    iGPS            $GPGGA,185218.000,4144.3610,N,06959.5548,W,2,10,0.88,4.1,M,-34.3,M,0000,0000*59 
173.384         GPS_NMEA_FROM_GPS    iGPS            $GPGGA,185219.000,4144.3610,N,06959.5551,W,2,10,0.88,4.2,M,-34.3,M,0000,0000*53 
174.287         GPS_NMEA_FROM_GPS    iGPS            $GPGGA,185220.000,4144.3610,N,06959.5554,W,2,10,0.88,4.2,M,-34.3,M,0000,0000*5C 
175.390         GPS_NMEA_FROM_GPS    iGPS            $GPRMC,185221.000,A,4144.3609,N,06959.5557,W,0.78,255.38,240321,,,D*7C 
176.294         GPS_NMEA_FROM_GPS    iGPS            $GPGGA,185222.000,4144.3609,N,06959.5560,W,2,10,0.88,4.3,M,-34.3,M,0000,0000*50 
177.295         GPS_NMEA_FROM_GPS    iGPS            $GPGGA,185223.000,4144.3609,N,06959.5563,W,2,10,0.88,4.3,M,-34.3,M,0000,0000*52 
178.297         GPS_NMEA_FROM_GPS    iGPS            $GPGGA,185224.000,4144.3608,N,06959.5566,W,2,10,0.88,4.3,M,-34.3,M,0000,0000*51 
179.299         GPS_NMEA_FROM_GPS    iGPS            $GPGGA,185225.000,4144.3608,N,06959.5569,W,2,10,0.88,4.4,M,-34.3,M,0000,0000*58 
180.305         GPS_NMEA_FROM_GPS    iGPS            $GPGGA,185226.000,4144.3607,N,06959.5571,W,2,10,0.88,4.4,M,-34.3,M,0000,0000*5D 
181.307         GPS_NMEA_FROM_GPS    iGPS            $GPGGA,185227.000,4144.3607,N,06959.5574,W,2,10,0.88,4.4,M,-34.3,M,0000,0000*59 
182.310         GPS_NMEA_FROM_GPS    iGPS            $GPRMC,185228.000,A,4144.3606,N,06959.5577,W,0.77,253.51,240321,,,D*7E 
183.312         GPS_NMEA_FROM_GPS    iGPS            $GPGGA,185229.000,4144.3605,N,06959.5579,W,2,10,0.88,4.3,M,-34.3,M,0000,0000*5F 
184.315         GPS_NMEA_FROM_GPS    iGPS            $GPGGA,185230.000,4144.3605,N,06959.5582,W,2,09,0.94,4.3,M,-34.3,M,0000,0000*56 
185.319         GPS_NMEA_FROM_GPS    iGPS            $GPRMC,185231.000,A,4144.3604,N,06959.5584,W,0.77,252.10,240321,,,D*7C 
186.322         GPS_NMEA_FROM_GPS    iGPS            $GPGGA,185232.000,4144.3603,N,06959.5587,W,2,10,0.88,4.2,M,-34.3,M,0000,0000*53 
187.225         GPS_NMEA_FROM_GPS    iGPS            $GPGGA,185233.000,4144.3602,N,06959.5589,W,2,09,1.02,4.2,M,-34.3,M,0000,0000*56 
188.227         GPS_NMEA_FROM_GPS    iGPS            $GPGGA,185234.000,4144.3601,N,06959.5591,W,2,09,1.02,4.2,M,-34.3,M,0000,0000*5B 
189.329         GPS_NMEA_FROM_GPS    iGPS            $GPGGA,185235.000,4144.3600,N,06959.5593,W,2,09,1.02,4.2,M,-34.3,M,0000,0000*59 
190.231         GPS_NMEA_FROM_GPS    iGPS            $GPGGA,185236.000,4144.3599,N,06959.5596,W,2,09,1.02,4.2,M,-34.3,M,0000,0000*5C 
191.335         GPS_NMEA_FROM_GPS    iGPS            $GPGGA,185237.000,4144.3598,N,06959.5599,W,2,09,1.02,4.1,M,-34.3,M,0000,0000*50 
192.237         GPS_NMEA_FROM_GPS    iGPS            $GPGGA,185238.000,4144.3597,N,06959.5601,W,2,09,1.02,4.1,M,-34.3,M,0000,0000*52 
193.239         GPS_NMEA_FROM_GPS    iGPS            $GPGGA,185239.000,4144.3596,N,06959.5604,W,2,09,1.02,4.1,M,-34.3,M,0000,0000*57 
194.342         GPS_NMEA_FROM_GPS    iGPS            $GPRMC,185240.000,A,4144.3595,N,06959.5607,W,0.79,247.95,240321,,,D*7E 
195.344         GPS_NMEA_FROM_GPS    iGPS            $GPGGA,185241.000,4144.3594,N,06959.5609,W,2,09,1.02,4.1,M,-34.3,M,0000,0000*57 
196.246         GPS_NMEA_FROM_GPS    iGPS            $GPGGA,185242.000,4144.3593,N,06959.5612,W,2,09,1.02,4.1,M,-34.3,M,0000,0000*59 
197.349         GPS_NMEA_FROM_GPS    iGPS            $GPRMC,185243.000,A,4144.3592,N,06959.5614,W,0.79,247.77,240321,,,D*74 
198.251         GPS_NMEA_FROM_GPS    iGPS            $GPGGA,185244.000,4144.3591,N,06959.5617,W,2,09,1.02,4.1,M,-34.3,M,0000,0000*58 
199.254         GPS_NMEA_FROM_GPS    iGPS            $GPGGA,185245.000,4144.3590,N,06959.5619,W,2,09,1.02,4.0,M,-34.3,M,0000,0000*57 
200.256         GPS_NMEA_FROM_GPS    iGPS            $GPGGA,185246.000,4144.3589,N,06959.5622,W,2,09,1.02,4.0,M,-34.3,M,0000,0000*54 
201.259         GPS_NMEA_FROM_GPS    iGPS            $GPGGA,185247.000,4144.3588,N,06959.5624,W,2,09,1.02,4.0,M,-34.3,M,0000,0000*52 
202.262         GPS_NMEA_FROM_GPS    iGPS            $GPGGA,185248.000,4144.3587,N,06959.5627,W,2,09,1.02,4.0,M,-34.3,M,0000,0000*51 
203.364         GPS_NMEA_FROM_GPS    iGPS            $GPRMC,185249.000,A,4144.3586,N,06959.5629,W,0.79,246.43,240321,,,D*73 
204.266         GPS_NMEA_FROM_GPS    iGPS            $GPGGA,185250.000,4144.3585,N,06959.5632,W,2,09,1.02,4.0,M,-34.3,M,0000,0000*5E 
205.369         GPS_NMEA_FROM_GPS    iGPS            $GPRMC,185251.000,A,4144.3584,N,06959.5635,W,0.76,245.65,240321,,,D*7D 
206.271         GPS_NMEA_FROM_GPS    iGPS            $GPGGA,185252.000,4144.3584,N,06959.5638,W,2,09,1.02,4.2,M,-34.3,M,0000,0000*55 
207.274         GPS_NMEA_FROM_GPS    iGPS            $GPGGA,185253.000,4144.3583,N,06959.5640,W,2,09,1.02,4.2,M,-34.3,M,0000,0000*5C 
208.277         GPS_NMEA_FROM_GPS    iGPS            $GPGGA,185254.000,4144.3582,N,06959.5642,W,2,10,0.88,4.3,M,-34.3,M,0000,0000*52 
209.279         GPS_NMEA_FROM_GPS    iGPS            $GPGGA,185255.000,4144.3582,N,06959.5644,W,2,09,1.02,4.3,M,-34.3,M,0000,0000*5E 
210.284         GPS_NMEA_FROM_GPS    iGPS            $GPGGA,185256.000,4144.3581,N,06959.5647,W,2,09,1.02,4.4,M,-34.3,M,0000,0000*5A 
211.286         GPS_NMEA_FROM_GPS    iGPS            $GPGGA,185257.000,4144.3580,N,06959.5649,W,2,09,1.02,4.4,M,-34.3,M,0000,0000*54 
212.288         GPS_NMEA_FROM_GPS    iGPS            $GPRMC,185258.000,A,4144.3578,N,06959.5650,W,0.68,234.48,240321,,,D*72 
213.290         GPS_NMEA_FROM_GPS    iGPS            $GPGGA,185259.000,4144.3577,N,06959.5652,W,2,09,1.02,4.4,M,-34.3,M,0000,0000*58 
214.192         GPS_NMEA_FROM_GPS    iGPS            $GPGGA,185300.000,4144.3575,N,06959.5654,W,2,08,1.07,4.3,M,-34.3,M,0000,0000*52 
215.295         GPS_NMEA_FROM_GPS    iGPS            $GPGGA,185301.000,4144.3574,N,06959.5656,W,2,08,1.07,4.3,M,-34.3,M,0000,0000*50 
216.198         GPS_NMEA_FROM_GPS    iGPS            $GPGGA,185302.000,4144.3572,N,06959.5657,W,2,08,1.06,4.3,M,-34.3,M,0000,0000*55 
217.301         GPS_NMEA_FROM_GPS    iGPS            $GPGGA,185303.000,4144.3570,N,06959.5659,W,2,09,1.02,4.3,M,-34.3,M,0000,0000*5D 
218.303         GPS_NMEA_FROM_GPS    iGPS            $GPGGA,185304.000,4144.3568,N,06959.5660,W,2,09,1.02,4.3,M,-34.3,M,0000,0000*59 
219.206         GPS_NMEA_FROM_GPS    iGPS            $GPGGA,185305.000,4144.3566,N,06959.5662,W,2,08,1.06,4.3,M,-34.3,M,0000,0000*51 
220.308         GPS_NMEA_FROM_GPS    iGPS            $GPGGA,185306.000,4144.3564,N,06959.5663,W,2,08,1.07,4.3,M,-34.3,M,0000,0000*50 
221.311         GPS_NMEA_FROM_GPS    iGPS            $GPRMC,185307.000,A,4144.3563,N,06959.5665,W,0.78,216.06,240321,,,D*7E 
222.313         GPS_NMEA_FROM_GPS    iGPS            $GPRMC,185308.000,A,4144.3561,N,06959.5667,W,0.80,215.66,240321,,,D*73 
223.215         GPS_NMEA_FROM_GPS    iGPS            $GPGGA,185309.000,4144.3559,N,06959.5668,W,2,08,1.07,4.3,M,-34.3,M,0000,0000*5A 
224.217         GPS_NMEA_FROM_GPS    iGPS            $GPGGA,185310.000,4144.3558,N,06959.5670,W,2,08,1.07,4.3,M,-34.3,M,0000,0000*5A 
225.320         GPS_NMEA_FROM_GPS    iGPS            $GPRMC,185311.000,A,4144.3556,N,06959.5672,W,0.78,215.06,240321,,,D*7A 
226.222         GPS_NMEA_FROM_GPS    iGPS            $GPGGA,185312.000,4144.3554,N,06959.5673,W,2,08,1.07,4.3,M,-34.3,M,0000,0000*57 
227.224         GPS_NMEA_FROM_GPS    iGPS            $GPGGA,185313.000,4144.3552,N,06959.5675,W,2,08,1.07,4.3,M,-34.3,M,0000,0000*56 
228.226         GPS_NMEA_FROM_GPS    iGPS            $GPGGA,185314.000,4144.3551,N,06959.5676,W,2,08,1.06,4.3,M,-34.3,M,0000,0000*50 
229.228         GPS_NMEA_FROM_GPS    iGPS            $GPGGA,185315.000,4144.3549,N,06959.5678,W,2,08,1.07,4.3,M,-34.3,M,0000,0000*57 
230.232         GPS_NMEA_FROM_GPS    iGPS            $GPGGA,185316.000,4144.3547,N,06959.5680,W,2,08,1.07,4.4,M,-34.3,M,0000,0000*5A 
231.234         GPS_NMEA_FROM_GPS    iGPS            $GPGGA,185317.000,4144.3546,N,06959.5682,W,2,08,1.07,4.4,M,-34.3,M,0000,0000*58 
232.237         GPS_NMEA_FROM_GPS    iGPS            $GPGGA,185318.000,4144.3544,N,06959.5683,W,2,08,1.07,4.4,M,-34.3,M,0000,0000*54 
233.241         GPS_NMEA_FROM_GPS    iGPS            $GPGGA,185319.000,4144.3542,N,06959.5685,W,2,08,1.07,4.4,M,-34.3,M,0000,0000*55 
234.243         GPS_NMEA_FROM_GPS    iGPS            $GPGGA,185320.000,4144.3540,N,06959.5686,W,2,08,1.07,4.5,M,-34.3,M,0000,0000*5F 
235.245         GPS_NMEA_FROM_GPS    iGPS            $GPRMC,185321.000,A,4144.3539,N,06959.5688,W,0.76,209.84,240321,,,D*7C 
236.248         GPS_NMEA_FROM_GPS    iGPS            $GPGGA,185322.000,4144.3537,N,06959.5689,W,2,08,1.07,4.4,M,-34.3,M,0000,0000*53 
237.150         GPS_NMEA_FROM_GPS    iGPS            $GPGGA,185323.000,4144.3535,N,06959.5690,W,2,08,1.07,4.4,M,-34.3,M,0000,0000*58 
238.253         GPS_NMEA_FROM_GPS    iGPS            $GPGGA,185324.000,4144.3533,N,06959.5691,W,2,08,1.07,4.4,M,-34.3,M,0000,0000*58 
239.256         GPS_NMEA_FROM_GPS    iGPS            $GPGGA,185325.000,4144.3531,N,06959.5693,W,2,08,1.07,4.4,M,-34.3,M,0000,0000*59 
240.158         GPS_NMEA_FROM_GPS    iGPS            $GPGGA,185326.000,4144.3528,N,06959.5694,W,2,08,1.07,4.4,M,-34.3,M,0000,0000*55 
241.261         GPS_NMEA_FROM_GPS    iGPS            $GPGGA,185327.000,4144.3526,N,06959.5695,W,2,08,1.07,4.4,M,-34.3,M,0000,0000*5B 
242.263         GPS_NMEA_FROM_GPS    iGPS            $GPGGA,185328.000,4144.3524,N,06959.5696,W,2,08,1.07,4.4,M,-34.3,M,0000,0000*55 
243.265         GPS_NMEA_FROM_GPS    iGPS            $GPRMC,185329.000,A,4144.3522,N,06959.5698,W,0.79,202.78,240321,,,D*78 
244.168         GPS_NMEA_FROM_GPS    iGPS            $GPGGA,185330.000,4144.3520,N,06959.5699,W,2,08,1.07,4.4,M,-34.3,M,0000,0000*57 
245.270         GPS_NMEA_FROM_GPS    iGPS            $GPGGA,185331.000,4144.3518,N,06959.5700,W,2,08,1.07,4.4,M,-34.3,M,0000,0000*5C 
246.172         GPS_NMEA_FROM_GPS    iGPS            $GPGGA,185332.000,4144.3516,N,06959.5701,W,2,08,1.07,4.4,M,-34.3,M,0000,0000*50 
247.275         GPS_NMEA_FROM_GPS    iGPS            $GPRMC,185333.000,A,4144.3514,N,06959.5702,W,0.79,201.86,240321,,,D*76 
248.277         GPS_NMEA_FROM_GPS    iGPS            $GPGGA,185334.000,4144.3512,N,06959.5704,W,2,08,1.07,4.4,M,-34.3,M,0000,0000*57 
249.179         GPS_NMEA_FROM_GPS    iGPS            $GPGGA,185335.000,4144.3510,N,06959.5705,W,2,08,1.07,4.5,M,-34.3,M,0000,0000*54 
250.182         GPS_NMEA_FROM_GPS    iGPS            $GPGGA,185336.000,4144.3508,N,06959.5706,W,2,08,1.07,4.5,M,-34.3,M,0000,0000*5D 
251.184         GPS_NMEA_FROM_GPS    iGPS            $GPGGA,185337.000,4144.3507,N,06959.5708,W,2,08,1.07,4.5,M,-34.3,M,0000,0000*5D 
252.186         GPS_NMEA_FROM_GPS    iGPS            $GPGGA,185338.000,4144.3505,N,06959.5709,W,2,08,1.07,4.5,M,-34.3,M,0000,0000*51 
253.189         GPS_NMEA_FROM_GPS    iGPS            $GPGGA,185339.000,4144.3502,N,06959.5710,W,2,08,1.07,4.5,M,-34.3,M,0000,0000*5F 
254.191         GPS_NMEA_FROM_GPS    iGPS            $GPGGA,185340.000,4144.3500,N,06959.5711,W,2,08,1.07,4.5,M,-34.3,M,0000,0000*52 
255.294         GPS_NMEA_FROM_GPS    iGPS            $GPGGA,185341.000,4144.3498,N,06959.5712,W,2,08,1.07,4.6,M,-34.3,M,0000,0000*53 
256.197         GPS_NMEA_FROM_GPS    iGPS            $GPGGA,185342.000,4144.3496,N,06959.5713,W,2,08,1.07,4.6,M,-34.3,M,0000,0000*5F 
257.300         GPS_NMEA_FROM_GPS    iGPS            $GPRMC,185343.000,A,4144.3494,N,06959.5714,W,0.77,200.49,240321,,,D*73 
258.201         GPS_NMEA_FROM_GPS    iGPS            $GPGGA,185344.000,4144.3492,N,06959.5715,W,2,08,1.07,4.6,M,-34.3,M,0000,0000*5B 
259.205         GPS_NMEA_FROM_GPS    iGPS            $GPGGA,185345.000,4144.3489,N,06959.5716,W,2,08,1.07,4.6,M,-34.3,M,0000,0000*53 
260.306         GPS_NMEA_FROM_GPS    iGPS            $GPRMC,185346.000,A,4144.3487,N,06959.5717,W,0.79,199.24,240321,,,D*71 
261.213         GPS_NMEA_FROM_GPS    iGPS            $GPGGA,185347.000,4144.3484,N,06959.5718,W,2,08,1.07,4.6,M,-34.3,M,0000,0000*52 
262.216         GPS_NMEA_FROM_GPS    iGPS            $GPGGA,185348.000,4144.3482,N,06959.5719,W,2,08,1.07,4.6,M,-34.3,M,0000,0000*5A 
263.319         GPS_NMEA_FROM_GPS    iGPS            $GPRMC,185349.000,A,4144.3480,N,06959.5720,W,0.78,198.75,240321,,,D*79 
264.225         GPS_NMEA_FROM_GPS    iGPS            $GPGGA,185350.000,4144.3478,N,06959.5721,W,2,08,1.07,4.6,M,-34.3,M,0000,0000*5D 
265.228         GPS_NMEA_FROM_GPS    iGPS            $GPRMC,185351.000,A,4144.3476,N,06959.5722,W,0.78,199.73,240321,,,D*7C 
266.230         GPS_NMEA_FROM_GPS    iGPS            $GPGGA,185352.000,4144.3474,N,06959.5723,W,2,08,1.07,4.7,M,-34.3,M,0000,0000*50 
267.232         GPS_NMEA_FROM_GPS    iGPS            $GPRMC,185353.000,A,4144.3472,N,06959.5724,W,0.76,200.44,240321,,,D*75 
268.234         GPS_NMEA_FROM_GPS    iGPS            $GPGGA,185354.000,4144.3470,N,06959.5725,W,2,08,1.07,4.6,M,-34.3,M,0000,0000*55 
269.236         GPS_NMEA_FROM_GPS    iGPS            $GPGGA,185355.000,4144.3468,N,06959.5726,W,2,08,1.07,4.6,M,-34.3,M,0000,0000*5E 
270.239         GPS_NMEA_FROM_GPS    iGPS            $GPGGA,185356.000,4144.3466,N,06959.5727,W,2,08,1.07,4.6,M,-34.3,M,0000,0000*52 
271.241         GPS_NMEA_FROM_GPS    iGPS            $GPRMC,185357.000,A,4144.3464,N,06959.5728,W,0.74,201.80,240321,,,D*71 
272.143         GPS_NMEA_FROM_GPS    iGPS            $GPGGA,185358.000,4144.3462,N,06959.5729,W,2,08,1.07,4.5,M,-34.3,M,0000,0000*55 
273.146         GPS_NMEA_FROM_GPS    iGPS            $GPGGA,185359.000,4144.3460,N,06959.5730,W,2,08,1.07,4.5,M,-34.3,M,0000,0000*5E 
274.248         GPS_NMEA_FROM_GPS    iGPS            $GPGGA,185400.000,4144.3458,N,06959.5731,W,2,08,1.07,4.5,M,-34.3,M,0000,0000*5F 
275.250         GPS_NMEA_FROM_GPS    iGPS            $GPGGA,185401.000,4144.3456,N,06959.5732,W,2,08,1.07,4.5,M,-34.3,M,0000,0000*53 
276.253         GPS_NMEA_FROM_GPS    iGPS            $GPGGA,185402.000,4144.3454,N,06959.5732,W,2,08,1.07,4.5,M,-34.3,M,0000,0000*52 
277.257         GPS_NMEA_FROM_GPS    iGPS            $GPGGA,185403.000,4144.3452,N,06959.5733,W,2,08,1.07,4.5,M,-34.3,M,0000,0000*54 
278.260         GPS_NMEA_FROM_GPS    iGPS            $GPGGA,185404.000,4144.3450,N,06959.5733,W,2,08,1.07,4.4,M,-34.3,M,0000,0000*50 
279.262         GPS_NMEA_FROM_GPS    iGPS            $GPGGA,185405.000,4144.3448,N,06959.5733,W,2,09,1.02,4.4,M,-34.3,M,0000,0000*5C 
280.265         GPS_NMEA_FROM_GPS    iGPS            $GPGGA,185406.000,4144.3446,N,06959.5733,W,2,09,1.02,4.4,M,-34.3,M,0000,0000*51 
281.267         GPS_NMEA_FROM_GPS    iGPS            $GPGGA,185407.000,4144.3445,N,06959.5733,W,2,09,1.02,4.5,M,-34.3,M,0000,0000*52 
282.269         GPS_NMEA_FROM_GPS    iGPS            $GPGGA,185408.000,4144.3443,N,06959.5732,W,2,09,1.02,4.4,M,-34.3,M,0000,0000*5B 
283.372         GPS_NMEA_FROM_GPS    iGPS            $GPRMC,185409.000,A,4144.3441,N,06959.5732,W,0.58,174.54,240321,,,D*77 
284.274         GPS_NMEA_FROM_GPS    iGPS            $GPGGA,185410.000,4144.3439,N,06959.5732,W,2,09,1.02,4.5,M,-34.3,M,0000,0000*5E 
285.278         GPS_NMEA_FROM_GPS    iGPS            $GPGGA,185411.000,4144.3437,N,06959.5731,W,2,09,1.02,4.6,M,-34.3,M,0000,0000*51 
286.281         GPS_NMEA_FROM_GPS    iGPS            $GPGGA,185412.000,4144.3435,N,06959.5731,W,2,09,1.02,4.6,M,-34.3,M,0000,0000*50 
287.283         GPS_NMEA_FROM_GPS    iGPS            $GPGGA,185413.000,4144.3434,N,06959.5729,W,2,09,1.02,4.6,M,-34.3,M,0000,0000*59 
288.285         GPS_NMEA_FROM_GPS    iGPS            $GPRMC,185414.000,A,4144.3432,N,06959.5728,W,0.66,149.81,240321,,,D*7F 
289.288         GPS_NMEA_FROM_GPS    iGPS            $GPRMC,185415.000,A,4144.3431,N,06959.5726,W,0.70,146.33,240321,,,D*72 
290.292         GPS_NMEA_FROM_GPS    iGPS            $GPGGA,185416.000,4144.3430,N,06959.5724,W,2,09,1.02,4.6,M,-34.3,M,0000,0000*55 
291.295         GPS_NMEA_FROM_GPS    iGPS            $GPRMC,185417.000,A,4144.3428,N,06959.5721,W,0.66,140.40,240321,,,D*7A 
292.297         GPS_NMEA_FROM_GPS    iGPS            $GPGGA,185418.000,4144.3427,N,06959.5719,W,2,08,1.07,4.6,M,-34.3,M,0000,0000*57 
293.300         GPS_NMEA_FROM_GPS    iGPS            $GPGGA,185419.000,4144.3425,N,06959.5717,W,2,09,1.02,4.6,M,-34.3,M,0000,0000*5E 
294.303         GPS_NMEA_FROM_GPS    iGPS            $GPRMC,185420.000,A,4144.3424,N,06959.5714,W,0.69,134.71,240321,,,D*7A 
295.305         GPS_NMEA_FROM_GPS    iGPS            $GPRMC,185421.000,A,4144.3422,N,06959.5712,W,0.72,133.40,240321,,,D*74 
296.207         GPS_NMEA_FROM_GPS    iGPS            $GPGGA,185422.000,4144.3421,N,06959.5710,W,2,08,1.07,4.5,M,-34.3,M,0000,0000*52 
297.311         GPS_NMEA_FROM_GPS    iGPS            $GPGGA,185423.000,4144.3420,N,06959.5708,W,2,09,1.02,4.5,M,-34.3,M,0000,0000*5F 
298.213         GPS_NMEA_FROM_GPS    iGPS            $GPGGA,185424.000,4144.3418,N,06959.5705,W,2,09,1.02,4.5,M,-34.3,M,0000,0000*5E 
299.315         GPS_NMEA_FROM_GPS    iGPS            $GPRMC,185425.000,A,4144.3417,N,06959.5703,W,0.73,130.15,240321,,,D*74 
300.218         GPS_NMEA_FROM_GPS    iGPS            $GPGGA,185426.000,4144.3416,N,06959.5700,W,2,08,1.07,4.4,M,-34.3,M,0000,0000*52 
301.220         GPS_NMEA_FROM_GPS    iGPS            $GPGGA,185427.000,4144.3414,N,06959.5698,W,2,08,1.07,4.4,M,-34.3,M,0000,0000*51 
302.222         GPS_NMEA_FROM_GPS    iGPS            $GPGGA,185428.000,4144.3413,N,06959.5695,W,2,08,1.07,4.4,M,-34.3,M,0000,0000*54 
303.224         GPS_NMEA_FROM_GPS    iGPS            $GPGGA,185429.000,4144.3411,N,06959.5693,W,2,08,1.07,4.4,M,-34.3,M,0000,0000*51 
304.226         GPS_NMEA_FROM_GPS    iGPS            $GPGGA,185430.000,4144.3410,N,06959.5690,W,2,08,1.07,4.4,M,-34.3,M,0000,0000*5B 
305.229         GPS_NMEA_FROM_GPS    iGPS            $GPGGA,185431.000,4144.3408,N,06959.5688,W,2,08,1.07,4.4,M,-34.3,M,0000,0000*5A 
306.332         GPS_NMEA_FROM_GPS    iGPS            $GPRMC,185432.000,A,4144.3407,N,06959.5686,W,0.74,126.02,240321,,,D*79 
307.234         GPS_NMEA_FROM_GPS    iGPS            $GPGGA,185433.000,4144.3405,N,06959.5683,W,2,08,1.07,4.4,M,-34.3,M,0000,0000*5E 
308.239         GPS_NMEA_FROM_GPS    iGPS            $GPGGA,185434.000,4144.3404,N,06959.5680,W,2,08,1.07,4.4,M,-34.3,M,0000,0000*5B 
309.241         GPS_NMEA_FROM_GPS    iGPS            $GPGGA,185435.000,4144.3403,N,06959.5678,W,2,08,1.07,4.4,M,-34.3,M,0000,0000*5A 
310.243         GPS_NMEA_FROM_GPS    iGPS            $GPGGA,185436.000,4144.3402,N,06959.5675,W,2,08,1.07,4.5,M,-34.3,M,0000,0000*54 
311.245         GPS_NMEA_FROM_GPS    iGPS            $GPGGA,185437.000,4144.3401,N,06959.5673,W,2,08,1.07,4.5,M,-34.3,M,0000,0000*50 
312.249         GPS_NMEA_FROM_GPS    iGPS            $GPGGA,185438.000,4144.3400,N,06959.5671,W,2,08,1.07,4.5,M,-34.3,M,0000,0000*5C 
313.152         GPS_NMEA_FROM_GPS    iGPS            $GPGGA,185439.000,4144.3399,N,06959.5668,W,2,08,1.07,4.6,M,-34.3,M,0000,0000*51 
314.254         GPS_NMEA_FROM_GPS    iGPS            $GPRMC,185440.000,A,4144.3398,N,06959.5666,W,0.77,115.38,240321,,,D*79 
315.256         GPS_NMEA_FROM_GPS    iGPS            $GPGGA,185441.000,4144.3397,N,06959.5663,W,2,08,1.07,4.6,M,-34.3,M,0000,0000*5B 
316.258         GPS_NMEA_FROM_GPS    iGPS            $GPGGA,185442.000,4144.3396,N,06959.5661,W,2,09,1.02,4.6,M,-34.3,M,0000,0000*5F 
317.161         GPS_NMEA_FROM_GPS    iGPS            $GPGGA,185443.000,4144.3395,N,06959.5659,W,2,08,1.07,4.7,M,-34.3,M,0000,0000*53 
318.263         GPS_NMEA_FROM_GPS    iGPS            $GPGGA,185444.000,4144.3394,N,06959.5656,W,2,08,1.07,4.7,M,-34.3,M,0000,0000*5A 
319.265         GPS_NMEA_FROM_GPS    iGPS            $GPGGA,185445.000,4144.3393,N,06959.5654,W,2,08,1.07,4.7,M,-34.3,M,0000,0000*5E 
320.167         GPS_NMEA_FROM_GPS    iGPS            $GPGGA,185446.000,4144.3392,N,06959.5651,W,2,08,1.07,4.8,M,-34.3,M,0000,0000*56 
321.270         GPS_NMEA_FROM_GPS    iGPS            $GPRMC,185447.000,A,4144.3391,N,06959.5649,W,0.77,113.78,240321,,,D*78 
322.172         GPS_NMEA_FROM_GPS    iGPS            $GPGGA,185448.000,4144.3390,N,06959.5646,W,2,08,1.07,4.8,M,-34.3,M,0000,0000*5C 
323.375         GPS_NMEA_FROM_GPS    iGPS            $GPRMC,185449.000,A,4144.3389,N,06959.5643,W,0.76,114.66,240321,,,D*7C 
324.277         GPS_NMEA_FROM_GPS    iGPS            $GPGGA,185450.000,4144.3388,N,06959.5641,W,2,09,1.02,4.9,M,-34.3,M,0000,0000*5E 
325.281         GPS_NMEA_FROM_GPS    iGPS            $GPRMC,185451.000,A,4144.3386,N,06959.5638,W,0.77,115.00,240321,,,D*76 
326.181         GPS_NMEA_FROM_GPS    iGPS            $GPGGA,185452.000,4144.3385,N,06959.5635,W,2,08,1.07,4.9,M,-34.3,M,0000,0000*56 
327.284         GPS_NMEA_FROM_GPS    iGPS            $GPRMC,185453.000,A,4144.3384,N,06959.5632,W,0.73,115.54,240321,,,D*79 
328.286         GPS_NMEA_FROM_GPS    iGPS            $GPRMC,185454.000,A,4144.3383,N,06959.5630,W,0.72,115.33,240321,,,D*7B 
329.288         GPS_NMEA_FROM_GPS    iGPS            $GPGGA,185455.000,4144.3382,N,06959.5627,W,2,08,1.07,5.0,M,-34.3,M,0000,0000*5D 
330.290         GPS_NMEA_FROM_GPS    iGPS            $GPGGA,185456.000,4144.3381,N,06959.5625,W,2,08,1.07,5.0,M,-34.3,M,0000,0000*5F 
331.293         GPS_NMEA_FROM_GPS    iGPS            $GPRMC,185457.000,A,4144.3381,N,06959.5622,W,0.72,113.65,240321,,,D*7C 
332.295         GPS_NMEA_FROM_GPS    iGPS            $GPRMC,185458.000,A,4144.3380,N,06959.5620,W,0.72,112.34,240321,,,D*75 
333.298         GPS_NMEA_FROM_GPS    iGPS            $GPRMC,185459.000,A,4144.3380,N,06959.5617,W,0.70,110.82,240321,,,D*7D 
334.200         GPS_NMEA_FROM_GPS    iGPS            $GPGGA,185500.000,4144.3379,N,06959.5615,W,2,08,1.07,5.0,M,-34.3,M,0000,0000*59 
335.202         GPS_NMEA_FROM_GPS    iGPS            $GPGGA,185501.000,4144.3379,N,06959.5612,W,2,08,1.07,5.0,M,-34.3,M,0000,0000*5F 
336.204         GPS_NMEA_FROM_GPS    iGPS            $GPGGA,185502.000,4144.3378,N,06959.5609,W,2,08,1.07,5.0,M,-34.3,M,0000,0000*57 
337.207         GPS_NMEA_FROM_GPS    iGPS            $GPGGA,185503.000,4144.3378,N,06959.5607,W,2,08,1.07,4.9,M,-34.3,M,0000,0000*50 
338.209         GPS_NMEA_FROM_GPS    iGPS            $GPGGA,185504.000,4144.3377,N,06959.5604,W,2,08,1.07,4.9,M,-34.3,M,0000,0000*5B 
339.216         GPS_NMEA_FROM_GPS    iGPS            $GPGGA,185505.000,4144.3376,N,06959.5602,W,2,08,1.07,4.9,M,-34.3,M,0000,0000*5D 
340.218         GPS_NMEA_FROM_GPS    iGPS            $GPGGA,185506.000,4144.3376,N,06959.5599,W,2,08,1.07,4.9,M,-34.3,M,0000,0000*5F 
341.220         GPS_NMEA_FROM_GPS    iGPS            $GPGGA,185507.000,4144.3375,N,06959.5597,W,2,08,1.07,4.9,M,-34.3,M,0000,0000*53 
342.223         GPS_NMEA_FROM_GPS    iGPS            $GPGGA,185508.000,4144.3375,N,06959.5594,W,2,08,1.07,4.9,M,-34.3,M,0000,0000*5F 
343.225         GPS_NMEA_FROM_GPS    iGPS            $GPGGA,185509.000,4144.3374,N,06959.5592,W,2,08,1.07,4.9,M,-34.3,M,0000,0000*59 
344.328         GPS_NMEA_FROM_GPS    iGPS            $GPRMC,185510.000,A,4144.3374,N,06959.5589,W,0.75,99.67,240321,,,D*40 
345.230         GPS_NMEA_FROM_GPS    iGPS            $GPGGA,185511.000,4144.3373,N,06959.5586,W,2,08,1.07,4.9,M,-34.3,M,0000,0000*52 
346.232         GPS_NMEA_FROM_GPS    iGPS            $GPGGA,185512.000,4144.3373,N,06959.5584,W,2,08,1.07,5.0,M,-34.3,M,0000,0000*5B 
347.335         GPS_NMEA_FROM_GPS    iGPS            $GPGGA,185513.000,4144.3373,N,06959.5581,W,2,08,1.07,5.0,M,-34.3,M,0000,0000*5F 
348.238         GPS_NMEA_FROM_GPS    iGPS            $GPGGA,185514.000,4144.3372,N,06959.5578,W,2,08,1.07,5.0,M,-34.3,M,0000,0000*5F 
349.341         GPS_NMEA_FROM_GPS    iGPS            $GPGGA,185515.000,4144.3372,N,06959.5576,W,2,08,1.07,5.0,M,-34.3,M,0000,0000*50 
350.243         GPS_NMEA_FROM_GPS    iGPS            $GPRMC,185516.000,A,4144.3372,N,06959.5573,W,0.73,96.96,240321,,,D*42 
351.246         GPS_NMEA_FROM_GPS    iGPS            $GPGGA,185517.000,4144.3371,N,06959.5570,W,2,08,1.07,5.0,M,-34.3,M,0000,0000*57 
352.248         GPS_NMEA_FROM_GPS    iGPS            $GPGGA,185518.000,4144.3371,N,06959.5568,W,2,08,1.07,5.0,M,-34.3,M,0000,0000*51 
353.353         GPS_NMEA_FROM_GPS    iGPS            $GPGGA,185519.000,4144.3371,N,06959.5565,W,2,08,1.07,5.0,M,-34.3,M,0000,0000*5D 
354.255         GPS_NMEA_FROM_GPS    iGPS            $GPGGA,185520.000,4144.3370,N,06959.5562,W,2,08,1.07,5.0,M,-34.3,M,0000,0000*51 
355.358         GPS_NMEA_FROM_GPS    iGPS            $GPGGA,185521.000,4144.3370,N,06959.5559,W,2,08,1.07,5.0,M,-34.3,M,0000,0000*58 
356.260         GPS_NMEA_FROM_GPS    iGPS            $GPGGA,185522.000,4144.3369,N,06959.5555,W,2,08,1.07,5.0,M,-34.3,M,0000,0000*5F 
357.263         GPS_NMEA_FROM_GPS    iGPS            $GPGGA,185523.000,4144.3369,N,06959.5552,W,2,08,1.07,5.0,M,-34.3,M,0000,0000*59 
358.265         GPS_NMEA_FROM_GPS    iGPS            $GPRMC,185524.000,A,4144.3369,N,06959.5549,W,0.75,92.38,240321,,,D*46 
359.167         GPS_NMEA_FROM_GPS    iGPS            $GPGGA,185525.000,4144.3368,N,06959.5545,W,2,08,1.07,5.1,M,-34.3,M,0000,0000*59 
360.169         GPS_NMEA_FROM_GPS    iGPS            $GPGGA,185526.000,4144.3368,N,06959.5541,W,2,08,1.07,5.1,M,-34.3,M,0000,0000*5E 
361.171         GPS_NMEA_FROM_GPS    iGPS            $GPGGA,185527.000,4144.3368,N,06959.5538,W,2,08,1.07,5.1,M,-34.3,M,0000,0000*51 
362.174         GPS_NMEA_FROM_GPS    iGPS            $GPGGA,185528.000,4144.3367,N,06959.5534,W,2,08,1.07,5.1,M,-34.3,M,0000,0000*5D 
363.276         GPS_NMEA_FROM_GPS    iGPS            $GPGGA,185529.000,4144.3367,N,06959.5531,W,2,08,1.07,5.1,M,-34.3,M,0000,0000*59 
364.178         GPS_NMEA_FROM_GPS    iGPS            $GPGGA,185530.000,4144.3367,N,06959.5527,W,2,08,1.07,5.1,M,-34.3,M,0000,0000*56 
365.281         GPS_NMEA_FROM_GPS    iGPS            $GPGGA,185531.000,4144.3367,N,06959.5523,W,2,08,1.07,5.1,M,-34.3,M,0000,0000*53 
366.384         GPS_NMEA_FROM_GPS    iGPS            $GPGGA,185532.000,4144.3367,N,06959.5520,W,2,09,0.94,5.2,M,-34.3,M,0000,0000*5A 
367.286         GPS_NMEA_FROM_GPS    iGPS            $GPRMC,185533.000,A,4144.3367,N,06959.5516,W,0.77,87.64,240321,,,D*4B 
368.189         GPS_NMEA_FROM_GPS    iGPS            $GPGGA,185534.000,4144.3367,N,06959.5513,W,2,08,1.07,5.1,M,-34.3,M,0000,0000*55 
369.291         GPS_NMEA_FROM_GPS    iGPS            $GPGGA,185535.000,4144.3367,N,06959.5509,W,2,08,1.07,5.1,M,-34.3,M,0000,0000*5F 
370.294         GPS_NMEA_FROM_GPS    iGPS            $GPRMC,185536.000,A,4144.3366,N,06959.5506,W,0.77,87.74,240321,,,D*4F 
371.194         GPS_NMEA_FROM_GPS    iGPS            $GPGGA,185537.000,4144.3366,N,06959.5502,W,2,08,1.07,5.2,M,-34.3,M,0000,0000*54 
372.297         GPS_NMEA_FROM_GPS    iGPS            $GPGGA,185538.000,4144.3366,N,06959.5499,W,2,08,1.07,5.2,M,-34.3,M,0000,0000*58 
373.199         GPS_NMEA_FROM_GPS    iGPS            $GPGGA,185539.000,4144.3366,N,06959.5495,W,2,08,1.07,5.2,M,-34.3,M,0000,0000*55 
374.302         GPS_NMEA_FROM_GPS    iGPS            $GPRMC,185540.000,A,4144.3366,N,06959.5492,W,0.75,88.01,240321,,,D*4D 
375.304         GPS_NMEA_FROM_GPS    iGPS            $GPRMC,185541.000,A,4144.3366,N,06959.5489,W,0.75,88.04,240321,,,D*43 
376.306         GPS_NMEA_FROM_GPS    iGPS            $GPRMC,185542.000,A,4144.3366,N,06959.5485,W,0.76,87.35,240321,,,D*42 
377.308         GPS_NMEA_FROM_GPS    iGPS            $GPRMC,185543.000,A,4144.3366,N,06959.5482,W,0.75,87.24,240321,,,D*47 
378.210         GPS_NMEA_FROM_GPS    iGPS            $GPGGA,185544.000,4144.3366,N,06959.5478,W,2,08,1.07,5.3,M,-34.3,M,0000,0000*5D 
379.213         GPS_NMEA_FROM_GPS    iGPS            $GPGGA,185545.000,4144.3366,N,06959.5474,W,2,08,1.07,5.3,M,-34.3,M,0000,0000*50 
380.215         GPS_NMEA_FROM_GPS    iGPS            $GPGGA,185546.000,4144.3366,N,06959.5471,W,2,08,1.07,5.3,M,-34.3,M,0000,0000*56 
381.218         GPS_NMEA_FROM_GPS    iGPS            $GPGGA,185547.000,4144.3366,N,06959.5467,W,2,08,1.07,5.4,M,-34.3,M,0000,0000*57 
382.220         GPS_NMEA_FROM_GPS    iGPS            $GPGGA,185548.000,4144.3366,N,06959.5463,W,2,08,1.07,5.4,M,-34.3,M,0000,0000*5C 
383.223         GPS_NMEA_FROM_GPS    iGPS            $GPGGA,185549.000,4144.3366,N,06959.5460,W,2,08,1.07,5.4,M,-34.3,M,0000,0000*5E 
384.325         GPS_NMEA_FROM_GPS    iGPS            $GPGGA,185550.000,4144.3367,N,06959.5456,W,2,08,1.07,5.4,M,-34.3,M,0000,0000*52 
385.327         GPS_NMEA_FROM_GPS    iGPS            $GPGGA,185551.000,4144.3367,N,06959.5453,W,2,08,1.07,5.4,M,-34.3,M,0000,0000*56 
386.329         GPS_NMEA_FROM_GPS    iGPS            $GPGGA,185552.000,4144.3367,N,06959.5449,W,2,08,1.07,5.5,M,-34.3,M,0000,0000*5F 
387.432         GPS_NMEA_FROM_GPS    iGPS            $GPRMC,185553.000,A,4144.3367,N,06959.5446,W,0.77,85.45,240321,,,D*48 
388.434         GPS_NMEA_FROM_GPS    iGPS            $GPRMC,185554.000,A,4144.3367,N,06959.5442,W,0.76,85.70,240321,,,D*4C 
389.336         GPS_NMEA_FROM_GPS    iGPS            $GPGGA,185555.000,4144.3367,N,06959.5439,W,2,08,1.07,5.5,M,-34.3,M,0000,0000*5F 
390.338         GPS_NMEA_FROM_GPS    iGPS            $GPGGA,185556.000,4144.3367,N,06959.5436,W,2,08,1.07,5.5,M,-34.3,M,0000,0000*53 
391.341         GPS_NMEA_FROM_GPS    iGPS            $GPGGA,185557.000,4144.3367,N,06959.5432,W,2,08,1.07,5.5,M,-34.3,M,0000,0000*56 
392.343         GPS_NMEA_FROM_GPS    iGPS            $GPGGA,185558.000,4144.3367,N,06959.5429,W,2,08,1.07,5.5,M,-34.3,M,0000,0000*53 
393.445         GPS_NMEA_FROM_GPS    iGPS            $GPGGA,185559.000,4144.3367,N,06959.5426,W,2,09,1.02,5.5,M,-34.3,M,0000,0000*59 
394.348         GPS_NMEA_FROM_GPS    iGPS            $GPGGA,185600.000,4144.3367,N,06959.5423,W,2,09,1.02,5.5,M,-34.3,M,0000,0000*53 
395.451         GPS_NMEA_FROM_GPS    iGPS            $GPGGA,185601.000,4144.3367,N,06959.5419,W,2,09,1.02,5.5,M,-34.3,M,0000,0000*5B 
396.353         GPS_NMEA_FROM_GPS    iGPS            $GPGGA,185602.000,4144.3367,N,06959.5416,W,2,08,1.07,5.5,M,-34.3,M,0000,0000*53 
397.356         GPS_NMEA_FROM_GPS    iGPS            $GPGGA,185603.000,4144.3367,N,06959.5413,W,2,09,1.02,5.6,M,-34.3,M,0000,0000*50 
398.458         GPS_NMEA_FROM_GPS    iGPS            $GPRMC,185604.000,A,4144.3366,N,06959.5410,W,0.72,88.14,240321,,,D*47 
399.360         GPS_NMEA_FROM_GPS    iGPS            $GPGGA,185605.000,4144.3366,N,06959.5407,W,2,09,1.02,5.6,M,-34.3,M,0000,0000*52 
400.362         GPS_NMEA_FROM_GPS    iGPS            $GPRMC,185606.000,A,4144.3366,N,06959.5404,W,0.72,87.81,240321,,,D*43 
401.364         GPS_NMEA_FROM_GPS    iGPS            $GPGGA,185607.000,4144.3366,N,06959.5401,W,2,09,1.02,5.7,M,-34.3,M,0000,0000*57 
402.367         GPS_NMEA_FROM_GPS    iGPS            $GPGGA,185608.000,4144.3366,N,06959.5398,W,2,09,1.02,5.7,M,-34.3,M,0000,0000*5F 
403.369         GPS_NMEA_FROM_GPS    iGPS            $GPGGA,185609.000,4144.3366,N,06959.5394,W,2,09,1.02,5.6,M,-34.3,M,0000,0000*53 
404.371         GPS_NMEA_FROM_GPS    iGPS            $GPGGA,185610.000,4144.3366,N,06959.5391,W,2,09,1.02,5.7,M,-34.3,M,0000,0000*5F 
405.474         GPS_NMEA_FROM_GPS    iGPS            $GPGGA,185611.000,4144.3366,N,06959.5388,W,2,09,1.02,5.7,M,-34.3,M,0000,0000*56 
406.477         GPS_NMEA_FROM_GPS    iGPS            $GPRMC,185612.000,A,4144.3367,N,06959.5385,W,0.75,85.45,240321,,,D*44 
407.479         GPS_NMEA_FROM_GPS    iGPS            $GPGGA,185613.000,4144.3367,N,06959.5382,W,2,09,1.02,5.7,M,-34.3,M,0000,0000*5F 
408.481         GPS_NMEA_FROM_GPS    iGPS            $GPGGA,185614.000,4144.3367,N,06959.5379,W,2,09,1.02,5.7,M,-34.3,M,0000,0000*5C 
409.484         GPS_NMEA_FROM_GPS    iGPS            $GPGGA,185615.000,4144.3367,N,06959.5376,W,2,09,1.02,5.7,M,-34.3,M,0000,0000*52 
410.387         GPS_NMEA_FROM_GPS    iGPS            $GPGGA,185616.000,4144.3368,N,06959.5373,W,2,09,1.02,5.8,M,-34.3,M,0000,0000*54 
411.489         GPS_NMEA_FROM_GPS    iGPS            $GPGGA,185617.000,4144.3368,N,06959.5370,W,2,09,1.02,5.8,M,-34.3,M,0000,0000*56 
412.391         GPS_NMEA_FROM_GPS    iGPS            $GPRMC,185618.000,A,4144.3368,N,06959.5366,W,0.76,83.59,240321,,,D*44 
413.293         GPS_NMEA_FROM_GPS    iGPS            $GPGGA,185619.000,4144.3369,N,06959.5363,W,2,08,1.07,5.8,M,-34.3,M,0000,0000*5F 
414.396         GPS_NMEA_FROM_GPS    iGPS            $GPRMC,185620.000,A,4144.3369,N,06959.5360,W,0.76,82.77,240321,,,D*45 
415.297         GPS_NMEA_FROM_GPS    iGPS            $GPGGA,185621.000,4144.3370,N,06959.5357,W,2,09,1.02,5.8,M,-34.3,M,0000,0000*5F 
416.300         GPS_NMEA_FROM_GPS    iGPS            $GPGGA,185622.000,4144.3370,N,06959.5355,W,2,08,1.07,5.8,M,-34.3,M,0000,0000*5A 
417.402         GPS_NMEA_FROM_GPS    iGPS            $GPGGA,185623.000,4144.3371,N,06959.5352,W,2,08,1.07,5.8,M,-34.3,M,0000,0000*5D 
418.405         GPS_NMEA_FROM_GPS    iGPS            $GPGGA,185624.000,4144.3372,N,06959.5349,W,2,08,1.07,5.8,M,-34.3,M,0000,0000*53 
419.308         GPS_NMEA_FROM_GPS    iGPS            $GPGGA,185625.000,4144.3373,N,06959.5346,W,2,08,1.07,5.7,M,-34.3,M,0000,0000*53 
420.310         GPS_NMEA_FROM_GPS    iGPS            $GPGGA,185626.000,4144.3374,N,06959.5344,W,2,08,1.07,5.8,M,-34.3,M,0000,0000*5A 
421.413         GPS_NMEA_FROM_GPS    iGPS            $GPRMC,185627.000,A,4144.3375,N,06959.5341,W,0.78,77.76,240321,,,D*49 
422.315         GPS_NMEA_FROM_GPS    iGPS            $GPGGA,185628.000,4144.3376,N,06959.5339,W,2,08,1.07,5.8,M,-34.3,M,0000,0000*5C 
423.317         GPS_NMEA_FROM_GPS    iGPS            $GPGGA,185629.000,4144.3376,N,06959.5336,W,2,08,1.07,5.8,M,-34.3,M,0000,0000*52 
424.219         GPS_NMEA_FROM_GPS    iGPS            $GPGGA,185630.000,4144.3377,N,06959.5333,W,2,08,1.07,5.8,M,-34.3,M,0000,0000*5E 
425.422         GPS_NMEA_FROM_GPS    iGPS            $GPRMC,185631.000,A,4144.3378,N,06959.5331,W,0.76,78.15,240321,,,D*40 
426.324         GPS_NMEA_FROM_GPS    iGPS            $GPGGA,185632.000,4144.3378,N,06959.5328,W,2,09,1.03,5.9,M,-34.3,M,0000,0000*5D 
427.431         GPS_NMEA_FROM_GPS    iGPS            $GPRMC,185633.000,A,4144.3379,N,06959.5326,W,0.76,78.97,240321,,,D*4F 
428.332         GPS_NMEA_FROM_GPS    iGPS            $GPGGA,185634.000,4144.3379,N,06959.5323,W,2,08,1.07,5.8,M,-34.3,M,0000,0000*55 
429.338         GPS_NMEA_FROM_GPS    iGPS            $GPGGA,185635.000,4144.3380,N,06959.5320,W,2,08,1.07,5.8,M,-34.3,M,0000,0000*51 
430.340         GPS_NMEA_FROM_GPS    iGPS            $GPGGA,185636.000,4144.3381,N,06959.5317,W,2,08,1.07,5.8,M,-34.3,M,0000,0000*57 
431.443         GPS_NMEA_FROM_GPS    iGPS            $GPGGA,185637.000,4144.3381,N,06959.5315,W,2,09,1.03,5.8,M,-34.3,M,0000,0000*51 
432.345         GPS_NMEA_FROM_GPS    iGPS            $GPGGA,185638.000,4144.3382,N,06959.5312,W,2,08,1.07,5.7,M,-34.3,M,0000,0000*50 
433.347         GPS_NMEA_FROM_GPS    iGPS            $GPGGA,185639.000,4144.3382,N,06959.5309,W,2,08,1.07,5.6,M,-34.3,M,0000,0000*5A 
434.349         GPS_NMEA_FROM_GPS    iGPS            $GPGGA,185640.000,4144.3383,N,06959.5306,W,2,08,1.07,5.5,M,-34.3,M,0000,0000*59 
435.352         GPS_NMEA_FROM_GPS    iGPS            $GPGGA,185641.000,4144.3383,N,06959.5303,W,2,08,1.07,5.4,M,-34.3,M,0000,0000*5C 
436.354         GPS_NMEA_FROM_GPS    iGPS            $GPGGA,185642.000,4144.3384,N,06959.5300,W,2,08,1.07,5.4,M,-34.3,M,0000,0000*5B 
437.358         GPS_NMEA_FROM_GPS    iGPS            $GPGGA,185643.000,4144.3385,N,06959.5296,W,2,08,1.07,5.3,M,-34.3,M,0000,0000*52 
438.359         GPS_NMEA_FROM_GPS    iGPS            $GPGGA,185644.000,4144.3386,N,06959.5293,W,2,08,1.07,5.3,M,-34.3,M,0000,0000*53 
439.362         GPS_NMEA_FROM_GPS    iGPS            $GPGGA,185645.000,4144.3387,N,06959.5290,W,2,08,1.07,5.3,M,-34.3,M,0000,0000*50 
440.369         GPS_NMEA_FROM_GPS    iGPS            $GPRMC,185646.000,A,4144.3388,N,06959.5288,W,0.73,75.11,240321,,,D*40 
441.271         GPS_NMEA_FROM_GPS    iGPS            $GPGGA,185647.000,4144.3389,N,06959.5285,W,2,09,0.95,5.3,M,-34.3,M,0000,0000*53 
442.374         GPS_NMEA_FROM_GPS    iGPS            $GPRMC,185648.000,A,4144.3390,N,06959.5282,W,0.75,73.30,240321,,,D*4E 
443.377         GPS_NMEA_FROM_GPS    iGPS            $GPGGA,185649.000,4144.3391,N,06959.5279,W,2,09,0.95,5.3,M,-34.3,M,0000,0000*57 
444.379         GPS_NMEA_FROM_GPS    iGPS            $GPRMC,185650.000,A,4144.3392,N,06959.5277,W,0.77,72.05,240321,,,D*4A 
445.381         GPS_NMEA_FROM_GPS    iGPS            $GPGGA,185651.000,4144.3393,N,06959.5274,W,2,09,0.95,5.3,M,-34.3,M,0000,0000*51 
446.384         GPS_NMEA_FROM_GPS    iGPS            $GPRMC,185652.000,A,4144.3394,N,06959.5272,W,0.76,72.19,240321,,,D*47 
447.387         GPS_NMEA_FROM_GPS    iGPS            $GPRMC,185653.000,A,4144.3395,N,06959.5269,W,0.78,72.30,240321,,,D*48 
448.389         GPS_NMEA_FROM_GPS    iGPS            $GPRMC,185654.000,A,4144.3396,N,06959.5267,W,0.78,73.23,240321,,,D*41 
