1.765           GPS_NMEA_FROM_GPS    iGPS            $GPGGA,195725.000,4144.3507,N,06959.5930,W,2,10,0.95,13.6,M,-34.3,M,0000,0000*68 
2.867           GPS_NMEA_FROM_GPS    iGPS            $GPRMC,195726.000,A,4144.3507,N,06959.5930,W,0.02,283.23,210321,,,D*76 
2.867           GPS_NMEA_FROM_GPS    iGPS            $GPRMC,195726.000,A,4144.3507,N,06959.5930,W,0.02,283.23,210321,,,D*76 
3.769           GPS_NMEA_FROM_GPS    iGPS            $GPGGA,195727.000,4144.3507,N,06959.5930,W,2,09,1.03,13.6,M,-34.3,M,0000,0000*6C 
4.771           GPS_NMEA_FROM_GPS    iGPS            $GPGGA,195728.000,4144.3507,N,06959.5930,W,2,09,1.03,13.6,M,-34.3,M,0000,0000*63 
5.774           GPS_NMEA_FROM_GPS    iGPS            $GPGGA,195729.000,4144.3507,N,06959.5930,W,2,10,0.95,13.6,M,-34.3,M,0000,0000*64 
6.876           GPS_NMEA_FROM_GPS    iGPS            $GPRMC,195730.000,A,4144.3507,N,06959.5930,W,0.00,236.26,210321,,,D*78 
7.879           GPS_NMEA_FROM_GPS    iGPS            $GPRMC,195731.000,A,4144.3507,N,06959.5930,W,0.01,158.74,210321,,,D*74 
8.781           GPS_NMEA_FROM_GPS    iGPS            $GPGGA,195732.000,4144.3507,N,06959.5930,W,2,09,1.03,13.6,M,-34.3,M,0000,0000*68 
9.783           GPS_NMEA_FROM_GPS    iGPS            $GPGGA,195733.000,4144.3507,N,06959.5930,W,2,09,1.03,13.6,M,-34.3,M,0000,0000*69 
10.785          GPS_NMEA_FROM_GPS    iGPS            $GPGGA,195734.000,4144.3507,N,06959.5930,W,2,09,1.03,13.6,M,-34.3,M,0000,0000*6E 
11.788          GPS_NMEA_FROM_GPS    iGPS            $GPGGA,195735.000,4144.3507,N,06959.5930,W,2,09,1.03,13.6,M,-34.3,M,0000,0000*6F 
11.788          GPS_NMEA_FROM_GPS    iGPS            $GPGGA,195735.000,4144.3507,N,06959.5930,W,2,09,1.03,13.6,M,-34.3,M,0000,0000*6F 
12.791          GPS_NMEA_FROM_GPS    iGPS            $GPGGA,195736.000,4144.3507,N,06959.5930,W,2,09,1.03,13.6,M,-34.3,M,0000,0000*6C 
12.791          GPS_NMEA_FROM_GPS    iGPS            $GPGGA,195736.000,4144.3507,N,06959.5930,W,2,09,1.03,13.6,M,-34.3,M,0000,0000*6C 
13.794          GPS_NMEA_FROM_GPS    iGPS            $GPGGA,195737.000,4144.3507,N,06959.5930,W,2,09,1.03,13.6,M,-34.3,M,0000,0000*6D 
14.797          GPS_NMEA_FROM_GPS    iGPS            $GPGGA,195738.000,4144.3507,N,06959.5930,W,2,09,1.03,13.6,M,-34.3,M,0000,0000*62 
15.699          GPS_NMEA_FROM_GPS    iGPS            $GPGGA,195739.000,4144.3507,N,06959.5930,W,2,08,1.14,13.6,M,-34.3,M,0000,0000*64 
16.803          GPS_NMEA_FROM_GPS    iGPS            $GPGGA,195740.000,4144.3507,N,06959.5930,W,2,08,1.14,13.6,M,-34.3,M,0000,0000*6A 
16.803          GPS_NMEA_FROM_GPS    iGPS            $GPGGA,195740.000,4144.3507,N,06959.5930,W,2,08,1.14,13.6,M,-34.3,M,0000,0000*6A 
17.805          GPS_NMEA_FROM_GPS    iGPS            $GPGGA,195741.000,4144.3507,N,06959.5930,W,2,08,1.14,13.6,M,-34.3,M,0000,0000*6B 
18.808          GPS_NMEA_FROM_GPS    iGPS            $GPGGA,195742.000,4144.3507,N,06959.5930,W,2,08,1.14,13.6,M,-34.3,M,0000,0000*68 
19.810          GPS_NMEA_FROM_GPS    iGPS            $GPGGA,195743.000,4144.3507,N,06959.5930,W,2,08,1.14,13.6,M,-34.3,M,0000,0000*69 
20.713          GPS_NMEA_FROM_GPS    iGPS            $GPGGA,195744.000,4144.3507,N,06959.5930,W,2,08,1.14,13.6,M,-34.3,M,0000,0000*6E 
21.816          GPS_NMEA_FROM_GPS    iGPS            $GPGGA,195745.000,4144.3507,N,06959.5930,W,2,09,1.03,13.6,M,-34.3,M,0000,0000*68 
22.819          GPS_NMEA_FROM_GPS    iGPS            $GPRMC,195746.000,A,4144.3507,N,06959.5930,W,0.01,240.06,210321,,,D*7B 
23.822          GPS_NMEA_FROM_GPS    iGPS            $GPGGA,195747.000,4144.3507,N,06959.5930,W,2,09,1.03,13.6,M,-34.3,M,0000,0000*6A 
24.824          GPS_NMEA_FROM_GPS    iGPS            $GPGGA,195748.000,4144.3507,N,06959.5930,W,2,10,0.95,13.6,M,-34.3,M,0000,0000*63 
24.824          GPS_NMEA_FROM_GPS    iGPS            $GPGGA,195748.000,4144.3507,N,06959.5930,W,2,10,0.95,13.6,M,-34.3,M,0000,0000*63 
25.727          GPS_NMEA_FROM_GPS    iGPS            $GPGGA,195749.000,4144.3507,N,06959.5930,W,2,09,1.03,13.6,M,-34.3,M,0000,0000*64 
26.830          GPS_NMEA_FROM_GPS    iGPS            $GPGGA,195750.000,4144.3507,N,06959.5930,W,2,09,1.03,13.6,M,-34.3,M,0000,0000*6C 
27.833          GPS_NMEA_FROM_GPS    iGPS            $GPGGA,195751.000,4144.3507,N,06959.5930,W,2,09,1.03,13.6,M,-34.3,M,0000,0000*6D 
28.735          GPS_NMEA_FROM_GPS    iGPS            $GPGGA,195752.000,4144.3507,N,06959.5930,W,2,09,1.03,13.6,M,-34.3,M,0000,0000*6E 
29.838          GPS_NMEA_FROM_GPS    iGPS            $GPRMC,195753.000,A,4144.3507,N,06959.5930,W,0.03,301.87,210321,,,D*70 
30.841          GPS_NMEA_FROM_GPS    iGPS            $GPGGA,195754.000,4144.3507,N,06959.5930,W,2,09,1.03,13.6,M,-34.3,M,0000,0000*68 
31.844          GPS_NMEA_FROM_GPS    iGPS            $GPGGA,195755.000,4144.3507,N,06959.5930,W,2,09,1.03,13.6,M,-34.3,M,0000,0000*69 
32.847          GPS_NMEA_FROM_GPS    iGPS            $GPRMC,195756.000,A,4144.3507,N,06959.5930,W,0.05,229.76,210321,,,D*76 
33.850          GPS_NMEA_FROM_GPS    iGPS            $GPRMC,195757.000,A,4144.3507,N,06959.5930,W,0.06,218.12,210321,,,D*74 
34.751          GPS_NMEA_FROM_GPS    iGPS            $GPGGA,195758.000,4144.3507,N,06959.5930,W,2,09,1.03,13.6,M,-34.3,M,0000,0000*64 
35.856          GPS_NMEA_FROM_GPS    iGPS            $GPRMC,195759.000,A,4144.3507,N,06959.5930,W,0.04,157.94,210321,,,D*7E 
36.758          GPS_NMEA_FROM_GPS    iGPS            $GPGGA,195800.000,4144.3507,N,06959.5930,W,2,10,0.95,13.6,M,-34.3,M,0000,0000*60 
37.860          GPS_NMEA_FROM_GPS    iGPS            $GPGGA,195801.000,4144.3507,N,06959.5930,W,2,10,0.95,13.6,M,-34.3,M,0000,0000*61 
38.762          GPS_NMEA_FROM_GPS    iGPS            $GPGGA,195802.000,4144.3507,N,06959.5930,W,2,10,0.95,13.6,M,-34.3,M,0000,0000*62 
39.866          GPS_NMEA_FROM_GPS    iGPS            $GPRMC,195803.000,A,4144.3507,N,06959.5930,W,0.16,98.48,210321,,,D*4E 
40.768          GPS_NMEA_FROM_GPS    iGPS            $GPGGA,195804.000,4144.3507,N,06959.5930,W,2,09,1.03,13.6,M,-34.3,M,0000,0000*62 
41.770          GPS_NMEA_FROM_GPS    iGPS            $GPGGA,195805.000,4144.3507,N,06959.5930,W,2,09,1.01,13.6,M,-34.3,M,0000,0000*61 
42.773          GPS_NMEA_FROM_GPS    iGPS            $GPGGA,195806.000,4144.3507,N,06959.5929,W,2,09,1.01,13.6,M,-34.3,M,0000,0000*6A 
43.776          GPS_NMEA_FROM_GPS    iGPS            $GPGGA,195807.000,4144.3507,N,06959.5928,W,2,09,1.01,13.5,M,-34.3,M,0000,0000*69 
44.779          GPS_NMEA_FROM_GPS    iGPS            $GPGGA,195808.000,4144.3507,N,06959.5927,W,2,09,1.01,13.5,M,-34.3,M,0000,0000*69 
45.781          GPS_NMEA_FROM_GPS    iGPS            $GPGGA,195809.000,4144.3507,N,06959.5925,W,2,09,1.01,13.5,M,-34.3,M,0000,0000*6A 
46.784          GPS_NMEA_FROM_GPS    iGPS            $GPGGA,195810.000,4144.3506,N,06959.5924,W,2,09,1.01,13.4,M,-34.3,M,0000,0000*63 
47.787          GPS_NMEA_FROM_GPS    iGPS            $GPGGA,195811.000,4144.3506,N,06959.5922,W,2,09,1.01,13.4,M,-34.3,M,0000,0000*64 
48.789          GPS_NMEA_FROM_GPS    iGPS            $GPGGA,195812.000,4144.3506,N,06959.5920,W,2,09,1.01,13.4,M,-34.3,M,0000,0000*65 
49.792          GPS_NMEA_FROM_GPS    iGPS            $GPGGA,195813.000,4144.3505,N,06959.5919,W,2,09,1.01,13.4,M,-34.3,M,0000,0000*6D 
50.795          GPS_NMEA_FROM_GPS    iGPS            $GPGGA,195814.000,4144.3505,N,06959.5917,W,2,09,1.01,13.4,M,-34.3,M,0000,0000*64 
51.798          GPS_NMEA_FROM_GPS    iGPS            $GPGGA,195815.000,4144.3504,N,06959.5915,W,2,09,1.01,13.4,M,-34.3,M,0000,0000*66 
52.801          GPS_NMEA_FROM_GPS    iGPS            $GPGGA,195816.000,4144.3503,N,06959.5914,W,2,08,1.09,13.4,M,-34.3,M,0000,0000*6A 
53.804          GPS_NMEA_FROM_GPS    iGPS            $GPGGA,195817.000,4144.3503,N,06959.5912,W,2,09,1.01,13.4,M,-34.3,M,0000,0000*64 
54.806          GPS_NMEA_FROM_GPS    iGPS            $GPGGA,195818.000,4144.3502,N,06959.5910,W,2,09,1.01,13.4,M,-34.3,M,0000,0000*68 
55.809          GPS_NMEA_FROM_GPS    iGPS            $GPRMC,195819.000,A,4144.3501,N,06959.5908,W,0.53,114.37,210321,,,D*74 
56.811          GPS_NMEA_FROM_GPS    iGPS            $GPGGA,195820.000,4144.3501,N,06959.5907,W,2,08,1.09,13.4,M,-34.3,M,0000,0000*6F 
57.814          GPS_NMEA_FROM_GPS    iGPS            $GPGGA,195821.000,4144.3500,N,06959.5905,W,2,09,1.01,13.4,M,-34.3,M,0000,0000*64 
58.817          GPS_NMEA_FROM_GPS    iGPS            $GPGGA,195822.000,4144.3500,N,06959.5903,W,2,08,1.09,13.4,M,-34.3,M,0000,0000*68 
59.719          GPS_NMEA_FROM_GPS    iGPS            $GPGGA,195823.000,4144.3499,N,06959.5901,W,2,08,1.09,13.3,M,-34.3,M,0000,0000*6D 
60.822          GPS_NMEA_FROM_GPS    iGPS            $GPGGA,195824.000,4144.3498,N,06959.5899,W,2,09,1.01,13.3,M,-34.3,M,0000,0000*62 
61.825          GPS_NMEA_FROM_GPS    iGPS            $GPRMC,195825.000,A,4144.3498,N,06959.5897,W,0.57,110.67,210321,,,D*78 
62.727          GPS_NMEA_FROM_GPS    iGPS            $GPGGA,195826.000,4144.3498,N,06959.5895,W,2,09,1.01,13.3,M,-34.3,M,0000,0000*6C 
63.830          GPS_NMEA_FROM_GPS    iGPS            $GPGGA,195827.000,4144.3497,N,06959.5893,W,2,10,0.94,13.2,M,-34.3,M,0000,0000*60 
64.733          GPS_NMEA_FROM_GPS    iGPS            $GPGGA,195828.000,4144.3497,N,06959.5891,W,2,09,1.00,13.2,M,-34.3,M,0000,0000*69 
65.836          GPS_NMEA_FROM_GPS    iGPS            $GPRMC,195829.000,A,4144.3496,N,06959.5889,W,0.57,104.84,210321,,,D*7D 
66.838          GPS_NMEA_FROM_GPS    iGPS            $GPRMC,195830.000,A,4144.3496,N,06959.5887,W,0.55,103.29,210321,,,D*79 
67.840          GPS_NMEA_FROM_GPS    iGPS            $GPGGA,195831.000,4144.3496,N,06959.5885,W,2,10,0.94,13.3,M,-34.3,M,0000,0000*60 
68.743          GPS_NMEA_FROM_GPS    iGPS            $GPGGA,195832.000,4144.3495,N,06959.5883,W,2,10,0.95,13.3,M,-34.3,M,0000,0000*67 
69.745          GPS_NMEA_FROM_GPS    iGPS            $GPGGA,195833.000,4144.3495,N,06959.5881,W,2,10,0.94,13.3,M,-34.3,M,0000,0000*65 
70.747          GPS_NMEA_FROM_GPS    iGPS            $GPGGA,195834.000,4144.3495,N,06959.5879,W,2,09,1.01,13.4,M,-34.3,M,0000,0000*67 
71.750          GPS_NMEA_FROM_GPS    iGPS            $GPGGA,195835.000,4144.3495,N,06959.5876,W,2,10,0.95,13.4,M,-34.3,M,0000,0000*6D 
72.752          GPS_NMEA_FROM_GPS    iGPS            $GPGGA,195836.000,4144.3495,N,06959.5874,W,2,09,1.01,13.5,M,-34.3,M,0000,0000*69 
73.755          GPS_NMEA_FROM_GPS    iGPS            $GPGGA,195837.000,4144.3494,N,06959.5871,W,2,09,1.01,13.5,M,-34.3,M,0000,0000*6C 
74.858          GPS_NMEA_FROM_GPS    iGPS            $GPRMC,195838.000,A,4144.3494,N,06959.5869,W,0.63,100.16,210321,,,D*79 
75.861          GPS_NMEA_FROM_GPS    iGPS            $GPRMC,195839.000,A,4144.3493,N,06959.5866,W,0.62,102.00,210321,,,D*74 
76.763          GPS_NMEA_FROM_GPS    iGPS            $GPGGA,195840.000,4144.3492,N,06959.5864,W,2,09,1.01,13.5,M,-34.3,M,0000,0000*6E 
77.866          GPS_NMEA_FROM_GPS    iGPS            $GPRMC,195841.000,A,4144.3491,N,06959.5862,W,0.59,107.72,210321,,,D*75 
78.768          GPS_NMEA_FROM_GPS    iGPS            $GPGGA,195842.000,4144.3490,N,06959.5859,W,2,09,1.01,13.4,M,-34.3,M,0000,0000*61 
79.771          GPS_NMEA_FROM_GPS    iGPS            $GPGGA,195843.000,4144.3489,N,06959.5857,W,2,09,1.01,13.3,M,-34.3,M,0000,0000*61 
80.774          GPS_NMEA_FROM_GPS    iGPS            $GPGGA,195844.000,4144.3488,N,06959.5856,W,2,09,1.01,13.3,M,-34.3,M,0000,0000*66 
81.777          GPS_NMEA_FROM_GPS    iGPS            $GPGGA,195845.000,4144.3486,N,06959.5854,W,2,09,1.00,13.2,M,-34.3,M,0000,0000*6B 
82.780          GPS_NMEA_FROM_GPS    iGPS            $GPGGA,195846.000,4144.3485,N,06959.5852,W,2,09,1.00,13.2,M,-34.3,M,0000,0000*6D 
83.783          GPS_NMEA_FROM_GPS    iGPS            $GPRMC,195847.000,A,4144.3484,N,06959.5851,W,0.53,137.46,210321,,,D*79 
84.785          GPS_NMEA_FROM_GPS    iGPS            $GPGGA,195848.000,4144.3482,N,06959.5850,W,2,09,1.01,13.2,M,-34.3,M,0000,0000*67 
85.888          GPS_NMEA_FROM_GPS    iGPS            $GPRMC,195849.000,A,4144.3481,N,06959.5850,W,0.52,148.34,210321,,,D*7F 
86.791          GPS_NMEA_FROM_GPS    iGPS            $GPRMC,195850.000,A,4144.3480,N,06959.5849,W,0.60,153.97,210321,,,D*7C 
87.793          GPS_NMEA_FROM_GPS    iGPS            $GPGGA,195851.000,4144.3478,N,06959.5849,W,2,09,1.01,13.1,M,-34.3,M,0000,0000*61 
88.796          GPS_NMEA_FROM_GPS    iGPS            $GPGGA,195852.000,4144.3477,N,06959.5848,W,2,09,1.01,13.0,M,-34.3,M,0000,0000*6D 
89.798          GPS_NMEA_FROM_GPS    iGPS            $GPGGA,195853.000,4144.3475,N,06959.5848,W,2,09,1.03,12.9,M,-34.3,M,0000,0000*64 
90.800          GPS_NMEA_FROM_GPS    iGPS            $GPGGA,195854.000,4144.3473,N,06959.5847,W,2,09,1.01,12.8,M,-34.3,M,0000,0000*69 
91.803          GPS_NMEA_FROM_GPS    iGPS            $GPGGA,195855.000,4144.3471,N,06959.5847,W,2,09,1.01,12.7,M,-34.3,M,0000,0000*65 
92.806          GPS_NMEA_FROM_GPS    iGPS            $GPGGA,195856.000,4144.3470,N,06959.5846,W,2,09,1.03,12.5,M,-34.3,M,0000,0000*66 
93.809          GPS_NMEA_FROM_GPS    iGPS            $GPRMC,195857.000,A,4144.3468,N,06959.5846,W,0.60,172.77,210321,,,D*7F 
94.812          GPS_NMEA_FROM_GPS    iGPS            $GPGGA,195858.000,4144.3466,N,06959.5846,W,2,09,1.01,12.4,M,-34.3,M,0000,0000*6C 
95.814          GPS_NMEA_FROM_GPS    iGPS            $GPRMC,195859.000,A,4144.3464,N,06959.5846,W,0.61,177.53,210321,,,D*7F 
96.817          GPS_NMEA_FROM_GPS    iGPS            $GPGGA,195900.000,4144.3462,N,06959.5846,W,2,09,1.00,12.2,M,-34.3,M,0000,0000*63 
97.820          GPS_NMEA_FROM_GPS    iGPS            $GPGGA,195901.000,4144.3460,N,06959.5846,W,2,09,1.01,12.2,M,-34.3,M,0000,0000*61 
98.822          GPS_NMEA_FROM_GPS    iGPS            $GPRMC,195902.000,A,4144.3458,N,06959.5847,W,0.67,184.91,210321,,,D*7A 
99.825          GPS_NMEA_FROM_GPS    iGPS            $GPGGA,195903.000,4144.3457,N,06959.5847,W,2,09,1.01,12.1,M,-34.3,M,0000,0000*65 
100.827         GPS_NMEA_FROM_GPS    iGPS            $GPGGA,195904.000,4144.3455,N,06959.5848,W,2,09,1.00,12.0,M,-34.3,M,0000,0000*6F 
101.830         GPS_NMEA_FROM_GPS    iGPS            $GPGGA,195905.000,4144.3453,N,06959.5849,W,2,09,1.00,11.9,M,-34.3,M,0000,0000*63 
102.833         GPS_NMEA_FROM_GPS    iGPS            $GPGGA,195906.000,4144.3452,N,06959.5849,W,2,09,1.03,11.9,M,-34.3,M,0000,0000*62 
103.836         GPS_NMEA_FROM_GPS    iGPS            $GPGGA,195907.000,4144.3451,N,06959.5850,W,2,09,1.03,11.8,M,-34.3,M,0000,0000*69 
104.738         GPS_NMEA_FROM_GPS    iGPS            $GPGGA,195908.000,4144.3449,N,06959.5851,W,2,08,1.14,11.7,M,-34.3,M,0000,0000*66 
105.741         GPS_NMEA_FROM_GPS    iGPS            $GPGGA,195909.000,4144.3448,N,06959.5852,W,2,09,1.03,11.7,M,-34.3,M,0000,0000*62 
106.844         GPS_NMEA_FROM_GPS    iGPS            $GPRMC,195910.000,A,4144.3447,N,06959.5854,W,0.56,211.39,210321,,,D*7A 
107.746         GPS_NMEA_FROM_GPS    iGPS            $GPGGA,195911.000,4144.3446,N,06959.5855,W,2,09,1.00,11.5,M,-34.3,M,0000,0000*63 
108.749         GPS_NMEA_FROM_GPS    iGPS            $GPGGA,195912.000,4144.3445,N,06959.5857,W,2,09,1.01,11.4,M,-34.3,M,0000,0000*61 
109.852         GPS_NMEA_FROM_GPS    iGPS            $GPRMC,195913.000,A,4144.3445,N,06959.5858,W,0.59,226.14,210321,,,D*73 
110.855         GPS_NMEA_FROM_GPS    iGPS            $GPGGA,195914.000,4144.3444,N,06959.5860,W,2,09,1.03,11.3,M,-34.3,M,0000,0000*67 
111.758         GPS_NMEA_FROM_GPS    iGPS            $GPGGA,195915.000,4144.3444,N,06959.5862,W,2,09,1.00,11.2,M,-34.3,M,0000,0000*66 
112.760         GPS_NMEA_FROM_GPS    iGPS            $GPGGA,195916.000,4144.3444,N,06959.5864,W,2,09,1.01,11.0,M,-34.3,M,0000,0000*60 
113.864         GPS_NMEA_FROM_GPS    iGPS            $GPRMC,195917.000,A,4144.3444,N,06959.5866,W,0.52,251.12,210321,,,D*76 
114.867         GPS_NMEA_FROM_GPS    iGPS            $GPRMC,195918.000,A,4144.3445,N,06959.5867,W,0.55,257.80,210321,,,D*73 
115.870         GPS_NMEA_FROM_GPS    iGPS            $GPRMC,195919.000,A,4144.3445,N,06959.5869,W,0.54,263.51,210321,,,D*76 
116.772         GPS_NMEA_FROM_GPS    iGPS            $GPGGA,195920.000,4144.3445,N,06959.5871,W,2,09,1.03,10.7,M,-34.3,M,0000,0000*64 
117.875         GPS_NMEA_FROM_GPS    iGPS            $GPRMC,195921.000,A,4144.3445,N,06959.5873,W,0.54,274.17,210321,,,D*72 
118.778         GPS_NMEA_FROM_GPS    iGPS            $GPGGA,195922.000,4144.3446,N,06959.5875,W,2,08,1.14,10.6,M,-34.3,M,0000,0000*67 
119.780         GPS_NMEA_FROM_GPS    iGPS            $GPGGA,195923.000,4144.3447,N,06959.5877,W,2,09,1.00,10.5,M,-34.3,M,0000,0000*62 
120.784         GPS_NMEA_FROM_GPS    iGPS            $GPGGA,195924.000,4144.3447,N,06959.5879,W,2,10,0.94,10.5,M,-34.3,M,0000,0000*6F 
121.786         GPS_NMEA_FROM_GPS    iGPS            $GPGGA,195925.000,4144.3448,N,06959.5880,W,2,09,1.01,10.5,M,-34.3,M,0000,0000*62 
122.789         GPS_NMEA_FROM_GPS    iGPS            $GPGGA,195926.000,4144.3449,N,06959.5881,W,2,09,1.03,10.5,M,-34.3,M,0000,0000*63 
123.792         GPS_NMEA_FROM_GPS    iGPS            $GPGGA,195927.000,4144.3451,N,06959.5882,W,2,09,1.03,10.5,M,-34.3,M,0000,0000*68 
124.796         GPS_NMEA_FROM_GPS    iGPS            $GPGGA,195928.000,4144.3452,N,06959.5883,W,2,09,1.03,10.6,M,-34.3,M,0000,0000*66 
125.798         GPS_NMEA_FROM_GPS    iGPS            $GPGGA,195929.000,4144.3453,N,06959.5884,W,2,10,0.95,10.6,M,-34.3,M,0000,0000*67 
126.802         GPS_NMEA_FROM_GPS    iGPS            $GPGGA,195930.000,4144.3454,N,06959.5884,W,2,10,0.94,10.6,M,-34.3,M,0000,0000*69 
127.804         GPS_NMEA_FROM_GPS    iGPS            $GPGGA,195931.000,4144.3456,N,06959.5885,W,2,10,0.95,10.6,M,-34.3,M,0000,0000*6A 
128.808         GPS_NMEA_FROM_GPS    iGPS            $GPRMC,195932.000,A,4144.3457,N,06959.5885,W,0.51,347.72,210321,,,D*7D 
129.810         GPS_NMEA_FROM_GPS    iGPS            $GPGGA,195933.000,4144.3459,N,06959.5884,W,2,09,1.03,10.7,M,-34.3,M,0000,0000*61 
130.813         GPS_NMEA_FROM_GPS    iGPS            $GPGGA,195934.000,4144.3460,N,06959.5884,W,2,10,0.95,10.7,M,-34.3,M,0000,0000*6A 
131.817         GPS_NMEA_FROM_GPS    iGPS            $GPRMC,195935.000,A,4144.3461,N,06959.5883,W,0.49,14.82,210321,,,D*4A 
132.824         GPS_NMEA_FROM_GPS    iGPS            $GPGGA,195936.000,4144.3462,N,06959.5881,W,2,09,1.00,10.8,M,-34.3,M,0000,0000*65 
133.826         GPS_NMEA_FROM_GPS    iGPS            $GPGGA,195937.000,4144.3463,N,06959.5880,W,2,09,1.00,10.8,M,-34.3,M,0000,0000*64 
134.729         GPS_NMEA_FROM_GPS    iGPS            $GPGGA,195938.000,4144.3463,N,06959.5878,W,2,09,1.00,10.8,M,-34.3,M,0000,0000*6C 
135.832         GPS_NMEA_FROM_GPS    iGPS            $GPGGA,195939.000,4144.3464,N,06959.5876,W,2,09,1.00,10.8,M,-34.3,M,0000,0000*64 
136.834         GPS_NMEA_FROM_GPS    iGPS            $GPGGA,195940.000,4144.3464,N,06959.5874,W,2,10,0.94,10.8,M,-34.3,M,0000,0000*6C 
137.737         GPS_NMEA_FROM_GPS    iGPS            $GPGGA,195941.000,4144.3464,N,06959.5872,W,2,09,1.01,10.8,M,-34.3,M,0000,0000*6E 
138.840         GPS_NMEA_FROM_GPS    iGPS            $GPGGA,195942.000,4144.3464,N,06959.5869,W,2,10,0.94,10.8,M,-34.3,M,0000,0000*62 
139.843         GPS_NMEA_FROM_GPS    iGPS            $GPGGA,195943.000,4144.3463,N,06959.5867,W,2,10,0.94,10.8,M,-34.3,M,0000,0000*6A 
140.745         GPS_NMEA_FROM_GPS    iGPS            $GPGGA,195944.000,4144.3463,N,06959.5865,W,2,09,1.00,10.8,M,-34.3,M,0000,0000*6B 
141.849         GPS_NMEA_FROM_GPS    iGPS            $GPRMC,195945.000,A,4144.3462,N,06959.5863,W,0.64,100.30,210321,,,D*72 
142.751         GPS_NMEA_FROM_GPS    iGPS            $GPGGA,195946.000,4144.3460,N,06959.5860,W,2,09,1.00,10.8,M,-34.3,M,0000,0000*6F 
143.854         GPS_NMEA_FROM_GPS    iGPS            $GPGGA,195947.000,4144.3459,N,06959.5858,W,2,09,1.01,10.7,M,-34.3,M,0000,0000*61 
144.756         GPS_NMEA_FROM_GPS    iGPS            $GPGGA,195948.000,4144.3458,N,06959.5856,W,2,09,1.01,10.7,M,-34.3,M,0000,0000*61 
145.860         GPS_NMEA_FROM_GPS    iGPS            $GPRMC,195949.000,A,4144.3457,N,06959.5853,W,0.64,112.28,210321,,,D*71 
146.862         GPS_NMEA_FROM_GPS    iGPS            $GPRMC,195950.000,A,4144.3455,N,06959.5851,W,0.66,114.79,210321,,,D*79 
147.764         GPS_NMEA_FROM_GPS    iGPS            $GPGGA,195951.000,4144.3454,N,06959.5849,W,2,08,1.09,10.5,M,-34.3,M,0000,0000*60 
148.767         GPS_NMEA_FROM_GPS    iGPS            $GPGGA,195952.000,4144.3453,N,06959.5847,W,2,10,0.94,10.4,M,-34.3,M,0000,0000*67 
149.770         GPS_NMEA_FROM_GPS    iGPS            $GPGGA,195953.000,4144.3451,N,06959.5845,W,2,10,0.94,10.3,M,-34.3,M,0000,0000*61 
150.773         GPS_NMEA_FROM_GPS    iGPS            $GPGGA,195954.000,4144.3450,N,06959.5843,W,2,09,1.00,10.2,M,-34.3,M,0000,0000*64 
151.775         GPS_NMEA_FROM_GPS    iGPS            $GPGGA,195955.000,4144.3448,N,06959.5841,W,2,09,1.03,10.0,M,-34.3,M,0000,0000*6F 
152.778         GPS_NMEA_FROM_GPS    iGPS            $GPGGA,195956.000,4144.3447,N,06959.5839,W,2,09,1.01,9.8,M,-34.3,M,0000,0000*5E 
153.781         GPS_NMEA_FROM_GPS    iGPS            $GPRMC,195957.000,A,4144.3445,N,06959.5837,W,0.61,134.84,210321,,,D*78 
154.783         GPS_NMEA_FROM_GPS    iGPS            $GPGGA,195958.000,4144.3444,N,06959.5835,W,2,09,1.03,9.6,M,-34.3,M,0000,0000*53 
155.785         GPS_NMEA_FROM_GPS    iGPS            $GPGGA,195959.000,4144.3442,N,06959.5834,W,2,09,1.03,9.5,M,-34.3,M,0000,0000*56 
156.788         GPS_NMEA_FROM_GPS    iGPS            $GPGGA,200000.000,4144.3440,N,06959.5833,W,2,09,1.03,9.5,M,-34.3,M,0000,0000*59 
157.791         GPS_NMEA_FROM_GPS    iGPS            $GPGGA,200001.000,4144.3438,N,06959.5833,W,2,09,1.03,9.5,M,-34.3,M,0000,0000*57 
158.794         GPS_NMEA_FROM_GPS    iGPS            $GPRMC,200002.000,A,4144.3437,N,06959.5833,W,0.58,163.86,210321,,,D*75 
159.795         GPS_NMEA_FROM_GPS    iGPS            $GPGGA,200003.000,4144.3436,N,06959.5833,W,2,09,1.00,9.4,M,-34.3,M,0000,0000*59 
160.798         GPS_NMEA_FROM_GPS    iGPS            $GPGGA,200004.000,4144.3434,N,06959.5833,W,2,09,1.00,9.4,M,-34.3,M,0000,0000*5C 
161.801         GPS_NMEA_FROM_GPS    iGPS            $GPRMC,200005.000,A,4144.3433,N,06959.5834,W,0.53,187.52,210321,,,D*79 
162.803         GPS_NMEA_FROM_GPS    iGPS            $GPGGA,200006.000,4144.3432,N,06959.5835,W,2,09,1.00,9.4,M,-34.3,M,0000,0000*5E 
163.806         GPS_NMEA_FROM_GPS    iGPS            $GPRMC,200007.000,A,4144.3431,N,06959.5837,W,0.53,205.43,210321,,,D*73 
164.808         GPS_NMEA_FROM_GPS    iGPS            $GPGGA,200008.000,4144.3430,N,06959.5838,W,2,09,1.00,9.4,M,-34.3,M,0000,0000*5F 
165.811         GPS_NMEA_FROM_GPS    iGPS            $GPRMC,200009.000,A,4144.3429,N,06959.5840,W,0.63,221.44,210321,,,D*76 
166.813         GPS_NMEA_FROM_GPS    iGPS            $GPGGA,200010.000,4144.3428,N,06959.5842,W,2,09,1.00,9.4,M,-34.3,M,0000,0000*52 
167.816         GPS_NMEA_FROM_GPS    iGPS            $GPGGA,200011.000,4144.3428,N,06959.5844,W,2,09,1.01,9.4,M,-34.3,M,0000,0000*54 
168.718         GPS_NMEA_FROM_GPS    iGPS            $GPGGA,200012.000,4144.3428,N,06959.5845,W,2,08,1.09,9.3,M,-34.3,M,0000,0000*58 
169.821         GPS_NMEA_FROM_GPS    iGPS            $GPGGA,200013.000,4144.3428,N,06959.5847,W,2,09,1.01,9.3,M,-34.3,M,0000,0000*52 
170.723         GPS_NMEA_FROM_GPS    iGPS            $GPGGA,200014.000,4144.3428,N,06959.5849,W,2,09,1.03,9.3,M,-34.3,M,0000,0000*59 
171.826         GPS_NMEA_FROM_GPS    iGPS            $GPGGA,200015.000,4144.3428,N,06959.5851,W,2,09,1.03,9.2,M,-34.3,M,0000,0000*50 
172.828         GPS_NMEA_FROM_GPS    iGPS            $GPRMC,200016.000,A,4144.3428,N,06959.5852,W,0.49,254.09,210321,,,D*79 
173.830         GPS_NMEA_FROM_GPS    iGPS            $GPGGA,200017.000,4144.3428,N,06959.5854,W,2,09,1.00,9.0,M,-34.3,M,0000,0000*56 
174.832         GPS_NMEA_FROM_GPS    iGPS            $GPGGA,200018.000,4144.3429,N,06959.5855,W,2,09,1.03,8.9,M,-34.3,M,0000,0000*52 
175.835         GPS_NMEA_FROM_GPS    iGPS            $GPGGA,200019.000,4144.3430,N,06959.5857,W,2,09,1.00,8.6,M,-34.3,M,0000,0000*55 
176.739         GPS_NMEA_FROM_GPS    iGPS            $GPGGA,200020.000,4144.3431,N,06959.5858,W,2,09,1.00,8.4,M,-34.3,M,0000,0000*53 
177.842         GPS_NMEA_FROM_GPS    iGPS            $GPRMC,200021.000,A,4144.3432,N,06959.5860,W,0.57,287.79,210321,,,D*71 
178.844         GPS_NMEA_FROM_GPS    iGPS            $GPGGA,200022.000,4144.3433,N,06959.5861,W,2,09,1.00,8.3,M,-34.3,M,0000,0000*5E 
179.747         GPS_NMEA_FROM_GPS    iGPS            $GPGGA,200023.000,4144.3434,N,06959.5862,W,2,09,1.00,8.2,M,-34.3,M,0000,0000*5A 
180.850         GPS_NMEA_FROM_GPS    iGPS            $GPRMC,200024.000,A,4144.3436,N,06959.5862,W,0.53,309.94,210321,,,D*72 
181.851         GPS_NMEA_FROM_GPS    iGPS            $GPGGA,200025.000,4144.3437,N,06959.5863,W,2,10,0.94,8.2,M,-34.3,M,0000,0000*5A 
182.754         GPS_NMEA_FROM_GPS    iGPS            $GPGGA,200026.000,4144.3439,N,06959.5863,W,2,10,0.94,8.2,M,-34.3,M,0000,0000*57 
183.857         GPS_NMEA_FROM_GPS    iGPS            $GPGGA,200027.000,4144.3440,N,06959.5864,W,2,10,0.94,8.2,M,-34.3,M,0000,0000*5F 
184.759         GPS_NMEA_FROM_GPS    iGPS            $GPGGA,200028.000,4144.3442,N,06959.5864,W,2,10,0.94,8.2,M,-34.3,M,0000,0000*52 
185.762         GPS_NMEA_FROM_GPS    iGPS            $GPGGA,200029.000,4144.3443,N,06959.5863,W,2,09,1.03,8.3,M,-34.3,M,0000,0000*53 
186.764         GPS_NMEA_FROM_GPS    iGPS            $GPGGA,200030.000,4144.3445,N,06959.5862,W,2,09,1.03,8.3,M,-34.3,M,0000,0000*5C 
187.867         GPS_NMEA_FROM_GPS    iGPS            $GPRMC,200031.000,A,4144.3447,N,06959.5860,W,0.54,4.15,210321,,,D*72 
188.469         GPS_NMEA_FROM_GPS    iGPS            $GPRMC,200032.000,A,4144.3448,N,06959.5858,W,0.54,12.78,210321,,,D*49 
189.772         GPS_NMEA_FROM_GPS    iGPS            $GPGGA,200033.000,4144.3449,N,06959.5857,W,2,09,1.03,8.3,M,-34.3,M,0000,0000*55 
190.775         GPS_NMEA_FROM_GPS    iGPS            $GPGGA,200034.000,4144.3450,N,06959.5856,W,2,09,1.03,8.3,M,-34.3,M,0000,0000*5B 
191.777         GPS_NMEA_FROM_GPS    iGPS            $GPGGA,200035.000,4144.3451,N,06959.5854,W,2,09,1.00,8.3,M,-34.3,M,0000,0000*5A 
192.780         GPS_NMEA_FROM_GPS    iGPS            $GPGGA,200036.000,4144.3451,N,06959.5852,W,2,09,1.00,8.3,M,-34.3,M,0000,0000*5F 
193.783         GPS_NMEA_FROM_GPS    iGPS            $GPGGA,200037.000,4144.3452,N,06959.5850,W,2,09,1.00,8.3,M,-34.3,M,0000,0000*5F 
194.785         GPS_NMEA_FROM_GPS    iGPS            $GPGGA,200038.000,4144.3452,N,06959.5848,W,2,09,1.00,8.3,M,-34.3,M,0000,0000*59 
195.788         GPS_NMEA_FROM_GPS    iGPS            $GPGGA,200039.000,4144.3451,N,06959.5846,W,2,08,1.09,8.3,M,-34.3,M,0000,0000*5D 
196.791         GPS_NMEA_FROM_GPS    iGPS            $GPRMC,200040.000,A,4144.3451,N,06959.5844,W,0.60,94.25,210321,,,D*48 
197.793         GPS_NMEA_FROM_GPS    iGPS            $GPGGA,200041.000,4144.3449,N,06959.5843,W,2,09,1.00,8.4,M,-34.3,M,0000,0000*51 
198.795         GPS_NMEA_FROM_GPS    iGPS            $GPGGA,200042.000,4144.3447,N,06959.5841,W,2,09,1.00,8.3,M,-34.3,M,0000,0000*59 
199.798         GPS_NMEA_FROM_GPS    iGPS            $GPGGA,200043.000,4144.3446,N,06959.5839,W,2,09,1.00,8.2,M,-34.3,M,0000,0000*57 
200.801         GPS_NMEA_FROM_GPS    iGPS            $GPRMC,200044.000,A,4144.3444,N,06959.5837,W,0.63,124.20,210321,,,D*70 
201.804         GPS_NMEA_FROM_GPS    iGPS            $GPRMC,200045.000,A,4144.3443,N,06959.5835,W,0.62,128.69,210321,,,D*74 
202.806         GPS_NMEA_FROM_GPS    iGPS            $GPRMC,200046.000,A,4144.3441,N,06959.5834,W,0.60,132.00,210321,,,D*72 
203.809         GPS_NMEA_FROM_GPS    iGPS            $GPGGA,200047.000,4144.3439,N,06959.5832,W,2,09,1.03,8.2,M,-34.3,M,0000,0000*53 
204.813         GPS_NMEA_FROM_GPS    iGPS            $GPRMC,200048.000,A,4144.3438,N,06959.5830,W,0.62,139.41,210321,,,D*7A 
205.815         GPS_NMEA_FROM_GPS    iGPS            $GPGGA,200049.000,4144.3437,N,06959.5829,W,2,09,1.00,8.1,M,-34.3,M,0000,0000*59 
206.818         GPS_NMEA_FROM_GPS    iGPS            $GPGGA,200050.000,4144.3435,N,06959.5828,W,2,09,1.03,8.1,M,-34.3,M,0000,0000*51 
207.820         GPS_NMEA_FROM_GPS    iGPS            $GPGGA,200051.000,4144.3433,N,06959.5826,W,2,09,1.03,8.1,M,-34.3,M,0000,0000*58 
208.823         GPS_NMEA_FROM_GPS    iGPS            $GPGGA,200052.000,4144.3432,N,06959.5825,W,2,09,1.03,8.1,M,-34.3,M,0000,0000*59 
209.825         GPS_NMEA_FROM_GPS    iGPS            $GPGGA,200053.000,4144.3430,N,06959.5824,W,2,09,1.00,8.1,M,-34.3,M,0000,0000*58 
210.828         GPS_NMEA_FROM_GPS    iGPS            $GPGGA,200054.000,4144.3428,N,06959.5823,W,2,09,1.00,8.1,M,-34.3,M,0000,0000*51 
211.831         GPS_NMEA_FROM_GPS    iGPS            $GPRMC,200055.000,A,4144.3426,N,06959.5822,W,0.59,155.25,210321,,,D*7A 
212.733         GPS_NMEA_FROM_GPS    iGPS            $GPGGA,200056.000,4144.3425,N,06959.5821,W,2,09,1.00,7.9,M,-34.3,M,0000,0000*5B 
213.736         GPS_NMEA_FROM_GPS    iGPS            $GPGGA,200057.000,4144.3423,N,06959.5819,W,2,09,1.00,7.9,M,-34.3,M,0000,0000*57 
214.739         GPS_NMEA_FROM_GPS    iGPS            $GPGGA,200058.000,4144.3422,N,06959.5817,W,2,09,1.03,7.9,M,-34.3,M,0000,0000*54 
215.742         GPS_NMEA_FROM_GPS    iGPS            $GPGGA,200059.000,4144.3420,N,06959.5815,W,2,09,1.00,7.8,M,-34.3,M,0000,0000*57 
216.744         GPS_NMEA_FROM_GPS    iGPS            $GPGGA,200100.000,4144.3419,N,06959.5813,W,2,09,1.00,7.8,M,-34.3,M,0000,0000*56 
217.747         GPS_NMEA_FROM_GPS    iGPS            $GPGGA,200101.000,4144.3417,N,06959.5811,W,2,09,1.00,7.8,M,-34.3,M,0000,0000*5B 
218.850         GPS_NMEA_FROM_GPS    iGPS            $GPGGA,200102.000,4144.3416,N,06959.5808,W,2,09,1.00,7.8,M,-34.3,M,0000,0000*51 
219.753         GPS_NMEA_FROM_GPS    iGPS            $GPGGA,200103.000,4144.3414,N,06959.5807,W,2,09,1.00,7.7,M,-34.3,M,0000,0000*52 
220.756         GPS_NMEA_FROM_GPS    iGPS            $GPGGA,200104.000,4144.3412,N,06959.5806,W,2,09,1.03,7.7,M,-34.3,M,0000,0000*51 
221.758         GPS_NMEA_FROM_GPS    iGPS            $GPGGA,200105.000,4144.3411,N,06959.5805,W,2,09,1.03,7.7,M,-34.3,M,0000,0000*50 
222.760         GPS_NMEA_FROM_GPS    iGPS            $GPGGA,200106.000,4144.3409,N,06959.5805,W,2,09,1.03,7.6,M,-34.3,M,0000,0000*5B 
223.763         GPS_NMEA_FROM_GPS    iGPS            $GPGGA,200107.000,4144.3407,N,06959.5806,W,2,09,1.03,7.5,M,-34.3,M,0000,0000*54 
224.866         GPS_NMEA_FROM_GPS    iGPS            $GPRMC,200108.000,A,4144.3406,N,06959.5807,W,0.59,168.92,210321,,,D*74 
225.768         GPS_NMEA_FROM_GPS    iGPS            $GPGGA,200109.000,4144.3404,N,06959.5808,W,2,09,1.00,7.4,M,-34.3,M,0000,0000*55 
226.872         GPS_NMEA_FROM_GPS    iGPS            $GPRMC,200110.000,A,4144.3402,N,06959.5809,W,0.58,180.34,210321,,,D*7C 
227.873         GPS_NMEA_FROM_GPS    iGPS            $GPRMC,200111.000,A,4144.3401,N,06959.5810,W,0.48,185.91,210321,,,D*7D 
228.775         GPS_NMEA_FROM_GPS    iGPS            $GPGGA,200112.000,4144.3400,N,06959.5811,W,2,09,1.00,7.3,M,-34.3,M,0000,0000*54 
229.778         GPS_NMEA_FROM_GPS    iGPS            $GPGGA,200113.000,4144.3399,N,06959.5812,W,2,09,1.03,7.3,M,-34.3,M,0000,0000*52 
230.781         GPS_NMEA_FROM_GPS    iGPS            $GPGGA,200114.000,4144.3398,N,06959.5813,W,2,09,1.03,7.3,M,-34.3,M,0000,0000*55 
231.784         GPS_NMEA_FROM_GPS    iGPS            $GPGGA,200115.000,4144.3397,N,06959.5814,W,2,09,1.03,7.3,M,-34.3,M,0000,0000*5C 
232.786         GPS_NMEA_FROM_GPS    iGPS            $GPGGA,200116.000,4144.3396,N,06959.5816,W,2,09,1.03,7.3,M,-34.3,M,0000,0000*5C 
233.789         GPS_NMEA_FROM_GPS    iGPS            $GPGGA,200117.000,4144.3395,N,06959.5818,W,2,09,1.00,7.2,M,-34.3,M,0000,0000*52 
234.792         GPS_NMEA_FROM_GPS    iGPS            $GPGGA,200118.000,4144.3395,N,06959.5820,W,2,09,1.00,7.1,M,-34.3,M,0000,0000*55 
235.794         GPS_NMEA_FROM_GPS    iGPS            $GPGGA,200119.000,4144.3396,N,06959.5823,W,2,09,1.00,6.9,M,-34.3,M,0000,0000*5D 
236.797         GPS_NMEA_FROM_GPS    iGPS            $GPRMC,200120.000,A,4144.3396,N,06959.5825,W,0.57,249.41,210321,,,D*70 
237.799         GPS_NMEA_FROM_GPS    iGPS            $GPRMC,200121.000,A,4144.3396,N,06959.5828,W,0.55,256.24,210321,,,D*73 
238.802         GPS_NMEA_FROM_GPS    iGPS            $GPGGA,200122.000,4144.3397,N,06959.5830,W,2,09,1.00,7.1,M,-34.3,M,0000,0000*5F 
239.805         GPS_NMEA_FROM_GPS    iGPS            $GPGGA,200123.000,4144.3398,N,06959.5831,W,2,09,1.00,7.0,M,-34.3,M,0000,0000*51 
240.808         GPS_NMEA_FROM_GPS    iGPS            $GPRMC,200124.000,A,4144.3399,N,06959.5833,W,0.52,281.99,210321,,,D*78 
241.810         GPS_NMEA_FROM_GPS    iGPS            $GPGGA,200125.000,4144.3400,N,06959.5835,W,2,09,1.00,7.1,M,-34.3,M,0000,0000*54 
242.813         GPS_NMEA_FROM_GPS    iGPS            $GPRMC,200126.000,A,4144.3401,N,06959.5836,W,0.49,299.00,210321,,,D*7A 
243.816         GPS_NMEA_FROM_GPS    iGPS            $GPGGA,200127.000,4144.3402,N,06959.5837,W,2,09,1.00,7.1,M,-34.3,M,0000,0000*56 
244.718         GPS_NMEA_FROM_GPS    iGPS            $GPGGA,200128.000,4144.3403,N,06959.5838,W,2,09,1.00,7.1,M,-34.3,M,0000,0000*57 
245.821         GPS_NMEA_FROM_GPS    iGPS            $GPGGA,200129.000,4144.3403,N,06959.5838,W,2,10,0.94,7.1,M,-34.3,M,0000,0000*52 
246.823         GPS_NMEA_FROM_GPS    iGPS            $GPGGA,200130.000,4144.3404,N,06959.5839,W,2,10,0.94,7.1,M,-34.3,M,0000,0000*5C 
247.826         GPS_NMEA_FROM_GPS    iGPS            $GPGGA,200131.000,4144.3404,N,06959.5839,W,2,10,0.94,7.1,M,-34.3,M,0000,0000*5D 
248.829         GPS_NMEA_FROM_GPS    iGPS            $GPRMC,200132.000,A,4144.3405,N,06959.5840,W,0.20,312.45,210321,,,D*76 
249.832         GPS_NMEA_FROM_GPS    iGPS            $GPRMC,200133.000,A,4144.3405,N,06959.5840,W,0.18,312.90,210321,,,D*74 
250.734         GPS_NMEA_FROM_GPS    iGPS            $GPGGA,200134.000,4144.3406,N,06959.5841,W,2,10,0.94,7.0,M,-34.3,M,0000,0000*54 
251.837         GPS_NMEA_FROM_GPS    iGPS            $GPRMC,200135.000,A,4144.3406,N,06959.5841,W,0.14,313.85,210321,,,D*79 
252.739         GPS_NMEA_FROM_GPS    iGPS            $GPGGA,200136.000,4144.3406,N,06959.5841,W,2,10,0.94,7.0,M,-34.3,M,0000,0000*56 
253.842         GPS_NMEA_FROM_GPS    iGPS            $GPGGA,200137.000,4144.3406,N,06959.5842,W,2,10,0.94,7.0,M,-34.3,M,0000,0000*54 
254.745         GPS_NMEA_FROM_GPS    iGPS            $GPGGA,200138.000,4144.3407,N,06959.5842,W,2,10,0.94,6.9,M,-34.3,M,0000,0000*52 
255.748         GPS_NMEA_FROM_GPS    iGPS            $GPGGA,200139.000,4144.3407,N,06959.5842,W,2,10,0.94,6.9,M,-34.3,M,0000,0000*53 
256.751         GPS_NMEA_FROM_GPS    iGPS            $GPGGA,200140.000,4144.3407,N,06959.5843,W,2,10,0.94,6.9,M,-34.3,M,0000,0000*5C 
257.753         GPS_NMEA_FROM_GPS    iGPS            $GPGGA,200141.000,4144.3407,N,06959.5843,W,2,10,0.94,6.9,M,-34.3,M,0000,0000*5D 
258.756         GPS_NMEA_FROM_GPS    iGPS            $GPGGA,200142.000,4144.3407,N,06959.5843,W,2,10,0.94,6.9,M,-34.3,M,0000,0000*5E 
259.759         GPS_NMEA_FROM_GPS    iGPS            $GPGGA,200143.000,4144.3407,N,06959.5843,W,2,10,0.94,6.9,M,-34.3,M,0000,0000*5F 
260.862         GPS_NMEA_FROM_GPS    iGPS            $GPRMC,200144.000,A,4144.3408,N,06959.5844,W,0.09,303.93,210321,,,D*7E 
261.764         GPS_NMEA_FROM_GPS    iGPS            $GPGGA,200145.000,4144.3408,N,06959.5844,W,2,09,1.00,6.8,M,-34.3,M,0000,0000*54 
262.767         GPS_NMEA_FROM_GPS    iGPS            $GPGGA,200146.000,4144.3408,N,06959.5844,W,2,09,1.00,6.8,M,-34.3,M,0000,0000*57 
263.770         GPS_NMEA_FROM_GPS    iGPS            $GPGGA,200147.000,4144.3408,N,06959.5844,W,2,09,1.00,6.8,M,-34.3,M,0000,0000*56 
264.773         GPS_NMEA_FROM_GPS    iGPS            $GPGGA,200148.000,4144.3408,N,06959.5844,W,2,09,1.00,6.8,M,-34.3,M,0000,0000*59 
265.775         GPS_NMEA_FROM_GPS    iGPS            $GPGGA,200149.000,4144.3408,N,06959.5844,W,2,09,1.00,6.8,M,-34.3,M,0000,0000*58 
266.778         GPS_NMEA_FROM_GPS    iGPS            $GPGGA,200150.000,4144.3408,N,06959.5844,W,2,09,1.03,6.8,M,-34.3,M,0000,0000*53 
267.781         GPS_NMEA_FROM_GPS    iGPS            $GPGGA,200151.000,4144.3408,N,06959.5844,W,2,09,1.03,6.8,M,-34.3,M,0000,0000*52 
268.784         GPS_NMEA_FROM_GPS    iGPS            $GPGGA,200152.000,4144.3408,N,06959.5844,W,2,09,1.03,6.8,M,-34.3,M,0000,0000*51 
269.786         GPS_NMEA_FROM_GPS    iGPS            $GPGGA,200153.000,4144.3408,N,06959.5844,W,2,09,1.03,6.8,M,-34.3,M,0000,0000*50 
270.789         GPS_NMEA_FROM_GPS    iGPS            $GPGGA,200154.000,4144.3409,N,06959.5844,W,2,09,1.00,6.8,M,-34.3,M,0000,0000*55 
271.791         GPS_NMEA_FROM_GPS    iGPS            $GPGGA,200155.000,4144.3409,N,06959.5844,W,2,09,1.00,6.8,M,-34.3,M,0000,0000*54 
272.794         GPS_NMEA_FROM_GPS    iGPS            $GPGGA,200156.000,4144.3409,N,06959.5844,W,2,09,1.00,6.8,M,-34.3,M,0000,0000*57 
273.797         GPS_NMEA_FROM_GPS    iGPS            $GPGGA,200157.000,4144.3409,N,06959.5843,W,2,09,1.00,6.8,M,-34.3,M,0000,0000*51 
274.799         GPS_NMEA_FROM_GPS    iGPS            $GPRMC,200158.000,A,4144.3409,N,06959.5842,W,0.18,74.26,210321,,,D*49 
275.802         GPS_NMEA_FROM_GPS    iGPS            $GPGGA,200159.000,4144.3409,N,06959.5842,W,2,09,1.03,6.8,M,-34.3,M,0000,0000*5D 
276.804         GPS_NMEA_FROM_GPS    iGPS            $GPGGA,200200.000,4144.3409,N,06959.5842,W,2,09,1.03,6.8,M,-34.3,M,0000,0000*52 
277.807         GPS_NMEA_FROM_GPS    iGPS            $GPGGA,200201.000,4144.3409,N,06959.5842,W,2,09,1.03,6.8,M,-34.3,M,0000,0000*53 
278.810         GPS_NMEA_FROM_GPS    iGPS            $GPRMC,200202.000,A,4144.3409,N,06959.5842,W,0.11,102.22,210321,,,D*78 
279.712         GPS_NMEA_FROM_GPS    iGPS            $GPGGA,200203.000,4144.3409,N,06959.5842,W,2,08,1.14,6.8,M,-34.3,M,0000,0000*56 
280.714         GPS_NMEA_FROM_GPS    iGPS            $GPGGA,200204.000,4144.3409,N,06959.5842,W,2,09,1.02,6.8,M,-34.3,M,0000,0000*57 
281.817         GPS_NMEA_FROM_GPS    iGPS            $GPGGA,200205.000,4144.3409,N,06959.5842,W,2,08,1.14,6.8,M,-34.3,M,0000,0000*50 
282.720         GPS_NMEA_FROM_GPS    iGPS            $GPGGA,200206.000,4144.3409,N,06959.5842,W,2,10,0.94,6.8,M,-34.3,M,0000,0000*53 
283.822         GPS_NMEA_FROM_GPS    iGPS            $GPRMC,200207.000,A,4144.3409,N,06959.5842,W,0.11,115.62,210321,,,D*7F 
284.825         GPS_NMEA_FROM_GPS    iGPS            $GPRMC,200208.000,A,4144.3409,N,06959.5842,W,0.12,113.92,210321,,,D*7A 
285.829         GPS_NMEA_FROM_GPS    iGPS            $GPGGA,200209.000,4144.3409,N,06959.5842,W,2,09,1.03,6.8,M,-34.3,M,0000,0000*5B 
286.731         GPS_NMEA_FROM_GPS    iGPS            $GPGGA,200210.000,4144.3409,N,06959.5842,W,2,09,1.03,6.8,M,-34.3,M,0000,0000*53 
287.833         GPS_NMEA_FROM_GPS    iGPS            $GPGGA,200211.000,4144.3409,N,06959.5842,W,2,09,1.03,6.8,M,-34.3,M,0000,0000*52 
288.736         GPS_NMEA_FROM_GPS    iGPS            $GPGGA,200212.000,4144.3409,N,06959.5841,W,2,09,1.03,6.8,M,-34.3,M,0000,0000*52 
289.839         GPS_NMEA_FROM_GPS    iGPS            $GPGGA,200213.000,4144.3409,N,06959.5840,W,2,09,1.03,6.8,M,-34.3,M,0000,0000*52 
290.843         GPS_NMEA_FROM_GPS    iGPS            $GPGGA,200214.000,4144.3408,N,06959.5838,W,2,10,0.94,6.8,M,-34.3,M,0000,0000*5C 
291.844         GPS_NMEA_FROM_GPS    iGPS            $GPGGA,200215.000,4144.3408,N,06959.5836,W,2,09,1.01,6.8,M,-34.3,M,0000,0000*56 
292.847         GPS_NMEA_FROM_GPS    iGPS            $GPRMC,200216.000,A,4144.3407,N,06959.5835,W,0.52,117.79,210321,,,D*7E 
293.850         GPS_NMEA_FROM_GPS    iGPS            $GPRMC,200217.000,A,4144.3406,N,06959.5833,W,0.54,120.60,210321,,,D*72 
294.853         GPS_NMEA_FROM_GPS    iGPS            $GPRMC,200218.000,A,4144.3405,N,06959.5832,W,0.54,123.28,210321,,,D*70 
295.755         GPS_NMEA_FROM_GPS    iGPS            $GPGGA,200219.000,4144.3404,N,06959.5830,W,2,10,0.94,6.8,M,-34.3,M,0000,0000*55 
296.858         GPS_NMEA_FROM_GPS    iGPS            $GPRMC,200220.000,A,4144.3403,N,06959.5829,W,0.55,128.94,210321,,,D*7A 
297.759         GPS_NMEA_FROM_GPS    iGPS            $GPGGA,200221.000,4144.3402,N,06959.5827,W,2,09,1.03,6.7,M,-34.3,M,0000,0000*56 
298.862         GPS_NMEA_FROM_GPS    iGPS            $GPRMC,200222.000,A,4144.3401,N,06959.5826,W,0.59,131.22,210321,,,D*7C 
299.764         GPS_NMEA_FROM_GPS    iGPS            $GPGGA,200223.000,4144.3399,N,06959.5824,W,2,09,1.00,6.8,M,-34.3,M,0000,0000*5E 
300.768         GPS_NMEA_FROM_GPS    iGPS            $GPGGA,200224.000,4144.3398,N,06959.5822,W,2,09,1.00,6.8,M,-34.3,M,0000,0000*5E 
301.770         GPS_NMEA_FROM_GPS    iGPS            $GPGGA,200225.000,4144.3397,N,06959.5820,W,2,10,0.94,6.7,M,-34.3,M,0000,0000*59 
302.874         GPS_NMEA_FROM_GPS    iGPS            $GPRMC,200226.000,A,4144.3396,N,06959.5818,W,0.60,132.80,210321,,,D*7D 
303.775         GPS_NMEA_FROM_GPS    iGPS            $GPGGA,200227.000,4144.3394,N,06959.5815,W,2,10,0.94,6.4,M,-34.3,M,0000,0000*5D 
304.778         GPS_NMEA_FROM_GPS    iGPS            $GPGGA,200228.000,4144.3393,N,06959.5813,W,2,09,1.03,6.2,M,-34.3,M,0000,0000*52 
305.781         GPS_NMEA_FROM_GPS    iGPS            $GPGGA,200229.000,4144.3392,N,06959.5811,W,2,09,1.00,6.0,M,-34.3,M,0000,0000*51 
306.784         GPS_NMEA_FROM_GPS    iGPS            $GPGGA,200230.000,4144.3390,N,06959.5808,W,2,09,1.00,5.8,M,-34.3,M,0000,0000*58 
307.786         GPS_NMEA_FROM_GPS    iGPS            $GPGGA,200231.000,4144.3389,N,06959.5806,W,2,09,1.03,5.6,M,-34.3,M,0000,0000*52 
308.789         GPS_NMEA_FROM_GPS    iGPS            $GPGGA,200232.000,4144.3387,N,06959.5803,W,2,09,1.00,5.4,M,-34.3,M,0000,0000*5B 
309.792         GPS_NMEA_FROM_GPS    iGPS            $GPGGA,200233.000,4144.3386,N,06959.5801,W,2,09,1.00,5.2,M,-34.3,M,0000,0000*5F 
310.795         GPS_NMEA_FROM_GPS    iGPS            $GPGGA,200234.000,4144.3384,N,06959.5798,W,2,09,1.03,5.1,M,-34.3,M,0000,0000*55 
311.797         GPS_NMEA_FROM_GPS    iGPS            $GPGGA,200235.000,4144.3383,N,06959.5796,W,2,09,1.00,4.9,M,-34.3,M,0000,0000*57 
312.800         GPS_NMEA_FROM_GPS    iGPS            $GPGGA,200236.000,4144.3381,N,06959.5794,W,2,09,1.00,4.8,M,-34.3,M,0000,0000*55 
313.804         GPS_NMEA_FROM_GPS    iGPS            $GPGGA,200237.000,4144.3380,N,06959.5792,W,2,09,1.03,4.7,M,-34.3,M,0000,0000*5F 
314.807         GPS_NMEA_FROM_GPS    iGPS            $GPGGA,200238.000,4144.3379,N,06959.5790,W,2,09,1.00,4.6,M,-34.3,M,0000,0000*56 
315.810         GPS_NMEA_FROM_GPS    iGPS            $GPGGA,200239.000,4144.3378,N,06959.5789,W,2,09,1.00,4.6,M,-34.3,M,0000,0000*5E 
316.813         GPS_NMEA_FROM_GPS    iGPS            $GPGGA,200240.000,4144.3376,N,06959.5787,W,2,09,1.03,4.5,M,-34.3,M,0000,0000*50 
317.816         GPS_NMEA_FROM_GPS    iGPS            $GPRMC,200241.000,A,4144.3374,N,06959.5786,W,0.61,138.89,210321,,,D*7A 
318.818         GPS_NMEA_FROM_GPS    iGPS            $GPGGA,200242.000,4144.3373,N,06959.5785,W,2,09,1.00,4.6,M,-34.3,M,0000,0000*55 
319.821         GPS_NMEA_FROM_GPS    iGPS            $GPRMC,200243.000,A,4144.3371,N,06959.5783,W,0.58,138.79,210321,,,D*7D 
320.823         GPS_NMEA_FROM_GPS    iGPS            $GPGGA,200244.000,4144.3370,N,06959.5782,W,2,10,0.94,4.8,M,-34.3,M,0000,0000*5D 
321.826         GPS_NMEA_FROM_GPS    iGPS            $GPGGA,200245.000,4144.3368,N,06959.5781,W,2,09,1.00,4.9,M,-34.3,M,0000,0000*53 
322.729         GPS_NMEA_FROM_GPS    iGPS            $GPGGA,200246.000,4144.3367,N,06959.5780,W,2,09,1.00,5.0,M,-34.3,M,0000,0000*56 
323.831         GPS_NMEA_FROM_GPS    iGPS            $GPRMC,200247.000,A,4144.3365,N,06959.5779,W,0.55,136.59,210321,,,D*78 
324.734         GPS_NMEA_FROM_GPS    iGPS            $GPGGA,200248.000,4144.3364,N,06959.5778,W,2,09,1.00,5.1,M,-34.3,M,0000,0000*5D 
325.837         GPS_NMEA_FROM_GPS    iGPS            $GPGGA,200249.000,4144.3362,N,06959.5777,W,2,09,1.00,5.2,M,-34.3,M,0000,0000*56 
326.739         GPS_NMEA_FROM_GPS    iGPS            $GPGGA,200250.000,4144.3361,N,06959.5776,W,2,09,1.03,5.3,M,-34.3,M,0000,0000*5E 
327.842         GPS_NMEA_FROM_GPS    iGPS            $GPGGA,200251.000,4144.3360,N,06959.5774,W,2,09,1.00,5.3,M,-34.3,M,0000,0000*5F 
328.744         GPS_NMEA_FROM_GPS    iGPS            $GPGGA,200252.000,4144.3358,N,06959.5773,W,2,09,1.00,5.4,M,-34.3,M,0000,0000*57 
329.847         GPS_NMEA_FROM_GPS    iGPS            $GPRMC,200253.000,A,4144.3357,N,06959.5772,W,0.58,133.78,210321,,,D*7C 
330.750         GPS_NMEA_FROM_GPS    iGPS            $GPGGA,200254.000,4144.3355,N,06959.5771,W,2,08,1.08,5.6,M,-34.3,M,0000,0000*55 
331.752         GPS_NMEA_FROM_GPS    iGPS            $GPGGA,200255.000,4144.3354,N,06959.5770,W,2,08,1.08,5.7,M,-34.3,M,0000,0000*55 
332.755         GPS_NMEA_FROM_GPS    iGPS            $GPGGA,200256.000,4144.3353,N,06959.5769,W,2,08,1.14,5.8,M,-34.3,M,0000,0000*5B 
333.758         GPS_NMEA_FROM_GPS    iGPS            $GPGGA,200257.000,4144.3352,N,06959.5767,W,2,10,0.94,5.8,M,-34.3,M,0000,0000*55 
334.861         GPS_NMEA_FROM_GPS    iGPS            $GPRMC,200258.000,A,4144.3350,N,06959.5766,W,0.59,129.56,210321,,,D*73 
335.863         GPS_NMEA_FROM_GPS    iGPS            $GPRMC,200259.000,A,4144.3349,N,06959.5765,W,0.59,128.01,210321,,,D*7A 
336.866         GPS_NMEA_FROM_GPS    iGPS            $GPRMC,200300.000,A,4144.3348,N,06959.5763,W,0.62,126.63,210321,,,D*72 
337.869         GPS_NMEA_FROM_GPS    iGPS            $GPRMC,200301.000,A,4144.3346,N,06959.5762,W,0.62,125.31,210321,,,D*78 
338.771         GPS_NMEA_FROM_GPS    iGPS            $GPGGA,200302.000,4144.3345,N,06959.5760,W,2,09,1.03,6.0,M,-34.3,M,0000,0000*59 
339.874         GPS_NMEA_FROM_GPS    iGPS            $GPRMC,200303.000,A,4144.3344,N,06959.5759,W,0.59,123.98,210321,,,D*7D 
340.777         GPS_NMEA_FROM_GPS    iGPS            $GPGGA,200304.000,4144.3343,N,06959.5758,W,2,09,1.00,6.0,M,-34.3,M,0000,0000*51 
341.779         GPS_NMEA_FROM_GPS    iGPS            $GPGGA,200305.000,4144.3342,N,06959.5756,W,2,09,1.00,6.0,M,-34.3,M,0000,0000*5F 
342.782         GPS_NMEA_FROM_GPS    iGPS            $GPGGA,200306.000,4144.3340,N,06959.5755,W,2,09,1.03,6.0,M,-34.3,M,0000,0000*5E 
343.784         GPS_NMEA_FROM_GPS    iGPS            $GPGGA,200307.000,4144.3339,N,06959.5754,W,2,09,1.00,6.0,M,-34.3,M,0000,0000*53 
344.787         GPS_NMEA_FROM_GPS    iGPS            $GPGGA,200308.000,4144.3338,N,06959.5753,W,2,09,1.00,6.0,M,-34.3,M,0000,0000*5A 
345.789         GPS_NMEA_FROM_GPS    iGPS            $GPGGA,200309.000,4144.3337,N,06959.5751,W,2,08,1.14,6.0,M,-34.3,M,0000,0000*52 
346.792         GPS_NMEA_FROM_GPS    iGPS            $GPGGA,200310.000,4144.3336,N,06959.5750,W,2,09,1.00,6.1,M,-34.3,M,0000,0000*5F 
347.794         GPS_NMEA_FROM_GPS    iGPS            $GPGGA,200311.000,4144.3334,N,06959.5749,W,2,09,1.00,6.1,M,-34.3,M,0000,0000*54 
348.797         GPS_NMEA_FROM_GPS    iGPS            $GPGGA,200312.000,4144.3333,N,06959.5747,W,2,08,1.08,6.2,M,-34.3,M,0000,0000*54 
349.802         GPS_NMEA_FROM_GPS    iGPS            $GPGGA,200313.000,4144.3332,N,06959.5746,W,2,09,1.03,6.2,M,-34.3,M,0000,0000*5F 
350.804         GPS_NMEA_FROM_GPS    iGPS            $GPGGA,200314.000,4144.3331,N,06959.5745,W,2,09,1.00,6.2,M,-34.3,M,0000,0000*5B 
351.807         GPS_NMEA_FROM_GPS    iGPS            $GPRMC,200315.000,A,4144.3330,N,06959.5743,W,0.57,122.81,210321,,,D*75 
352.810         GPS_NMEA_FROM_GPS    iGPS            $GPRMC,200316.000,A,4144.3329,N,06959.5742,W,0.55,122.29,210321,,,D*7F 
353.812         GPS_NMEA_FROM_GPS    iGPS            $GPRMC,200317.000,A,4144.3328,N,06959.5740,W,0.54,122.15,210321,,,D*73 
354.815         GPS_NMEA_FROM_GPS    iGPS            $GPGGA,200318.000,4144.3327,N,06959.5739,W,2,10,0.94,6.4,M,-34.3,M,0000,0000*59 
355.818         GPS_NMEA_FROM_GPS    iGPS            $GPGGA,200319.000,4144.3326,N,06959.5737,W,2,10,0.94,6.4,M,-34.3,M,0000,0000*57 
356.820         GPS_NMEA_FROM_GPS    iGPS            $GPRMC,200320.000,A,4144.3326,N,06959.5735,W,0.56,121.69,210321,,,D*71 
357.823         GPS_NMEA_FROM_GPS    iGPS            $GPGGA,200321.000,4144.3325,N,06959.5733,W,2,09,1.00,6.5,M,-34.3,M,0000,0000*5E 
358.826         GPS_NMEA_FROM_GPS    iGPS            $GPGGA,200322.000,4144.3324,N,06959.5732,W,2,09,1.00,6.5,M,-34.3,M,0000,0000*5D 
359.828         GPS_NMEA_FROM_GPS    iGPS            $GPGGA,200323.000,4144.3323,N,06959.5730,W,2,09,1.00,6.5,M,-34.3,M,0000,0000*59 
360.832         GPS_NMEA_FROM_GPS    iGPS            $GPRMC,200324.000,A,4144.3322,N,06959.5727,W,0.64,122.82,210321,,,D*75 
361.834         GPS_NMEA_FROM_GPS    iGPS            $GPGGA,200325.000,4144.3321,N,06959.5725,W,2,10,0.94,6.3,M,-34.3,M,0000,0000*5B 
362.836         GPS_NMEA_FROM_GPS    iGPS            $GPGGA,200326.000,4144.3320,N,06959.5722,W,2,10,0.94,6.2,M,-34.3,M,0000,0000*5F 
363.839         GPS_NMEA_FROM_GPS    iGPS            $GPGGA,200327.000,4144.3319,N,06959.5720,W,2,10,0.94,6.1,M,-34.3,M,0000,0000*55 
364.742         GPS_NMEA_FROM_GPS    iGPS            $GPGGA,200328.000,4144.3318,N,06959.5718,W,2,10,0.94,6.0,M,-34.3,M,0000,0000*51 
365.744         GPS_NMEA_FROM_GPS    iGPS            $GPGGA,200329.000,4144.3317,N,06959.5716,W,2,09,1.03,6.0,M,-34.3,M,0000,0000*56 
366.747         GPS_NMEA_FROM_GPS    iGPS            $GPGGA,200330.000,4144.3316,N,06959.5714,W,2,09,1.00,6.0,M,-34.3,M,0000,0000*5E 
367.750         GPS_NMEA_FROM_GPS    iGPS            $GPGGA,200331.000,4144.3315,N,06959.5712,W,2,09,1.00,6.0,M,-34.3,M,0000,0000*5A 
368.853         GPS_NMEA_FROM_GPS    iGPS            $GPRMC,200332.000,A,4144.3314,N,06959.5710,W,0.58,119.78,210321,,,D*71 
369.855         GPS_NMEA_FROM_GPS    iGPS            $GPRMC,200333.000,A,4144.3313,N,06959.5709,W,0.58,120.67,210321,,,D*7B 
370.758         GPS_NMEA_FROM_GPS    iGPS            $GPGGA,200334.000,4144.3312,N,06959.5707,W,2,09,1.00,6.0,M,-34.3,M,0000,0000*5C 
371.861         GPS_NMEA_FROM_GPS    iGPS            $GPRMC,200335.000,A,4144.3311,N,06959.5706,W,0.55,122.13,210321,,,D*7C 
372.763         GPS_NMEA_FROM_GPS    iGPS            $GPGGA,200336.000,4144.3309,N,06959.5704,W,2,09,1.00,5.8,M,-34.3,M,0000,0000*5C 
373.766         GPS_NMEA_FROM_GPS    iGPS            $GPGGA,200337.000,4144.3308,N,06959.5703,W,2,09,1.00,5.8,M,-34.3,M,0000,0000*5B 
374.769         GPS_NMEA_FROM_GPS    iGPS            $GPGGA,200338.000,4144.3307,N,06959.5701,W,2,09,1.00,5.7,M,-34.3,M,0000,0000*56 
375.771         GPS_NMEA_FROM_GPS    iGPS            $GPGGA,200339.000,4144.3306,N,06959.5699,W,2,09,1.00,5.6,M,-34.3,M,0000,0000*57 
376.775         GPS_NMEA_FROM_GPS    iGPS            $GPGGA,200340.000,4144.3305,N,06959.5696,W,2,10,0.94,5.6,M,-34.3,M,0000,0000*51 
377.780         GPS_NMEA_FROM_GPS    iGPS            $GPGGA,200341.000,4144.3304,N,06959.5694,W,2,09,1.00,5.5,M,-34.3,M,0000,0000*54 
378.783         GPS_NMEA_FROM_GPS    iGPS            $GPGGA,200342.000,4144.3303,N,06959.5692,W,2,09,1.00,5.5,M,-34.3,M,0000,0000*56 
379.886         GPS_NMEA_FROM_GPS    iGPS            $GPRMC,200343.000,A,4144.3302,N,06959.5690,W,0.55,117.54,210321,,,D*74 
380.789         GPS_NMEA_FROM_GPS    iGPS            $GPGGA,200344.000,4144.3301,N,06959.5688,W,2,10,0.94,5.4,M,-34.3,M,0000,0000*5C 
381.794         GPS_NMEA_FROM_GPS    iGPS            $GPGGA,200345.000,4144.3300,N,06959.5686,W,2,10,0.94,5.4,M,-34.3,M,0000,0000*52 
382.797         GPS_NMEA_FROM_GPS    iGPS            $GPGGA,200346.000,4144.3300,N,06959.5684,W,2,10,0.94,5.4,M,-34.3,M,0000,0000*53 
383.800         GPS_NMEA_FROM_GPS    iGPS            $GPGGA,200347.000,4144.3299,N,06959.5682,W,2,10,0.94,5.4,M,-34.3,M,0000,0000*55 
384.802         GPS_NMEA_FROM_GPS    iGPS            $GPGGA,200348.000,4144.3298,N,06959.5681,W,2,10,0.94,5.4,M,-34.3,M,0000,0000*58 
385.805         GPS_NMEA_FROM_GPS    iGPS            $GPGGA,200349.000,4144.3297,N,06959.5679,W,2,10,0.94,5.4,M,-34.3,M,0000,0000*51 
386.808         GPS_NMEA_FROM_GPS    iGPS            $GPGGA,200350.000,4144.3296,N,06959.5677,W,2,10,0.94,5.5,M,-34.3,M,0000,0000*57 
387.811         GPS_NMEA_FROM_GPS    iGPS            $GPRMC,200351.000,A,4144.3295,N,06959.5675,W,0.56,122.41,210321,,,D*72 
388.813         GPS_NMEA_FROM_GPS    iGPS            $GPGGA,200352.000,4144.3294,N,06959.5673,W,2,10,0.94,5.5,M,-34.3,M,0000,0000*53 
389.815         GPS_NMEA_FROM_GPS    iGPS            $GPGGA,200353.000,4144.3294,N,06959.5671,W,2,10,0.94,5.5,M,-34.3,M,0000,0000*50 
390.818         GPS_NMEA_FROM_GPS    iGPS            $GPGGA,200354.000,4144.3293,N,06959.5669,W,2,10,0.94,5.5,M,-34.3,M,0000,0000*59 
391.821         GPS_NMEA_FROM_GPS    iGPS            $GPRMC,200355.000,A,4144.3293,N,06959.5667,W,0.60,114.32,210321,,,D*77 
392.823         GPS_NMEA_FROM_GPS    iGPS            $GPGGA,200356.000,4144.3293,N,06959.5664,W,2,10,0.94,5.6,M,-34.3,M,0000,0000*55 
393.726         GPS_NMEA_FROM_GPS    iGPS            $GPGGA,200357.000,4144.3292,N,06959.5663,W,2,09,1.03,5.7,M,-34.3,M,0000,0000*54 
394.729         GPS_NMEA_FROM_GPS    iGPS            $GPGGA,200358.000,4144.3292,N,06959.5661,W,2,09,1.00,5.8,M,-34.3,M,0000,0000*55 
395.732         GPS_NMEA_FROM_GPS    iGPS            $GPGGA,200359.000,4144.3291,N,06959.5659,W,2,09,1.00,5.8,M,-34.3,M,0000,0000*5C 
396.835         GPS_NMEA_FROM_GPS    iGPS            $GPGGA,200400.000,4144.3290,N,06959.5657,W,2,09,1.03,5.8,M,-34.3,M,0000,0000*5B 
397.837         GPS_NMEA_FROM_GPS    iGPS            $GPGGA,200401.000,4144.3290,N,06959.5654,W,2,09,1.03,5.8,M,-34.3,M,0000,0000*59 
398.739         GPS_NMEA_FROM_GPS    iGPS            $GPGGA,200402.000,4144.3289,N,06959.5652,W,2,09,1.00,5.9,M,-34.3,M,0000,0000*56 
399.843         GPS_NMEA_FROM_GPS    iGPS            $GPGGA,200403.000,4144.3289,N,06959.5650,W,2,09,1.00,5.8,M,-34.3,M,0000,0000*54 
400.846         GPS_NMEA_FROM_GPS    iGPS            $GPRMC,200404.000,A,4144.3289,N,06959.5647,W,0.61,112.31,210321,,,D*79 
401.748         GPS_NMEA_FROM_GPS    iGPS            $GPGGA,200405.000,4144.3288,N,06959.5645,W,2,09,1.00,5.8,M,-34.3,M,0000,0000*57 
402.751         GPS_NMEA_FROM_GPS    iGPS            $GPGGA,200406.000,4144.3288,N,06959.5643,W,2,09,1.03,5.8,M,-34.3,M,0000,0000*51 
403.754         GPS_NMEA_FROM_GPS    iGPS            $GPGGA,200407.000,4144.3288,N,06959.5641,W,2,09,1.03,5.9,M,-34.3,M,0000,0000*53 
404.757         GPS_NMEA_FROM_GPS    iGPS            $GPGGA,200408.000,4144.3287,N,06959.5638,W,2,09,1.00,5.9,M,-34.3,M,0000,0000*5E 
405.860         GPS_NMEA_FROM_GPS    iGPS            $GPRMC,200409.000,A,4144.3287,N,06959.5635,W,0.61,109.26,210321,,,D*73 
406.762         GPS_NMEA_FROM_GPS    iGPS            $GPGGA,200410.000,4144.3287,N,06959.5633,W,2,09,1.03,6.0,M,-34.3,M,0000,0000*55 
407.764         GPS_NMEA_FROM_GPS    iGPS            $GPGGA,200411.000,4144.3286,N,06959.5630,W,2,09,1.00,6.0,M,-34.3,M,0000,0000*55 
408.767         GPS_NMEA_FROM_GPS    iGPS            $GPGGA,200412.000,4144.3286,N,06959.5628,W,2,09,1.00,6.0,M,-34.3,M,0000,0000*5F 
409.770         GPS_NMEA_FROM_GPS    iGPS            $GPGGA,200413.000,4144.3286,N,06959.5626,W,2,09,1.03,6.1,M,-34.3,M,0000,0000*52 
410.773         GPS_NMEA_FROM_GPS    iGPS            $GPGGA,200414.000,4144.3286,N,06959.5623,W,2,09,1.03,6.1,M,-34.3,M,0000,0000*50 
411.775         GPS_NMEA_FROM_GPS    iGPS            $GPGGA,200415.000,4144.3285,N,06959.5621,W,2,09,1.00,6.2,M,-34.3,M,0000,0000*50 
412.779         GPS_NMEA_FROM_GPS    iGPS            $GPRMC,200416.000,A,4144.3285,N,06959.5619,W,0.61,107.07,210321,,,D*7C 
413.781         GPS_NMEA_FROM_GPS    iGPS            $GPGGA,200417.000,4144.3285,N,06959.5616,W,2,09,1.03,6.2,M,-34.3,M,0000,0000*55 
414.784         GPS_NMEA_FROM_GPS    iGPS            $GPGGA,200418.000,4144.3285,N,06959.5614,W,2,09,1.00,6.3,M,-34.3,M,0000,0000*5A 
415.787         GPS_NMEA_FROM_GPS    iGPS            $GPGGA,200419.000,4144.3285,N,06959.5611,W,2,09,1.00,6.3,M,-34.3,M,0000,0000*5E 
416.689         GPS_NMEA_FROM_GPS    iGPS            $GPGGA,200420.000,4144.3284,N,06959.5609,W,2,09,1.03,6.4,M,-34.3,M,0000,0000*58 
417.792         GPS_NMEA_FROM_GPS    iGPS            $GPGGA,200421.000,4144.3284,N,06959.5607,W,2,09,1.00,6.4,M,-34.3,M,0000,0000*54 
418.795         GPS_NMEA_FROM_GPS    iGPS            $GPGGA,200422.000,4144.3283,N,06959.5604,W,2,09,1.00,6.4,M,-34.3,M,0000,0000*53 
419.797         GPS_NMEA_FROM_GPS    iGPS            $GPGGA,200423.000,4144.3283,N,06959.5602,W,2,09,1.00,6.5,M,-34.3,M,0000,0000*55 
420.800         GPS_NMEA_FROM_GPS    iGPS            $GPGGA,200424.000,4144.3283,N,06959.5599,W,2,09,1.00,6.5,M,-34.3,M,0000,0000*53 
421.803         GPS_NMEA_FROM_GPS    iGPS            $GPGGA,200425.000,4144.3283,N,06959.5597,W,2,09,1.00,6.5,M,-34.3,M,0000,0000*5C 
422.807         GPS_NMEA_FROM_GPS    iGPS            $GPRMC,200426.000,A,4144.3283,N,06959.5594,W,0.58,103.81,210321,,,D*7F 
423.809         GPS_NMEA_FROM_GPS    iGPS            $GPRMC,200427.000,A,4144.3283,N,06959.5592,W,0.61,102.78,210321,,,D*75 
424.811         GPS_NMEA_FROM_GPS    iGPS            $GPGGA,200428.000,4144.3283,N,06959.5589,W,2,09,1.00,6.6,M,-34.3,M,0000,0000*5D 
425.714         GPS_NMEA_FROM_GPS    iGPS            $GPGGA,200429.000,4144.3282,N,06959.5587,W,2,09,1.00,6.6,M,-34.3,M,0000,0000*53 
426.816         GPS_NMEA_FROM_GPS    iGPS            $GPGGA,200430.000,4144.3282,N,06959.5585,W,2,09,1.00,6.6,M,-34.3,M,0000,0000*59 
427.820         GPS_NMEA_FROM_GPS    iGPS            $GPGGA,200431.000,4144.3282,N,06959.5583,W,2,09,1.00,6.7,M,-34.3,M,0000,0000*5F 
428.822         GPS_NMEA_FROM_GPS    iGPS            $GPGGA,200432.000,4144.3282,N,06959.5581,W,2,09,1.00,6.7,M,-34.3,M,0000,0000*5E 
429.725         GPS_NMEA_FROM_GPS    iGPS            $GPGGA,200433.000,4144.3282,N,06959.5579,W,2,09,1.00,6.7,M,-34.3,M,0000,0000*58 
430.727         GPS_NMEA_FROM_GPS    iGPS            $GPGGA,200434.000,4144.3282,N,06959.5576,W,2,09,1.00,6.7,M,-34.3,M,0000,0000*50 
431.731         GPS_NMEA_FROM_GPS    iGPS            $GPGGA,200435.000,4144.3282,N,06959.5574,W,2,09,1.00,6.7,M,-34.3,M,0000,0000*53 
432.733         GPS_NMEA_FROM_GPS    iGPS            $GPGGA,200436.000,4144.3282,N,06959.5572,W,2,09,1.00,6.6,M,-34.3,M,0000,0000*57 
433.836         GPS_NMEA_FROM_GPS    iGPS            $GPGGA,200437.000,4144.3282,N,06959.5569,W,2,09,1.00,6.7,M,-34.3,M,0000,0000*5D 
434.839         GPS_NMEA_FROM_GPS    iGPS            $GPRMC,200438.000,A,4144.3282,N,06959.5567,W,0.59,98.25,210321,,,D*41 
435.841         GPS_NMEA_FROM_GPS    iGPS            $GPRMC,200439.000,A,4144.3282,N,06959.5565,W,0.58,97.87,210321,,,D*44 
436.743         GPS_NMEA_FROM_GPS    iGPS            $GPGGA,200440.000,4144.3282,N,06959.5563,W,2,09,1.00,6.7,M,-34.3,M,0000,0000*57 
437.745         GPS_NMEA_FROM_GPS    iGPS            $GPGGA,200441.000,4144.3282,N,06959.5561,W,2,09,1.00,6.7,M,-34.3,M,0000,0000*54 
438.849         GPS_NMEA_FROM_GPS    iGPS            $GPRMC,200442.000,A,4144.3282,N,06959.5558,W,0.58,96.47,210321,,,D*4B 
439.751         GPS_NMEA_FROM_GPS    iGPS            $GPGGA,200443.000,4144.3282,N,06959.5556,W,2,09,1.00,6.7,M,-34.3,M,0000,0000*52 
440.753         GPS_NMEA_FROM_GPS    iGPS            $GPGGA,200444.000,4144.3282,N,06959.5553,W,2,09,1.00,6.8,M,-34.3,M,0000,0000*5F 
441.756         GPS_NMEA_FROM_GPS    iGPS            $GPGGA,200445.000,4144.3282,N,06959.5551,W,2,09,1.00,6.8,M,-34.3,M,0000,0000*5C 
442.758         GPS_NMEA_FROM_GPS    iGPS            $GPGGA,200446.000,4144.3281,N,06959.5549,W,2,10,0.94,6.8,M,-34.3,M,0000,0000*51 
443.761         GPS_NMEA_FROM_GPS    iGPS            $GPGGA,200447.000,4144.3281,N,06959.5546,W,2,09,1.00,6.9,M,-34.3,M,0000,0000*5A 
444.764         GPS_NMEA_FROM_GPS    iGPS            $GPGGA,200448.000,4144.3281,N,06959.5544,W,2,09,1.00,6.9,M,-34.3,M,0000,0000*57 
445.766         GPS_NMEA_FROM_GPS    iGPS            $GPGGA,200449.000,4144.3281,N,06959.5541,W,2,09,1.00,6.9,M,-34.3,M,0000,0000*53 
446.769         GPS_NMEA_FROM_GPS    iGPS            $GPRMC,200450.000,A,4144.3281,N,06959.5539,W,0.59,94.01,210321,,,D*4D 
447.771         GPS_NMEA_FROM_GPS    iGPS            $GPGGA,200451.000,4144.3281,N,06959.5537,W,2,09,1.00,7.0,M,-34.3,M,0000,0000*53 
448.774         GPS_NMEA_FROM_GPS    iGPS            $GPGGA,200452.000,4144.3281,N,06959.5535,W,2,09,1.00,7.1,M,-34.3,M,0000,0000*53 
