1.670           GPS_NMEA_FROM_GPS    iGPS            $GPRMC,183509.000,A,4144.3490,N,06959.5352,W,0.02,191.94,250321,,,D*77 
2.371           GPS_NMEA_FROM_GPS    iGPS            $GPGGA,183510.000,4144.3490,N,06959.5352,W,2,10,0.84,10.5,M,-34.3,M,0000,0000*6A 
2.371           GPS_NMEA_FROM_GPS    iGPS            $GPGGA,183510.000,4144.3490,N,06959.5352,W,2,10,0.84,10.5,M,-34.3,M,0000,0000*6A 
3.373           GPS_NMEA_FROM_GPS    iGPS            $GPGGA,183511.000,4144.3490,N,06959.5352,W,2,10,0.84,10.5,M,-34.3,M,0000,0000*6B 
4.476           GPS_NMEA_FROM_GPS    iGPS            $GPGGA,183512.000,4144.3490,N,06959.5352,W,2,09,0.95,10.5,M,-34.3,M,0000,0000*60 
5.378           GPS_NMEA_FROM_GPS    iGPS            $GPGGA,183513.000,4144.3490,N,06959.5352,W,2,10,0.84,10.6,M,-34.3,M,0000,0000*6A 
6.380           GPS_NMEA_FROM_GPS    iGPS            $GPGGA,183514.000,4144.3490,N,06959.5352,W,2,10,0.84,10.6,M,-34.3,M,0000,0000*6D 
7.382           GPS_NMEA_FROM_GPS    iGPS            $GPGGA,183515.000,4144.3490,N,06959.5353,W,2,10,0.84,10.6,M,-34.3,M,0000,0000*6D 
8.485           GPS_NMEA_FROM_GPS    iGPS            $GPRMC,183516.000,A,4144.3490,N,06959.5353,W,0.02,237.26,250321,,,D*7E 
9.387           GPS_NMEA_FROM_GPS    iGPS            $GPGGA,183517.000,4144.3490,N,06959.5353,W,2,09,0.95,10.7,M,-34.3,M,0000,0000*66 
10.389          GPS_NMEA_FROM_GPS    iGPS            $GPGGA,183518.000,4144.3490,N,06959.5353,W,2,09,0.95,10.8,M,-34.3,M,0000,0000*66 
11.491          GPS_NMEA_FROM_GPS    iGPS            $GPRMC,183519.000,A,4144.3490,N,06959.5353,W,0.02,186.55,250321,,,D*7C 
11.491          GPS_NMEA_FROM_GPS    iGPS            $GPRMC,183519.000,A,4144.3490,N,06959.5353,W,0.02,186.55,250321,,,D*7C 
12.495          GPS_NMEA_FROM_GPS    iGPS            $GPRMC,183520.000,A,4144.3490,N,06959.5354,W,0.02,241.69,250321,,,D*76 
12.495          GPS_NMEA_FROM_GPS    iGPS            $GPRMC,183520.000,A,4144.3490,N,06959.5354,W,0.02,241.69,250321,,,D*76 
13.497          GPS_NMEA_FROM_GPS    iGPS            $GPRMC,183521.000,A,4144.3490,N,06959.5354,W,0.01,203.51,250321,,,D*79 
14.399          GPS_NMEA_FROM_GPS    iGPS            $GPGGA,183522.000,4144.3490,N,06959.5355,W,2,09,0.94,10.7,M,-34.3,M,0000,0000*67 
15.402          GPS_NMEA_FROM_GPS    iGPS            $GPRMC,183523.000,A,4144.3490,N,06959.5355,W,0.01,213.35,250321,,,D*79 
16.404          GPS_NMEA_FROM_GPS    iGPS            $GPRMC,183524.000,A,4144.3489,N,06959.5355,W,0.01,257.90,250321,,,D*79 
17.406          GPS_NMEA_FROM_GPS    iGPS            $GPGGA,183525.000,4144.3489,N,06959.5355,W,2,09,0.95,11.1,M,-34.3,M,0000,0000*6E 
18.509          GPS_NMEA_FROM_GPS    iGPS            $GPRMC,183526.000,A,4144.3489,N,06959.5355,W,0.01,243.41,250321,,,D*72 
19.511          GPS_NMEA_FROM_GPS    iGPS            $GPRMC,183527.000,A,4144.3489,N,06959.5355,W,0.03,262.58,250321,,,D*7A 
20.413          GPS_NMEA_FROM_GPS    iGPS            $GPGGA,183528.000,4144.3489,N,06959.5356,W,2,09,0.94,11.5,M,-34.3,M,0000,0000*65 
20.413          GPS_NMEA_FROM_GPS    iGPS            $GPGGA,183528.000,4144.3489,N,06959.5356,W,2,09,0.94,11.5,M,-34.3,M,0000,0000*65 
21.416          GPS_NMEA_FROM_GPS    iGPS            $GPGGA,183529.000,4144.3489,N,06959.5356,W,2,09,0.94,11.5,M,-34.3,M,0000,0000*64 
22.419          GPS_NMEA_FROM_GPS    iGPS            $GPGGA,183530.000,4144.3488,N,06959.5356,W,2,09,0.94,11.6,M,-34.3,M,0000,0000*6E 
23.421          GPS_NMEA_FROM_GPS    iGPS            $GPGGA,183531.000,4144.3488,N,06959.5356,W,2,09,0.94,11.6,M,-34.3,M,0000,0000*6F 
23.421          GPS_NMEA_FROM_GPS    iGPS            $GPGGA,183531.000,4144.3488,N,06959.5356,W,2,09,0.94,11.6,M,-34.3,M,0000,0000*6F 
24.423          GPS_NMEA_FROM_GPS    iGPS            $GPGGA,183532.000,4144.3488,N,06959.5357,W,2,09,0.94,11.7,M,-34.3,M,0000,0000*6C 
25.426          GPS_NMEA_FROM_GPS    iGPS            $GPGGA,183533.000,4144.3488,N,06959.5357,W,2,09,0.94,11.6,M,-34.3,M,0000,0000*6C 
26.428          GPS_NMEA_FROM_GPS    iGPS            $GPGGA,183534.000,4144.3488,N,06959.5357,W,2,10,0.84,11.5,M,-34.3,M,0000,0000*61 
27.430          GPS_NMEA_FROM_GPS    iGPS            $GPGGA,183535.000,4144.3487,N,06959.5357,W,2,10,0.84,11.5,M,-34.3,M,0000,0000*6F 
28.433          GPS_NMEA_FROM_GPS    iGPS            $GPRMC,183536.000,A,4144.3487,N,06959.5357,W,0.07,162.55,250321,,,D*7C 
29.435          GPS_NMEA_FROM_GPS    iGPS            $GPGGA,183537.000,4144.3487,N,06959.5357,W,2,10,0.84,11.4,M,-34.3,M,0000,0000*6C 
30.438          GPS_NMEA_FROM_GPS    iGPS            $GPRMC,183538.000,A,4144.3487,N,06959.5356,W,0.06,126.16,250321,,,D*75 
31.440          GPS_NMEA_FROM_GPS    iGPS            $GPGGA,183539.000,4144.3487,N,06959.5356,W,2,10,0.84,11.4,M,-34.3,M,0000,0000*63 
32.443          GPS_NMEA_FROM_GPS    iGPS            $GPGGA,183540.000,4144.3487,N,06959.5356,W,2,10,0.84,11.4,M,-34.3,M,0000,0000*6D 
33.445          GPS_NMEA_FROM_GPS    iGPS            $GPGGA,183541.000,4144.3487,N,06959.5356,W,2,10,0.84,11.4,M,-34.3,M,0000,0000*6C 
34.448          GPS_NMEA_FROM_GPS    iGPS            $GPGGA,183542.000,4144.3486,N,06959.5356,W,2,10,0.84,11.5,M,-34.3,M,0000,0000*6F 
35.450          GPS_NMEA_FROM_GPS    iGPS            $GPRMC,183543.000,A,4144.3485,N,06959.5355,W,0.17,135.92,250321,,,D*76 
36.353          GPS_NMEA_FROM_GPS    iGPS            $GPGGA,183544.000,4144.3484,N,06959.5355,W,2,09,0.94,11.3,M,-34.3,M,0000,0000*67 
37.456          GPS_NMEA_FROM_GPS    iGPS            $GPRMC,183545.000,A,4144.3483,N,06959.5354,W,0.21,138.80,250321,,,D*7C 
38.358          GPS_NMEA_FROM_GPS    iGPS            $GPGGA,183546.000,4144.3482,N,06959.5352,W,2,10,0.84,10.9,M,-34.3,M,0000,0000*66 
39.461          GPS_NMEA_FROM_GPS    iGPS            $GPGGA,183547.000,4144.3482,N,06959.5351,W,2,09,0.94,10.9,M,-34.3,M,0000,0000*6D 
40.464          GPS_NMEA_FROM_GPS    iGPS            $GPGGA,183548.000,4144.3482,N,06959.5350,W,2,09,0.94,10.7,M,-34.3,M,0000,0000*6D 
41.366          GPS_NMEA_FROM_GPS    iGPS            $GPGGA,183549.000,4144.3481,N,06959.5348,W,2,09,0.94,10.7,M,-34.3,M,0000,0000*66 
42.469          GPS_NMEA_FROM_GPS    iGPS            $GPRMC,183550.000,A,4144.3481,N,06959.5347,W,0.41,118.62,250321,,,D*70 
43.471          GPS_NMEA_FROM_GPS    iGPS            $GPRMC,183551.000,A,4144.3481,N,06959.5345,W,0.42,113.54,250321,,,D*7E 
44.474          GPS_NMEA_FROM_GPS    iGPS            $GPGGA,183552.000,4144.3481,N,06959.5342,W,2,09,0.91,10.7,M,-34.3,M,0000,0000*63 
45.477          GPS_NMEA_FROM_GPS    iGPS            $GPRMC,183553.000,A,4144.3482,N,06959.5340,W,0.58,95.01,250321,,,D*4E 
46.479          GPS_NMEA_FROM_GPS    iGPS            $GPGGA,183554.000,4144.3482,N,06959.5337,W,2,09,0.91,10.7,M,-34.3,M,0000,0000*64 
47.381          GPS_NMEA_FROM_GPS    iGPS            $GPGGA,183555.000,4144.3483,N,06959.5334,W,2,09,0.91,10.7,M,-34.3,M,0000,0000*67 
48.484          GPS_NMEA_FROM_GPS    iGPS            $GPRMC,183556.000,A,4144.3484,N,06959.5332,W,0.61,78.02,250321,,,D*42 
49.386          GPS_NMEA_FROM_GPS    iGPS            $GPGGA,183557.000,4144.3485,N,06959.5329,W,2,09,0.91,10.5,M,-34.3,M,0000,0000*6D 
50.489          GPS_NMEA_FROM_GPS    iGPS            $GPRMC,183558.000,A,4144.3486,N,06959.5326,W,0.70,73.65,250321,,,D*41 
51.391          GPS_NMEA_FROM_GPS    iGPS            $GPGGA,183559.000,4144.3487,N,06959.5322,W,2,09,0.91,10.4,M,-34.3,M,0000,0000*6B 
52.394          GPS_NMEA_FROM_GPS    iGPS            $GPGGA,183600.000,4144.3487,N,06959.5319,W,2,10,0.84,10.3,M,-34.3,M,0000,0000*67 
53.497          GPS_NMEA_FROM_GPS    iGPS            $GPRMC,183601.000,A,4144.3488,N,06959.5316,W,0.65,71.62,250321,,,D*42 
54.499          GPS_NMEA_FROM_GPS    iGPS            $GPGGA,183602.000,4144.3489,N,06959.5313,W,2,10,0.83,10.3,M,-34.3,M,0000,0000*66 
55.502          GPS_NMEA_FROM_GPS    iGPS            $GPRMC,183603.000,A,4144.3489,N,06959.5310,W,0.72,72.59,250321,,,D*4A 
56.505          GPS_NMEA_FROM_GPS    iGPS            $GPRMC,183604.000,A,4144.3490,N,06959.5307,W,0.65,72.37,250321,,,D*4D 
57.407          GPS_NMEA_FROM_GPS    iGPS            $GPGGA,183605.000,4144.3491,N,06959.5304,W,2,10,0.83,10.5,M,-34.3,M,0000,0000*68 
58.410          GPS_NMEA_FROM_GPS    iGPS            $GPGGA,183606.000,4144.3491,N,06959.5301,W,2,10,0.84,10.5,M,-34.3,M,0000,0000*69 
59.412          GPS_NMEA_FROM_GPS    iGPS            $GPGGA,183607.000,4144.3492,N,06959.5298,W,2,10,0.84,10.5,M,-34.3,M,0000,0000*6A 
60.415          GPS_NMEA_FROM_GPS    iGPS            $GPGGA,183608.000,4144.3493,N,06959.5295,W,2,09,0.91,10.5,M,-34.3,M,0000,0000*65 
61.418          GPS_NMEA_FROM_GPS    iGPS            $GPGGA,183609.000,4144.3495,N,06959.5292,W,2,09,0.91,10.5,M,-34.3,M,0000,0000*65 
62.421          GPS_NMEA_FROM_GPS    iGPS            $GPGGA,183610.000,4144.3496,N,06959.5289,W,2,09,0.91,10.4,M,-34.3,M,0000,0000*65 
63.423          GPS_NMEA_FROM_GPS    iGPS            $GPGGA,183611.000,4144.3497,N,06959.5286,W,2,09,0.91,10.4,M,-34.3,M,0000,0000*6A 
64.426          GPS_NMEA_FROM_GPS    iGPS            $GPGGA,183612.000,4144.3498,N,06959.5283,W,2,09,0.91,10.4,M,-34.3,M,0000,0000*63 
65.429          GPS_NMEA_FROM_GPS    iGPS            $GPGGA,183613.000,4144.3499,N,06959.5280,W,2,09,0.91,10.4,M,-34.3,M,0000,0000*60 
66.431          GPS_NMEA_FROM_GPS    iGPS            $GPRMC,183614.000,A,4144.3500,N,06959.5277,W,0.70,67.41,250321,,,D*43 
67.434          GPS_NMEA_FROM_GPS    iGPS            $GPGGA,183615.000,4144.3501,N,06959.5274,W,2,09,0.91,10.4,M,-34.3,M,0000,0000*6D 
68.437          GPS_NMEA_FROM_GPS    iGPS            $GPGGA,183616.000,4144.3503,N,06959.5272,W,2,09,0.91,10.4,M,-34.3,M,0000,0000*6A 
69.441          GPS_NMEA_FROM_GPS    iGPS            $GPGGA,183617.000,4144.3504,N,06959.5269,W,2,09,0.91,10.4,M,-34.3,M,0000,0000*66 
70.443          GPS_NMEA_FROM_GPS    iGPS            $GPGGA,183618.000,4144.3505,N,06959.5267,W,2,09,0.91,10.3,M,-34.3,M,0000,0000*61 
71.446          GPS_NMEA_FROM_GPS    iGPS            $GPRMC,183619.000,A,4144.3506,N,06959.5264,W,0.79,62.19,250321,,,D*4B 
72.448          GPS_NMEA_FROM_GPS    iGPS            $GPGGA,183620.000,4144.3508,N,06959.5261,W,2,09,0.91,10.3,M,-34.3,M,0000,0000*61 
73.451          GPS_NMEA_FROM_GPS    iGPS            $GPRMC,183621.000,A,4144.3509,N,06959.5259,W,0.82,62.69,250321,,,D*42 
74.453          GPS_NMEA_FROM_GPS    iGPS            $GPGGA,183622.000,4144.3510,N,06959.5256,W,2,09,0.91,10.2,M,-34.3,M,0000,0000*6F 
75.456          GPS_NMEA_FROM_GPS    iGPS            $GPRMC,183623.000,A,4144.3511,N,06959.5253,W,0.78,64.35,250321,,,D*49 
76.459          GPS_NMEA_FROM_GPS    iGPS            $GPGGA,183624.000,4144.3512,N,06959.5250,W,2,09,0.91,10.2,M,-34.3,M,0000,0000*6D 
77.461          GPS_NMEA_FROM_GPS    iGPS            $GPGGA,183625.000,4144.3513,N,06959.5247,W,2,09,0.91,10.2,M,-34.3,M,0000,0000*6B 
78.464          GPS_NMEA_FROM_GPS    iGPS            $GPRMC,183626.000,A,4144.3514,N,06959.5245,W,0.72,65.13,250321,,,D*41 
79.366          GPS_NMEA_FROM_GPS    iGPS            $GPGGA,183627.000,4144.3515,N,06959.5243,W,2,09,0.91,10.1,M,-34.3,M,0000,0000*68 
80.469          GPS_NMEA_FROM_GPS    iGPS            $GPGGA,183628.000,4144.3516,N,06959.5240,W,2,09,0.91,10.1,M,-34.3,M,0000,0000*67 
81.372          GPS_NMEA_FROM_GPS    iGPS            $GPGGA,183629.000,4144.3517,N,06959.5238,W,2,09,0.91,10.1,M,-34.3,M,0000,0000*68 
82.375          GPS_NMEA_FROM_GPS    iGPS            $GPGGA,183630.000,4144.3518,N,06959.5235,W,2,09,0.91,10.1,M,-34.3,M,0000,0000*62 
83.478          GPS_NMEA_FROM_GPS    iGPS            $GPGGA,183631.000,4144.3519,N,06959.5232,W,2,09,0.91,10.1,M,-34.3,M,0000,0000*65 
84.480          GPS_NMEA_FROM_GPS    iGPS            $GPGGA,183632.000,4144.3521,N,06959.5230,W,2,09,0.91,10.1,M,-34.3,M,0000,0000*6F 
85.483          GPS_NMEA_FROM_GPS    iGPS            $GPRMC,183633.000,A,4144.3522,N,06959.5227,W,0.72,61.73,250321,,,D*46 
86.485          GPS_NMEA_FROM_GPS    iGPS            $GPGGA,183634.000,4144.3523,N,06959.5224,W,2,09,0.91,10.1,M,-34.3,M,0000,0000*6E 
87.488          GPS_NMEA_FROM_GPS    iGPS            $GPRMC,183635.000,A,4144.3524,N,06959.5221,W,0.77,61.99,250321,,,D*41 
88.490          GPS_NMEA_FROM_GPS    iGPS            $GPGGA,183636.000,4144.3525,N,06959.5219,W,2,09,0.91,10.1,M,-34.3,M,0000,0000*64 
89.393          GPS_NMEA_FROM_GPS    iGPS            $GPGGA,183637.000,4144.3526,N,06959.5216,W,2,09,0.91,10.1,M,-34.3,M,0000,0000*69 
90.497          GPS_NMEA_FROM_GPS    iGPS            $GPRMC,183638.000,A,4144.3527,N,06959.5213,W,0.77,60.95,250321,,,D*43 
91.399          GPS_NMEA_FROM_GPS    iGPS            $GPGGA,183639.000,4144.3528,N,06959.5210,W,2,09,0.91,10.0,M,-34.3,M,0000,0000*6E 
92.401          GPS_NMEA_FROM_GPS    iGPS            $GPGGA,183640.000,4144.3530,N,06959.5208,W,2,09,0.91,10.1,M,-34.3,M,0000,0000*61 
93.404          GPS_NMEA_FROM_GPS    iGPS            $GPGGA,183641.000,4144.3531,N,06959.5206,W,2,09,0.91,10.2,M,-34.3,M,0000,0000*6C 
94.406          GPS_NMEA_FROM_GPS    iGPS            $GPGGA,183642.000,4144.3532,N,06959.5203,W,2,09,0.91,10.2,M,-34.3,M,0000,0000*69 
95.509          GPS_NMEA_FROM_GPS    iGPS            $GPRMC,183643.000,A,4144.3533,N,06959.5201,W,0.76,58.59,250321,,,D*43 
96.412          GPS_NMEA_FROM_GPS    iGPS            $GPGGA,183644.000,4144.3535,N,06959.5198,W,2,09,0.91,10.4,M,-34.3,M,0000,0000*6F 
97.515          GPS_NMEA_FROM_GPS    iGPS            $GPRMC,183645.000,A,4144.3536,N,06959.5196,W,0.76,59.43,250321,,,D*47 
98.517          GPS_NMEA_FROM_GPS    iGPS            $GPRMC,183646.000,A,4144.3537,N,06959.5193,W,0.72,59.95,250321,,,D*4F 
99.520          GPS_NMEA_FROM_GPS    iGPS            $GPRMC,183647.000,A,4144.3538,N,06959.5191,W,0.72,59.89,250321,,,D*4E 
100.422         GPS_NMEA_FROM_GPS    iGPS            $GPGGA,183648.000,4144.3539,N,06959.5188,W,2,09,0.91,10.3,M,-34.3,M,0000,0000*69 
101.424         GPS_NMEA_FROM_GPS    iGPS            $GPGGA,183649.000,4144.3540,N,06959.5186,W,2,09,0.91,10.3,M,-34.3,M,0000,0000*68 
102.427         GPS_NMEA_FROM_GPS    iGPS            $GPGGA,183650.000,4144.3541,N,06959.5183,W,2,09,0.91,10.2,M,-34.3,M,0000,0000*65 
103.429         GPS_NMEA_FROM_GPS    iGPS            $GPGGA,183651.000,4144.3542,N,06959.5181,W,2,09,0.91,10.1,M,-34.3,M,0000,0000*66 
104.432         GPS_NMEA_FROM_GPS    iGPS            $GPGGA,183652.000,4144.3543,N,06959.5178,W,2,09,0.91,10.1,M,-34.3,M,0000,0000*62 
105.435         GPS_NMEA_FROM_GPS    iGPS            $GPGGA,183653.000,4144.3543,N,06959.5176,W,2,09,0.91,10.0,M,-34.3,M,0000,0000*6C 
106.437         GPS_NMEA_FROM_GPS    iGPS            $GPGGA,183654.000,4144.3544,N,06959.5174,W,2,09,0.91,10.0,M,-34.3,M,0000,0000*6E 
107.440         GPS_NMEA_FROM_GPS    iGPS            $GPGGA,183655.000,4144.3545,N,06959.5172,W,2,09,0.91,9.9,M,-34.3,M,0000,0000*59 
108.343         GPS_NMEA_FROM_GPS    iGPS            $GPGGA,183656.000,4144.3546,N,06959.5170,W,2,09,0.91,9.8,M,-34.3,M,0000,0000*5A 
109.446         GPS_NMEA_FROM_GPS    iGPS            $GPGGA,183657.000,4144.3547,N,06959.5167,W,2,09,0.91,9.8,M,-34.3,M,0000,0000*5C 
110.449         GPS_NMEA_FROM_GPS    iGPS            $GPRMC,183658.000,A,4144.3547,N,06959.5165,W,0.72,50.24,250321,,,D*4D 
111.452         GPS_NMEA_FROM_GPS    iGPS            $GPGGA,183659.000,4144.3548,N,06959.5163,W,2,09,0.91,9.7,M,-34.3,M,0000,0000*56 
112.354         GPS_NMEA_FROM_GPS    iGPS            $GPGGA,183700.000,4144.3549,N,06959.5161,W,2,09,0.91,9.6,M,-34.3,M,0000,0000*59 
113.357         GPS_NMEA_FROM_GPS    iGPS            $GPGGA,183701.000,4144.3550,N,06959.5158,W,2,09,0.91,9.6,M,-34.3,M,0000,0000*5A 
114.360         GPS_NMEA_FROM_GPS    iGPS            $GPGGA,183702.000,4144.3551,N,06959.5156,W,2,09,0.91,9.5,M,-34.3,M,0000,0000*55 
115.362         GPS_NMEA_FROM_GPS    iGPS            $GPGGA,183703.000,4144.3552,N,06959.5154,W,2,09,0.94,9.4,M,-34.3,M,0000,0000*51 
116.365         GPS_NMEA_FROM_GPS    iGPS            $GPGGA,183704.000,4144.3553,N,06959.5152,W,2,09,0.91,9.4,M,-34.3,M,0000,0000*54 
117.468         GPS_NMEA_FROM_GPS    iGPS            $GPRMC,183705.000,A,4144.3554,N,06959.5150,W,0.70,45.79,250321,,,D*4E 
118.471         GPS_NMEA_FROM_GPS    iGPS            $GPRMC,183706.000,A,4144.3555,N,06959.5147,W,0.70,44.81,250321,,,D*4C 
119.373         GPS_NMEA_FROM_GPS    iGPS            $GPGGA,183707.000,4144.3556,N,06959.5145,W,2,09,0.91,9.2,M,-34.3,M,0000,0000*52 
120.376         GPS_NMEA_FROM_GPS    iGPS            $GPGGA,183708.000,4144.3557,N,06959.5143,W,2,09,0.94,9.1,M,-34.3,M,0000,0000*5C 
121.379         GPS_NMEA_FROM_GPS    iGPS            $GPGGA,183709.000,4144.3558,N,06959.5141,W,2,09,0.94,9.0,M,-34.3,M,0000,0000*51 
122.381         GPS_NMEA_FROM_GPS    iGPS            $GPGGA,183710.000,4144.3560,N,06959.5139,W,2,09,0.94,8.9,M,-34.3,M,0000,0000*55 
123.384         GPS_NMEA_FROM_GPS    iGPS            $GPGGA,183711.000,4144.3561,N,06959.5138,W,2,09,0.94,8.8,M,-34.3,M,0000,0000*55 
124.387         GPS_NMEA_FROM_GPS    iGPS            $GPGGA,183712.000,4144.3562,N,06959.5136,W,2,09,0.94,8.7,M,-34.3,M,0000,0000*54 
125.491         GPS_NMEA_FROM_GPS    iGPS            $GPGGA,183713.000,4144.3564,N,06959.5134,W,2,09,0.91,8.7,M,-34.3,M,0000,0000*54 
126.495         GPS_NMEA_FROM_GPS    iGPS            $GPRMC,183714.000,A,4144.3565,N,06959.5133,W,0.71,37.73,250321,,,D*47 
127.497         GPS_NMEA_FROM_GPS    iGPS            $GPRMC,183715.000,A,4144.3566,N,06959.5131,W,0.71,36.62,250321,,,D*46 
128.500         GPS_NMEA_FROM_GPS    iGPS            $GPRMC,183716.000,A,4144.3568,N,06959.5130,W,0.73,35.22,250321,,,D*4F 
129.404         GPS_NMEA_FROM_GPS    iGPS            $GPGGA,183717.000,4144.3570,N,06959.5129,W,2,09,0.94,8.5,M,-34.3,M,0000,0000*5E 
130.406         GPS_NMEA_FROM_GPS    iGPS            $GPGGA,183718.000,4144.3571,N,06959.5128,W,2,09,0.91,8.4,M,-34.3,M,0000,0000*55 
131.409         GPS_NMEA_FROM_GPS    iGPS            $GPGGA,183719.000,4144.3573,N,06959.5127,W,2,09,0.91,8.3,M,-34.3,M,0000,0000*5E 
132.411         GPS_NMEA_FROM_GPS    iGPS            $GPGGA,183720.000,4144.3574,N,06959.5126,W,2,09,0.91,8.2,M,-34.3,M,0000,0000*53 
133.415         GPS_NMEA_FROM_GPS    iGPS            $GPGGA,183721.000,4144.3576,N,06959.5125,W,2,09,0.91,8.2,M,-34.3,M,0000,0000*53 
134.418         GPS_NMEA_FROM_GPS    iGPS            $GPGGA,183722.000,4144.3578,N,06959.5125,W,2,09,0.91,8.2,M,-34.3,M,0000,0000*5E 
135.421         GPS_NMEA_FROM_GPS    iGPS            $GPGGA,183723.000,4144.3580,N,06959.5125,W,2,09,0.94,8.2,M,-34.3,M,0000,0000*5D 
136.423         GPS_NMEA_FROM_GPS    iGPS            $GPRMC,183724.000,A,4144.3581,N,06959.5125,W,0.47,16.33,250321,,,D*4B 
137.426         GPS_NMEA_FROM_GPS    iGPS            $GPGGA,183725.000,4144.3582,N,06959.5125,W,2,09,0.94,8.3,M,-34.3,M,0000,0000*58 
138.429         GPS_NMEA_FROM_GPS    iGPS            $GPGGA,183726.000,4144.3583,N,06959.5126,W,2,09,0.94,8.3,M,-34.3,M,0000,0000*59 
139.431         GPS_NMEA_FROM_GPS    iGPS            $GPGGA,183727.000,4144.3584,N,06959.5128,W,2,09,0.91,8.3,M,-34.3,M,0000,0000*54 
140.434         GPS_NMEA_FROM_GPS    iGPS            $GPGGA,183728.000,4144.3585,N,06959.5129,W,2,09,0.91,8.2,M,-34.3,M,0000,0000*5A 
141.438         GPS_NMEA_FROM_GPS    iGPS            $GPRMC,183729.000,A,4144.3586,N,06959.5131,W,0.45,343.00,250321,,,D*75 
142.440         GPS_NMEA_FROM_GPS    iGPS            $GPGGA,183730.000,4144.3588,N,06959.5133,W,2,09,0.91,8.2,M,-34.3,M,0000,0000*55 
143.443         GPS_NMEA_FROM_GPS    iGPS            $GPRMC,183731.000,A,4144.3589,N,06959.5135,W,0.50,322.59,250321,,,D*78 
144.446         GPS_NMEA_FROM_GPS    iGPS            $GPRMC,183732.000,A,4144.3590,N,06959.5137,W,0.46,314.65,250321,,,D*7C 
145.448         GPS_NMEA_FROM_GPS    iGPS            $GPRMC,183733.000,A,4144.3591,N,06959.5139,W,0.52,304.60,250321,,,D*73 
146.451         GPS_NMEA_FROM_GPS    iGPS            $GPGGA,183734.000,4144.3592,N,06959.5141,W,2,09,0.91,8.4,M,-34.3,M,0000,0000*59 
147.454         GPS_NMEA_FROM_GPS    iGPS            $GPRMC,183735.000,A,4144.3592,N,06959.5143,W,0.52,290.06,250321,,,D*77 
148.456         GPS_NMEA_FROM_GPS    iGPS            $GPGGA,183736.000,4144.3592,N,06959.5146,W,2,09,0.91,8.5,M,-34.3,M,0000,0000*5D 
149.459         GPS_NMEA_FROM_GPS    iGPS            $GPGGA,183737.000,4144.3593,N,06959.5148,W,2,09,0.91,8.6,M,-34.3,M,0000,0000*50 
150.462         GPS_NMEA_FROM_GPS    iGPS            $GPGGA,183738.000,4144.3593,N,06959.5150,W,2,09,0.91,8.7,M,-34.3,M,0000,0000*57 
151.465         GPS_NMEA_FROM_GPS    iGPS            $GPGGA,183739.000,4144.3594,N,06959.5153,W,2,09,0.91,8.7,M,-34.3,M,0000,0000*52 
152.467         GPS_NMEA_FROM_GPS    iGPS            $GPGGA,183740.000,4144.3594,N,06959.5155,W,2,09,0.91,8.7,M,-34.3,M,0000,0000*5A 
153.472         GPS_NMEA_FROM_GPS    iGPS            $GPGGA,183741.000,4144.3594,N,06959.5158,W,2,09,0.91,8.8,M,-34.3,M,0000,0000*59 
154.475         GPS_NMEA_FROM_GPS    iGPS            $GPGGA,183742.000,4144.3594,N,06959.5161,W,2,09,0.91,8.9,M,-34.3,M,0000,0000*51 
155.478         GPS_NMEA_FROM_GPS    iGPS            $GPGGA,183743.000,4144.3595,N,06959.5164,W,2,09,0.91,9.0,M,-34.3,M,0000,0000*5C 
156.380         GPS_NMEA_FROM_GPS    iGPS            $GPGGA,183744.000,4144.3595,N,06959.5167,W,2,09,0.91,9.0,M,-34.3,M,0000,0000*58 
157.383         GPS_NMEA_FROM_GPS    iGPS            $GPGGA,183745.000,4144.3595,N,06959.5170,W,2,09,0.91,9.1,M,-34.3,M,0000,0000*5E 
158.386         GPS_NMEA_FROM_GPS    iGPS            $GPGGA,183746.000,4144.3595,N,06959.5173,W,2,09,0.91,9.2,M,-34.3,M,0000,0000*5D 
159.489         GPS_NMEA_FROM_GPS    iGPS            $GPRMC,183747.000,A,4144.3595,N,06959.5176,W,0.72,257.35,250321,,,D*7A 
160.492         GPS_NMEA_FROM_GPS    iGPS            $GPGGA,183748.000,4144.3594,N,06959.5179,W,2,09,0.91,9.3,M,-34.3,M,0000,0000*59 
161.494         GPS_NMEA_FROM_GPS    iGPS            $GPGGA,183749.000,4144.3594,N,06959.5182,W,2,09,0.91,9.3,M,-34.3,M,0000,0000*5C 
162.497         GPS_NMEA_FROM_GPS    iGPS            $GPGGA,183750.000,4144.3593,N,06959.5185,W,2,09,0.91,9.4,M,-34.3,M,0000,0000*53 
163.399         GPS_NMEA_FROM_GPS    iGPS            $GPGGA,183751.000,4144.3593,N,06959.5189,W,2,09,0.91,9.4,M,-34.3,M,0000,0000*5E 
164.402         GPS_NMEA_FROM_GPS    iGPS            $GPGGA,183752.000,4144.3592,N,06959.5192,W,2,09,0.91,9.5,M,-34.3,M,0000,0000*57 
165.505         GPS_NMEA_FROM_GPS    iGPS            $GPRMC,183753.000,A,4144.3592,N,06959.5195,W,0.73,245.35,250321,,,D*77 
166.407         GPS_NMEA_FROM_GPS    iGPS            $GPGGA,183754.000,4144.3591,N,06959.5198,W,2,10,0.83,9.7,M,-34.3,M,0000,0000*51 
167.410         GPS_NMEA_FROM_GPS    iGPS            $GPGGA,183755.000,4144.3590,N,06959.5201,W,2,09,0.91,9.8,M,-34.3,M,0000,0000*56 
168.514         GPS_NMEA_FROM_GPS    iGPS            $GPGGA,183756.000,4144.3590,N,06959.5204,W,2,09,0.91,9.8,M,-34.3,M,0000,0000*50 
169.416         GPS_NMEA_FROM_GPS    iGPS            $GPGGA,183757.000,4144.3589,N,06959.5207,W,2,09,0.91,9.9,M,-34.3,M,0000,0000*5B 
170.519         GPS_NMEA_FROM_GPS    iGPS            $GPRMC,183758.000,A,4144.3589,N,06959.5210,W,0.75,238.70,250321,,,D*75 
171.522         GPS_NMEA_FROM_GPS    iGPS            $GPRMC,183759.000,A,4144.3588,N,06959.5212,W,0.79,237.71,250321,,,D*75 
172.424         GPS_NMEA_FROM_GPS    iGPS            $GPGGA,183800.000,4144.3587,N,06959.5215,W,2,10,0.83,10.1,M,-34.3,M,0000,0000*60 
173.427         GPS_NMEA_FROM_GPS    iGPS            $GPGGA,183801.000,4144.3586,N,06959.5217,W,2,10,0.83,10.2,M,-34.3,M,0000,0000*61 
174.429         GPS_NMEA_FROM_GPS    iGPS            $GPGGA,183802.000,4144.3586,N,06959.5220,W,2,10,0.83,10.3,M,-34.3,M,0000,0000*67 
175.432         GPS_NMEA_FROM_GPS    iGPS            $GPGGA,183803.000,4144.3585,N,06959.5222,W,2,10,0.83,10.3,M,-34.3,M,0000,0000*67 
176.435         GPS_NMEA_FROM_GPS    iGPS            $GPGGA,183804.000,4144.3584,N,06959.5225,W,2,10,0.83,10.4,M,-34.3,M,0000,0000*61 
177.437         GPS_NMEA_FROM_GPS    iGPS            $GPGGA,183805.000,4144.3583,N,06959.5227,W,2,10,0.83,10.5,M,-34.3,M,0000,0000*64 
178.440         GPS_NMEA_FROM_GPS    iGPS            $GPGGA,183806.000,4144.3583,N,06959.5230,W,2,10,0.83,10.6,M,-34.3,M,0000,0000*62 
179.444         GPS_NMEA_FROM_GPS    iGPS            $GPGGA,183807.000,4144.3582,N,06959.5232,W,2,10,0.83,10.7,M,-34.3,M,0000,0000*61 
180.446         GPS_NMEA_FROM_GPS    iGPS            $GPGGA,183808.000,4144.3581,N,06959.5235,W,2,09,0.91,10.8,M,-34.3,M,0000,0000*6E 
181.449         GPS_NMEA_FROM_GPS    iGPS            $GPGGA,183809.000,4144.3581,N,06959.5237,W,2,10,0.83,10.9,M,-34.3,M,0000,0000*67 
182.452         GPS_NMEA_FROM_GPS    iGPS            $GPGGA,183810.000,4144.3580,N,06959.5240,W,2,10,0.83,11.0,M,-34.3,M,0000,0000*66 
183.454         GPS_NMEA_FROM_GPS    iGPS            $GPGGA,183811.000,4144.3579,N,06959.5242,W,2,10,0.83,11.1,M,-34.3,M,0000,0000*62 
184.357         GPS_NMEA_FROM_GPS    iGPS            $GPGGA,183812.000,4144.3578,N,06959.5245,W,2,10,0.83,11.1,M,-34.3,M,0000,0000*67 
185.359         GPS_NMEA_FROM_GPS    iGPS            $GPGGA,183813.000,4144.3577,N,06959.5247,W,2,10,0.83,11.2,M,-34.3,M,0000,0000*68 
186.462         GPS_NMEA_FROM_GPS    iGPS            $GPGGA,183814.000,4144.3576,N,06959.5250,W,2,10,0.83,11.3,M,-34.3,M,0000,0000*69 
187.465         GPS_NMEA_FROM_GPS    iGPS            $GPGGA,183815.000,4144.3575,N,06959.5252,W,2,10,0.83,11.3,M,-34.3,M,0000,0000*69 
188.367         GPS_NMEA_FROM_GPS    iGPS            $GPGGA,183816.000,4144.3574,N,06959.5254,W,2,10,0.83,11.4,M,-34.3,M,0000,0000*6A 
189.370         GPS_NMEA_FROM_GPS    iGPS            $GPGGA,183817.000,4144.3573,N,06959.5256,W,2,10,0.83,11.5,M,-34.3,M,0000,0000*6F 
190.472         GPS_NMEA_FROM_GPS    iGPS            $GPGGA,183818.000,4144.3572,N,06959.5259,W,2,10,0.83,11.6,M,-34.3,M,0000,0000*6D 
191.475         GPS_NMEA_FROM_GPS    iGPS            $GPGGA,183819.000,4144.3571,N,06959.5261,W,2,10,0.83,11.7,M,-34.3,M,0000,0000*65 
192.477         GPS_NMEA_FROM_GPS    iGPS            $GPGGA,183820.000,4144.3570,N,06959.5264,W,2,10,0.83,11.8,M,-34.3,M,0000,0000*64 
193.480         GPS_NMEA_FROM_GPS    iGPS            $GPGGA,183821.000,4144.3570,N,06959.5266,W,2,10,0.83,11.8,M,-34.3,M,0000,0000*67 
194.483         GPS_NMEA_FROM_GPS    iGPS            $GPGGA,183822.000,4144.3569,N,06959.5269,W,2,10,0.83,11.9,M,-34.3,M,0000,0000*62 
195.486         GPS_NMEA_FROM_GPS    iGPS            $GPRMC,183823.000,A,4144.3568,N,06959.5271,W,0.78,233.77,250321,,,D*7F 
196.388         GPS_NMEA_FROM_GPS    iGPS            $GPGGA,183824.000,4144.3567,N,06959.5274,W,2,10,0.83,12.0,M,-34.3,M,0000,0000*6C 
197.391         GPS_NMEA_FROM_GPS    iGPS            $GPGGA,183825.000,4144.3566,N,06959.5276,W,2,10,0.83,12.1,M,-34.3,M,0000,0000*6F 
198.394         GPS_NMEA_FROM_GPS    iGPS            $GPGGA,183826.000,4144.3565,N,06959.5279,W,2,10,0.83,12.2,M,-34.3,M,0000,0000*63 
199.497         GPS_NMEA_FROM_GPS    iGPS            $GPGGA,183827.000,4144.3564,N,06959.5281,W,2,10,0.83,12.3,M,-34.3,M,0000,0000*65 
200.399         GPS_NMEA_FROM_GPS    iGPS            $GPGGA,183828.000,4144.3563,N,06959.5284,W,2,10,0.83,12.3,M,-34.3,M,0000,0000*68 
201.402         GPS_NMEA_FROM_GPS    iGPS            $GPGGA,183829.000,4144.3562,N,06959.5286,W,2,10,0.83,12.3,M,-34.3,M,0000,0000*6A 
202.405         GPS_NMEA_FROM_GPS    iGPS            $GPGGA,183830.000,4144.3561,N,06959.5288,W,2,10,0.83,12.4,M,-34.3,M,0000,0000*68 
203.508         GPS_NMEA_FROM_GPS    iGPS            $GPRMC,183831.000,A,4144.3560,N,06959.5291,W,0.78,232.55,250321,,,D*7B 
204.510         GPS_NMEA_FROM_GPS    iGPS            $GPRMC,183832.000,A,4144.3559,N,06959.5293,W,0.77,232.81,250321,,,D*76 
205.513         GPS_NMEA_FROM_GPS    iGPS            $GPRMC,183833.000,A,4144.3558,N,06959.5295,W,0.78,232.85,250321,,,D*7B 
206.415         GPS_NMEA_FROM_GPS    iGPS            $GPGGA,183834.000,4144.3557,N,06959.5298,W,2,10,0.83,12.6,M,-34.3,M,0000,0000*6A 
207.418         GPS_NMEA_FROM_GPS    iGPS            $GPGGA,183835.000,4144.3557,N,06959.5300,W,2,10,0.83,12.6,M,-34.3,M,0000,0000*6B 
208.421         GPS_NMEA_FROM_GPS    iGPS            $GPGGA,183836.000,4144.3556,N,06959.5303,W,2,10,0.83,12.7,M,-34.3,M,0000,0000*6B 
209.423         GPS_NMEA_FROM_GPS    iGPS            $GPGGA,183837.000,4144.3555,N,06959.5305,W,2,10,0.83,12.7,M,-34.3,M,0000,0000*6F 
210.426         GPS_NMEA_FROM_GPS    iGPS            $GPGGA,183838.000,4144.3553,N,06959.5307,W,2,10,0.83,12.8,M,-34.3,M,0000,0000*6B 
211.429         GPS_NMEA_FROM_GPS    iGPS            $GPGGA,183839.000,4144.3552,N,06959.5309,W,2,10,0.83,12.8,M,-34.3,M,0000,0000*65 
212.431         GPS_NMEA_FROM_GPS    iGPS            $GPGGA,183840.000,4144.3551,N,06959.5311,W,2,10,0.83,12.9,M,-34.3,M,0000,0000*60 
213.434         GPS_NMEA_FROM_GPS    iGPS            $GPGGA,183841.000,4144.3550,N,06959.5314,W,2,10,0.83,12.9,M,-34.3,M,0000,0000*65 
214.436         GPS_NMEA_FROM_GPS    iGPS            $GPGGA,183842.000,4144.3548,N,06959.5316,W,2,10,0.83,13.0,M,-34.3,M,0000,0000*65 
215.439         GPS_NMEA_FROM_GPS    iGPS            $GPGGA,183843.000,4144.3547,N,06959.5318,W,2,10,0.83,13.0,M,-34.3,M,0000,0000*65 
216.442         GPS_NMEA_FROM_GPS    iGPS            $GPGGA,183844.000,4144.3546,N,06959.5320,W,2,10,0.83,13.0,M,-34.3,M,0000,0000*68 
217.445         GPS_NMEA_FROM_GPS    iGPS            $GPRMC,183845.000,A,4144.3544,N,06959.5323,W,0.78,234.27,250321,,,D*75 
218.447         GPS_NMEA_FROM_GPS    iGPS            $GPGGA,183846.000,4144.3543,N,06959.5325,W,2,10,0.83,13.0,M,-34.3,M,0000,0000*6A 
219.450         GPS_NMEA_FROM_GPS    iGPS            $GPRMC,183847.000,A,4144.3541,N,06959.5328,W,0.80,235.55,250321,,,D*7A 
220.453         GPS_NMEA_FROM_GPS    iGPS            $GPGGA,183848.000,4144.3540,N,06959.5330,W,2,10,0.83,13.2,M,-34.3,M,0000,0000*61 
221.455         GPS_NMEA_FROM_GPS    iGPS            $GPRMC,183849.000,A,4144.3538,N,06959.5333,W,0.76,237.22,250321,,,D*7B 
222.458         GPS_NMEA_FROM_GPS    iGPS            $GPGGA,183850.000,4144.3537,N,06959.5336,W,2,10,0.83,13.3,M,-34.3,M,0000,0000*6F 
223.460         GPS_NMEA_FROM_GPS    iGPS            $GPRMC,183851.000,A,4144.3536,N,06959.5339,W,0.77,238.46,250321,,,D*7A 
224.463         GPS_NMEA_FROM_GPS    iGPS            $GPGGA,183852.000,4144.3535,N,06959.5341,W,2,10,0.83,13.4,M,-34.3,M,0000,0000*68 
225.465         GPS_NMEA_FROM_GPS    iGPS            $GPGGA,183853.000,4144.3533,N,06959.5344,W,2,10,0.83,13.4,M,-34.3,M,0000,0000*6A 
226.468         GPS_NMEA_FROM_GPS    iGPS            $GPGGA,183854.000,4144.3532,N,06959.5347,W,2,10,0.83,13.4,M,-34.3,M,0000,0000*6F 
227.471         GPS_NMEA_FROM_GPS    iGPS            $GPRMC,183855.000,A,4144.3531,N,06959.5349,W,0.75,239.82,250321,,,D*75 
228.473         GPS_NMEA_FROM_GPS    iGPS            $GPRMC,183856.000,A,4144.3529,N,06959.5352,W,0.70,240.11,250321,,,D*74 
229.476         GPS_NMEA_FROM_GPS    iGPS            $GPGGA,183857.000,4144.3528,N,06959.5354,W,2,10,0.83,13.5,M,-34.3,M,0000,0000*64 
230.379         GPS_NMEA_FROM_GPS    iGPS            $GPGGA,183858.000,4144.3527,N,06959.5356,W,2,10,0.83,13.5,M,-34.3,M,0000,0000*66 
231.381         GPS_NMEA_FROM_GPS    iGPS            $GPGGA,183859.000,4144.3526,N,06959.5358,W,2,10,0.83,13.5,M,-34.3,M,0000,0000*68 
232.484         GPS_NMEA_FROM_GPS    iGPS            $GPRMC,183900.000,A,4144.3526,N,06959.5360,W,0.60,247.56,250321,,,D*7D 
233.487         GPS_NMEA_FROM_GPS    iGPS            $GPGGA,183901.000,4144.3525,N,06959.5362,W,2,09,1.00,13.5,M,-34.3,M,0000,0000*6C 
234.489         GPS_NMEA_FROM_GPS    iGPS            $GPGGA,183902.000,4144.3525,N,06959.5364,W,2,09,1.00,13.4,M,-34.3,M,0000,0000*68 
235.392         GPS_NMEA_FROM_GPS    iGPS            $GPGGA,183903.000,4144.3526,N,06959.5366,W,2,09,1.00,13.4,M,-34.3,M,0000,0000*68 
236.495         GPS_NMEA_FROM_GPS    iGPS            $GPRMC,183904.000,A,4144.3526,N,06959.5367,W,0.60,268.57,250321,,,D*72 
237.399         GPS_NMEA_FROM_GPS    iGPS            $GPGGA,183905.000,4144.3526,N,06959.5369,W,2,09,1.00,13.2,M,-34.3,M,0000,0000*67 
238.400         GPS_NMEA_FROM_GPS    iGPS            $GPGGA,183906.000,4144.3527,N,06959.5371,W,2,09,1.00,13.0,M,-34.3,M,0000,0000*6E 
239.403         GPS_NMEA_FROM_GPS    iGPS            $GPGGA,183907.000,4144.3528,N,06959.5373,W,2,09,1.00,12.9,M,-34.3,M,0000,0000*6A 
240.406         GPS_NMEA_FROM_GPS    iGPS            $GPGGA,183908.000,4144.3529,N,06959.5375,W,2,09,1.00,12.7,M,-34.3,M,0000,0000*6C 
241.409         GPS_NMEA_FROM_GPS    iGPS            $GPGGA,183909.000,4144.3530,N,06959.5377,W,2,09,1.00,12.6,M,-34.3,M,0000,0000*66 
242.411         GPS_NMEA_FROM_GPS    iGPS            $GPGGA,183910.000,4144.3531,N,06959.5379,W,2,09,1.00,12.5,M,-34.3,M,0000,0000*62 
243.413         GPS_NMEA_FROM_GPS    iGPS            $GPGGA,183911.000,4144.3532,N,06959.5380,W,2,09,1.00,12.4,M,-34.3,M,0000,0000*67 
244.416         GPS_NMEA_FROM_GPS    iGPS            $GPGGA,183912.000,4144.3533,N,06959.5382,W,2,09,1.00,12.2,M,-34.3,M,0000,0000*61 
245.519         GPS_NMEA_FROM_GPS    iGPS            $GPRMC,183913.000,A,4144.3534,N,06959.5383,W,0.64,320.29,250321,,,D*7D 
246.521         GPS_NMEA_FROM_GPS    iGPS            $GPRMC,183914.000,A,4144.3535,N,06959.5385,W,0.68,321.45,250321,,,D*7A 
247.424         GPS_NMEA_FROM_GPS    iGPS            $GPGGA,183915.000,4144.3536,N,06959.5386,W,2,09,1.00,11.9,M,-34.3,M,0000,0000*6F 
248.427         GPS_NMEA_FROM_GPS    iGPS            $GPGGA,183916.000,4144.3538,N,06959.5387,W,2,09,1.00,11.9,M,-34.3,M,0000,0000*63 
249.430         GPS_NMEA_FROM_GPS    iGPS            $GPGGA,183917.000,4144.3539,N,06959.5389,W,2,09,1.00,11.8,M,-34.3,M,0000,0000*6C 
250.432         GPS_NMEA_FROM_GPS    iGPS            $GPGGA,183918.000,4144.3541,N,06959.5391,W,2,09,1.00,11.8,M,-34.3,M,0000,0000*65 
251.434         GPS_NMEA_FROM_GPS    iGPS            $GPGGA,183919.000,4144.3542,N,06959.5393,W,2,09,1.00,11.7,M,-34.3,M,0000,0000*6A 
252.437         GPS_NMEA_FROM_GPS    iGPS            $GPRMC,183920.000,A,4144.3544,N,06959.5395,W,0.78,323.19,250321,,,D*70 
253.439         GPS_NMEA_FROM_GPS    iGPS            $GPRMC,183921.000,A,4144.3546,N,06959.5397,W,0.78,324.03,250321,,,D*7D 
254.443         GPS_NMEA_FROM_GPS    iGPS            $GPGGA,183922.000,4144.3547,N,06959.5399,W,2,09,1.00,11.6,M,-34.3,M,0000,0000*6C 
255.446         GPS_NMEA_FROM_GPS    iGPS            $GPGGA,183923.000,4144.3549,N,06959.5400,W,2,09,1.01,11.6,M,-34.3,M,0000,0000*65 
256.447         GPS_NMEA_FROM_GPS    iGPS            $GPGGA,183924.000,4144.3550,N,06959.5402,W,2,09,1.00,11.5,M,-34.3,M,0000,0000*6A 
257.450         GPS_NMEA_FROM_GPS    iGPS            $GPGGA,183925.000,4144.3552,N,06959.5403,W,2,09,1.00,11.4,M,-34.3,M,0000,0000*69 
258.453         GPS_NMEA_FROM_GPS    iGPS            $GPGGA,183926.000,4144.3554,N,06959.5404,W,2,09,1.00,11.4,M,-34.3,M,0000,0000*6B 
259.456         GPS_NMEA_FROM_GPS    iGPS            $GPGGA,183927.000,4144.3556,N,06959.5405,W,2,09,1.00,11.4,M,-34.3,M,0000,0000*69 
260.458         GPS_NMEA_FROM_GPS    iGPS            $GPGGA,183928.000,4144.3557,N,06959.5405,W,2,09,1.00,11.4,M,-34.3,M,0000,0000*67 
261.461         GPS_NMEA_FROM_GPS    iGPS            $GPRMC,183929.000,A,4144.3559,N,06959.5406,W,0.74,336.34,250321,,,D*7F 
262.463         GPS_NMEA_FROM_GPS    iGPS            $GPGGA,183930.000,4144.3561,N,06959.5406,W,2,09,1.00,11.5,M,-34.3,M,0000,0000*69 
263.466         GPS_NMEA_FROM_GPS    iGPS            $GPRMC,183931.000,A,4144.3562,N,06959.5406,W,0.72,338.68,250321,,,D*7F 
264.369         GPS_NMEA_FROM_GPS    iGPS            $GPGGA,183932.000,4144.3564,N,06959.5406,W,2,09,1.00,11.5,M,-34.3,M,0000,0000*6E 
265.372         GPS_NMEA_FROM_GPS    iGPS            $GPGGA,183933.000,4144.3565,N,06959.5407,W,2,09,1.00,11.6,M,-34.3,M,0000,0000*6C 
266.473         GPS_NMEA_FROM_GPS    iGPS            $GPGGA,183934.000,4144.3567,N,06959.5408,W,2,09,1.00,11.6,M,-34.3,M,0000,0000*66 
267.476         GPS_NMEA_FROM_GPS    iGPS            $GPGGA,183935.000,4144.3568,N,06959.5409,W,2,09,1.01,11.6,M,-34.3,M,0000,0000*68 
268.479         GPS_NMEA_FROM_GPS    iGPS            $GPGGA,183936.000,4144.3569,N,06959.5410,W,2,09,1.00,11.6,M,-34.3,M,0000,0000*63 
269.481         GPS_NMEA_FROM_GPS    iGPS            $GPRMC,183937.000,A,4144.3571,N,06959.5411,W,0.75,336.60,250321,,,D*7C 
270.383         GPS_NMEA_FROM_GPS    iGPS            $GPGGA,183938.000,4144.3572,N,06959.5412,W,2,09,1.00,11.5,M,-34.3,M,0000,0000*66 
271.486         GPS_NMEA_FROM_GPS    iGPS            $GPRMC,183939.000,A,4144.3574,N,06959.5413,W,0.77,335.11,250321,,,D*72 
272.489         GPS_NMEA_FROM_GPS    iGPS            $GPGGA,183940.000,4144.3576,N,06959.5414,W,2,09,1.00,11.5,M,-34.3,M,0000,0000*6B 
273.392         GPS_NMEA_FROM_GPS    iGPS            $GPGGA,183941.000,4144.3577,N,06959.5416,W,2,09,1.00,11.5,M,-34.3,M,0000,0000*69 
274.395         GPS_NMEA_FROM_GPS    iGPS            $GPGGA,183942.000,4144.3579,N,06959.5417,W,2,09,1.00,11.5,M,-34.3,M,0000,0000*65 
275.397         GPS_NMEA_FROM_GPS    iGPS            $GPGGA,183943.000,4144.3581,N,06959.5418,W,2,09,1.00,11.4,M,-34.3,M,0000,0000*6D 
276.501         GPS_NMEA_FROM_GPS    iGPS            $GPRMC,183944.000,A,4144.3582,N,06959.5420,W,0.80,331.94,250321,,,D*70 
277.503         GPS_NMEA_FROM_GPS    iGPS            $GPRMC,183945.000,A,4144.3584,N,06959.5422,W,0.78,331.11,250321,,,D*7F 
278.406         GPS_NMEA_FROM_GPS    iGPS            $GPGGA,183946.000,4144.3585,N,06959.5424,W,2,09,1.00,11.3,M,-34.3,M,0000,0000*64 
279.509         GPS_NMEA_FROM_GPS    iGPS            $GPRMC,183947.000,A,4144.3587,N,06959.5425,W,0.72,330.34,250321,,,D*75 
280.412         GPS_NMEA_FROM_GPS    iGPS            $GPGGA,183948.000,4144.3589,N,06959.5426,W,2,09,1.00,11.2,M,-34.3,M,0000,0000*65 
281.515         GPS_NMEA_FROM_GPS    iGPS            $GPRMC,183949.000,A,4144.3590,N,06959.5427,W,0.71,331.97,250321,,,D*74 
282.518         GPS_NMEA_FROM_GPS    iGPS            $GPRMC,183950.000,A,4144.3592,N,06959.5428,W,0.71,332.50,250321,,,D*79 
283.420         GPS_NMEA_FROM_GPS    iGPS            $GPGGA,183951.000,4144.3594,N,06959.5428,W,2,09,1.01,11.2,M,-34.3,M,0000,0000*6E 
284.423         GPS_NMEA_FROM_GPS    iGPS            $GPGGA,183952.000,4144.3596,N,06959.5429,W,2,09,1.00,11.2,M,-34.3,M,0000,0000*6F 
285.425         GPS_NMEA_FROM_GPS    iGPS            $GPGGA,183953.000,4144.3598,N,06959.5430,W,2,09,1.00,11.2,M,-34.3,M,0000,0000*68 
286.429         GPS_NMEA_FROM_GPS    iGPS            $GPGGA,183954.000,4144.3599,N,06959.5430,W,2,09,1.00,11.2,M,-34.3,M,0000,0000*6E 
287.431         GPS_NMEA_FROM_GPS    iGPS            $GPGGA,183955.000,4144.3601,N,06959.5431,W,2,09,1.00,11.2,M,-34.3,M,0000,0000*6C 
288.434         GPS_NMEA_FROM_GPS    iGPS            $GPGGA,183956.000,4144.3603,N,06959.5431,W,2,09,1.00,11.3,M,-34.3,M,0000,0000*6C 
289.437         GPS_NMEA_FROM_GPS    iGPS            $GPGGA,183957.000,4144.3605,N,06959.5432,W,2,09,1.00,11.2,M,-34.3,M,0000,0000*69 
290.442         GPS_NMEA_FROM_GPS    iGPS            $GPGGA,183958.000,4144.3606,N,06959.5434,W,2,09,1.00,11.3,M,-34.3,M,0000,0000*62 
291.445         GPS_NMEA_FROM_GPS    iGPS            $GPRMC,183959.000,A,4144.3608,N,06959.5435,W,0.71,333.77,250321,,,D*78 
292.448         GPS_NMEA_FROM_GPS    iGPS            $GPGGA,184000.000,4144.3609,N,06959.5436,W,2,09,1.00,11.2,M,-34.3,M,0000,0000*6D 
293.449         GPS_NMEA_FROM_GPS    iGPS            $GPGGA,184001.000,4144.3611,N,06959.5437,W,2,09,1.00,11.2,M,-34.3,M,0000,0000*64 
294.453         GPS_NMEA_FROM_GPS    iGPS            $GPGGA,184002.000,4144.3613,N,06959.5439,W,2,09,1.00,11.2,M,-34.3,M,0000,0000*6B 
295.455         GPS_NMEA_FROM_GPS    iGPS            $GPRMC,184003.000,A,4144.3615,N,06959.5440,W,0.75,331.53,250321,,,D*77 
296.458         GPS_NMEA_FROM_GPS    iGPS            $GPRMC,184004.000,A,4144.3616,N,06959.5442,W,0.77,331.20,250321,,,D*77 
297.461         GPS_NMEA_FROM_GPS    iGPS            $GPGGA,184005.000,4144.3618,N,06959.5444,W,2,09,1.02,11.0,M,-34.3,M,0000,0000*6D 
298.463         GPS_NMEA_FROM_GPS    iGPS            $GPGGA,184006.000,4144.3620,N,06959.5446,W,2,09,1.00,11.0,M,-34.3,M,0000,0000*65 
299.466         GPS_NMEA_FROM_GPS    iGPS            $GPGGA,184007.000,4144.3622,N,06959.5448,W,2,09,1.00,11.0,M,-34.3,M,0000,0000*68 
300.469         GPS_NMEA_FROM_GPS    iGPS            $GPGGA,184008.000,4144.3624,N,06959.5449,W,2,09,1.00,11.0,M,-34.3,M,0000,0000*60 
301.472         GPS_NMEA_FROM_GPS    iGPS            $GPGGA,184009.000,4144.3625,N,06959.5451,W,2,09,1.00,10.9,M,-34.3,M,0000,0000*61 
302.475         GPS_NMEA_FROM_GPS    iGPS            $GPGGA,184010.000,4144.3627,N,06959.5453,W,2,09,1.00,10.9,M,-34.3,M,0000,0000*69 
303.377         GPS_NMEA_FROM_GPS    iGPS            $GPGGA,184011.000,4144.3629,N,06959.5455,W,2,09,1.00,10.8,M,-34.3,M,0000,0000*61 
304.480         GPS_NMEA_FROM_GPS    iGPS            $GPRMC,184012.000,A,4144.3630,N,06959.5456,W,0.75,325.97,250321,,,D*7A 
305.483         GPS_NMEA_FROM_GPS    iGPS            $GPRMC,184013.000,A,4144.3632,N,06959.5458,W,0.73,325.79,250321,,,D*71 
306.486         GPS_NMEA_FROM_GPS    iGPS            $GPRMC,184014.000,A,4144.3633,N,06959.5459,W,0.71,326.03,250321,,,D*7A 
307.488         GPS_NMEA_FROM_GPS    iGPS            $GPGGA,184015.000,4144.3635,N,06959.5461,W,2,09,1.02,10.5,M,-34.3,M,0000,0000*60 
308.492         GPS_NMEA_FROM_GPS    iGPS            $GPGGA,184016.000,4144.3636,N,06959.5462,W,2,09,1.00,10.4,M,-34.3,M,0000,0000*60 
309.394         GPS_NMEA_FROM_GPS    iGPS            $GPGGA,184017.000,4144.3638,N,06959.5464,W,2,09,1.00,10.4,M,-34.3,M,0000,0000*69 
310.497         GPS_NMEA_FROM_GPS    iGPS            $GPRMC,184018.000,A,4144.3639,N,06959.5465,W,0.57,321.81,250321,,,D*7A 
311.499         GPS_NMEA_FROM_GPS    iGPS            $GPGGA,184019.000,4144.3640,N,06959.5467,W,2,09,1.02,10.4,M,-34.3,M,0000,0000*69 
312.401         GPS_NMEA_FROM_GPS    iGPS            $GPGGA,184020.000,4144.3641,N,06959.5468,W,2,09,1.02,10.4,M,-34.3,M,0000,0000*6D 
313.404         GPS_NMEA_FROM_GPS    iGPS            $GPGGA,184021.000,4144.3641,N,06959.5470,W,2,09,1.02,10.3,M,-34.3,M,0000,0000*62 
314.406         GPS_NMEA_FROM_GPS    iGPS            $GPGGA,184022.000,4144.3642,N,06959.5471,W,2,09,1.02,10.3,M,-34.3,M,0000,0000*63 
315.509         GPS_NMEA_FROM_GPS    iGPS            $GPRMC,184023.000,A,4144.3642,N,06959.5472,W,0.29,304.84,250321,,,D*73 
316.411         GPS_NMEA_FROM_GPS    iGPS            $GPGGA,184024.000,4144.3642,N,06959.5473,W,2,09,1.02,10.3,M,-34.3,M,0000,0000*67 
317.415         GPS_NMEA_FROM_GPS    iGPS            $GPGGA,184025.000,4144.3642,N,06959.5474,W,2,09,1.02,10.3,M,-34.3,M,0000,0000*61 
318.518         GPS_NMEA_FROM_GPS    iGPS            $GPRMC,184026.000,A,4144.3642,N,06959.5475,W,0.22,281.27,250321,,,D*7F 
319.522         GPS_NMEA_FROM_GPS    iGPS            $GPRMC,184027.000,A,4144.3642,N,06959.5475,W,0.26,266.48,250321,,,D*7A 
320.424         GPS_NMEA_FROM_GPS    iGPS            $GPRMC,184028.000,A,4144.3641,N,06959.5476,W,0.33,248.38,250321,,,D*7A 
321.426         GPS_NMEA_FROM_GPS    iGPS            $GPGGA,184029.000,4144.3640,N,06959.5476,W,2,09,1.02,10.2,M,-34.3,M,0000,0000*6C 
322.429         GPS_NMEA_FROM_GPS    iGPS            $GPGGA,184030.000,4144.3639,N,06959.5477,W,2,09,1.02,10.2,M,-34.3,M,0000,0000*6B 
323.431         GPS_NMEA_FROM_GPS    iGPS            $GPGGA,184031.000,4144.3638,N,06959.5477,W,2,09,1.02,10.2,M,-34.3,M,0000,0000*6B 
324.434         GPS_NMEA_FROM_GPS    iGPS            $GPGGA,184032.000,4144.3637,N,06959.5478,W,2,09,1.02,10.2,M,-34.3,M,0000,0000*68 
325.437         GPS_NMEA_FROM_GPS    iGPS            $GPRMC,184033.000,A,4144.3636,N,06959.5478,W,0.49,196.56,250321,,,D*7B 
326.439         GPS_NMEA_FROM_GPS    iGPS            $GPRMC,184034.000,A,4144.3634,N,06959.5478,W,0.53,190.58,250321,,,D*7D 
327.442         GPS_NMEA_FROM_GPS    iGPS            $GPRMC,184035.000,A,4144.3633,N,06959.5478,W,0.57,185.69,250321,,,D*79 
328.445         GPS_NMEA_FROM_GPS    iGPS            $GPRMC,184036.000,A,4144.3631,N,06959.5478,W,0.57,181.76,250321,,,D*72 
329.448         GPS_NMEA_FROM_GPS    iGPS            $GPGGA,184037.000,4144.3630,N,06959.5478,W,2,08,1.08,10.1,M,-34.3,M,0000,0000*62 
330.350         GPS_NMEA_FROM_GPS    iGPS            $GPGGA,184038.000,4144.3628,N,06959.5477,W,2,08,1.08,10.1,M,-34.3,M,0000,0000*6B 
331.453         GPS_NMEA_FROM_GPS    iGPS            $GPGGA,184039.000,4144.3626,N,06959.5477,W,2,08,1.08,10.1,M,-34.3,M,0000,0000*64 
332.456         GPS_NMEA_FROM_GPS    iGPS            $GPGGA,184040.000,4144.3624,N,06959.5477,W,2,09,1.02,10.0,M,-34.3,M,0000,0000*62 
333.359         GPS_NMEA_FROM_GPS    iGPS            $GPGGA,184041.000,4144.3621,N,06959.5477,W,2,09,1.02,10.0,M,-34.3,M,0000,0000*66 
334.462         GPS_NMEA_FROM_GPS    iGPS            $GPRMC,184042.000,A,4144.3619,N,06959.5477,W,0.63,177.97,250321,,,D*75 
335.464         GPS_NMEA_FROM_GPS    iGPS            $GPGGA,184043.000,4144.3617,N,06959.5477,W,2,09,1.00,9.9,M,-34.3,M,0000,0000*52 
336.468         GPS_NMEA_FROM_GPS    iGPS            $GPGGA,184044.000,4144.3615,N,06959.5477,W,2,09,1.00,10.0,M,-34.3,M,0000,0000*66 
337.370         GPS_NMEA_FROM_GPS    iGPS            $GPGGA,184045.000,4144.3613,N,06959.5477,W,2,09,1.02,10.1,M,-34.3,M,0000,0000*62 
338.373         GPS_NMEA_FROM_GPS    iGPS            $GPGGA,184046.000,4144.3611,N,06959.5477,W,2,09,1.02,10.2,M,-34.3,M,0000,0000*60 
339.476         GPS_NMEA_FROM_GPS    iGPS            $GPGGA,184047.000,4144.3609,N,06959.5476,W,2,09,1.02,10.2,M,-34.3,M,0000,0000*69 
340.479         GPS_NMEA_FROM_GPS    iGPS            $GPRMC,184048.000,A,4144.3608,N,06959.5475,W,0.59,164.04,250321,,,D*7C 
341.384         GPS_NMEA_FROM_GPS    iGPS            $GPGGA,184049.000,4144.3606,N,06959.5474,W,2,09,1.02,10.2,M,-34.3,M,0000,0000*6A 
342.487         GPS_NMEA_FROM_GPS    iGPS            $GPRMC,184050.000,A,4144.3605,N,06959.5472,W,0.63,154.45,250321,,,D*70 
343.490         GPS_NMEA_FROM_GPS    iGPS            $GPRMC,184051.000,A,4144.3603,N,06959.5471,W,0.62,150.24,250321,,,D*76 
344.492         GPS_NMEA_FROM_GPS    iGPS            $GPGGA,184052.000,4144.3602,N,06959.5469,W,2,09,1.00,10.0,M,-34.3,M,0000,0000*68 
345.394         GPS_NMEA_FROM_GPS    iGPS            $GPGGA,184053.000,4144.3600,N,06959.5468,W,2,09,1.00,9.9,M,-34.3,M,0000,0000*5B 
346.397         GPS_NMEA_FROM_GPS    iGPS            $GPGGA,184054.000,4144.3599,N,06959.5466,W,2,09,1.02,9.9,M,-34.3,M,0000,0000*53 
347.400         GPS_NMEA_FROM_GPS    iGPS            $GPGGA,184055.000,4144.3598,N,06959.5465,W,2,09,1.02,10.0,M,-34.3,M,0000,0000*61 
348.402         GPS_NMEA_FROM_GPS    iGPS            $GPGGA,184056.000,4144.3596,N,06959.5464,W,2,09,1.00,10.0,M,-34.3,M,0000,0000*6F 
349.405         GPS_NMEA_FROM_GPS    iGPS            $GPGGA,184057.000,4144.3595,N,06959.5462,W,2,09,1.00,10.0,M,-34.3,M,0000,0000*6B 
350.508         GPS_NMEA_FROM_GPS    iGPS            $GPRMC,184058.000,A,4144.3593,N,06959.5461,W,0.70,135.71,250321,,,D*74 
351.409         GPS_NMEA_FROM_GPS    iGPS            $GPGGA,184059.000,4144.3591,N,06959.5459,W,2,09,1.00,10.0,M,-34.3,M,0000,0000*69 
352.414         GPS_NMEA_FROM_GPS    iGPS            $GPGGA,184100.000,4144.3589,N,06959.5457,W,2,09,1.00,10.0,M,-34.3,M,0000,0000*63 
353.417         GPS_NMEA_FROM_GPS    iGPS            $GPGGA,184101.000,4144.3587,N,06959.5455,W,2,09,1.02,10.0,M,-34.3,M,0000,0000*6C 
354.420         GPS_NMEA_FROM_GPS    iGPS            $GPGGA,184102.000,4144.3585,N,06959.5453,W,2,09,1.02,9.9,M,-34.3,M,0000,0000*5A 
355.422         GPS_NMEA_FROM_GPS    iGPS            $GPGGA,184103.000,4144.3583,N,06959.5451,W,2,09,1.00,9.9,M,-34.3,M,0000,0000*5D 
356.425         GPS_NMEA_FROM_GPS    iGPS            $GPGGA,184104.000,4144.3581,N,06959.5450,W,2,09,1.00,10.0,M,-34.3,M,0000,0000*68 
357.428         GPS_NMEA_FROM_GPS    iGPS            $GPGGA,184105.000,4144.3579,N,06959.5448,W,2,09,1.02,10.0,M,-34.3,M,0000,0000*65 
358.431         GPS_NMEA_FROM_GPS    iGPS            $GPGGA,184106.000,4144.3577,N,06959.5447,W,2,09,1.00,10.0,M,-34.3,M,0000,0000*65 
359.434         GPS_NMEA_FROM_GPS    iGPS            $GPGGA,184107.000,4144.3575,N,06959.5446,W,2,09,1.00,10.1,M,-34.3,M,0000,0000*66 
360.437         GPS_NMEA_FROM_GPS    iGPS            $GPGGA,184108.000,4144.3573,N,06959.5446,W,2,09,1.02,10.1,M,-34.3,M,0000,0000*6D 
361.440         GPS_NMEA_FROM_GPS    iGPS            $GPGGA,184109.000,4144.3571,N,06959.5445,W,2,09,1.02,10.1,M,-34.3,M,0000,0000*6D 
362.442         GPS_NMEA_FROM_GPS    iGPS            $GPGGA,184110.000,4144.3569,N,06959.5444,W,2,09,1.02,10.2,M,-34.3,M,0000,0000*6E 
363.445         GPS_NMEA_FROM_GPS    iGPS            $GPGGA,184111.000,4144.3568,N,06959.5443,W,2,09,1.00,10.2,M,-34.3,M,0000,0000*6B 
364.448         GPS_NMEA_FROM_GPS    iGPS            $GPGGA,184112.000,4144.3567,N,06959.5441,W,2,09,1.00,10.1,M,-34.3,M,0000,0000*66 
365.450         GPS_NMEA_FROM_GPS    iGPS            $GPGGA,184113.000,4144.3565,N,06959.5439,W,2,09,1.02,10.0,M,-34.3,M,0000,0000*69 
366.453         GPS_NMEA_FROM_GPS    iGPS            $GPGGA,184114.000,4144.3564,N,06959.5437,W,2,09,1.00,9.9,M,-34.3,M,0000,0000*52 
367.455         GPS_NMEA_FROM_GPS    iGPS            $GPGGA,184115.000,4144.3563,N,06959.5435,W,2,09,1.00,9.8,M,-34.3,M,0000,0000*57 
368.458         GPS_NMEA_FROM_GPS    iGPS            $GPRMC,184116.000,A,4144.3562,N,06959.5433,W,0.68,136.75,250321,,,D*78 
369.461         GPS_NMEA_FROM_GPS    iGPS            $GPRMC,184117.000,A,4144.3560,N,06959.5432,W,0.68,136.46,250321,,,D*7A 
370.363         GPS_NMEA_FROM_GPS    iGPS            $GPGGA,184118.000,4144.3558,N,06959.5431,W,2,09,1.00,9.8,M,-34.3,M,0000,0000*56 
371.467         GPS_NMEA_FROM_GPS    iGPS            $GPGGA,184119.000,4144.3557,N,06959.5429,W,2,09,1.02,9.8,M,-34.3,M,0000,0000*53 
372.469         GPS_NMEA_FROM_GPS    iGPS            $GPGGA,184120.000,4144.3555,N,06959.5428,W,2,09,1.02,9.8,M,-34.3,M,0000,0000*5A 
373.371         GPS_NMEA_FROM_GPS    iGPS            $GPGGA,184121.000,4144.3553,N,06959.5426,W,2,09,1.00,9.8,M,-34.3,M,0000,0000*51 
374.475         GPS_NMEA_FROM_GPS    iGPS            $GPGGA,184122.000,4144.3552,N,06959.5424,W,2,09,1.00,9.8,M,-34.3,M,0000,0000*51 
375.377         GPS_NMEA_FROM_GPS    iGPS            $GPGGA,184123.000,4144.3550,N,06959.5422,W,2,09,1.02,9.8,M,-34.3,M,0000,0000*56 
376.380         GPS_NMEA_FROM_GPS    iGPS            $GPGGA,184124.000,4144.3548,N,06959.5420,W,2,09,1.02,9.7,M,-34.3,M,0000,0000*55 
377.483         GPS_NMEA_FROM_GPS    iGPS            $GPGGA,184125.000,4144.3546,N,06959.5418,W,2,09,1.02,9.6,M,-34.3,M,0000,0000*50 
378.485         GPS_NMEA_FROM_GPS    iGPS            $GPRMC,184126.000,A,4144.3544,N,06959.5416,W,0.74,140.86,250321,,,D*78 
379.488         GPS_NMEA_FROM_GPS    iGPS            $GPGGA,184127.000,4144.3542,N,06959.5415,W,2,09,1.00,9.5,M,-34.3,M,0000,0000*5A 
380.390         GPS_NMEA_FROM_GPS    iGPS            $GPGGA,184128.000,4144.3539,N,06959.5413,W,2,09,1.02,9.5,M,-34.3,M,0000,0000*5D 
381.393         GPS_NMEA_FROM_GPS    iGPS            $GPGGA,184129.000,4144.3537,N,06959.5412,W,2,09,1.00,9.6,M,-34.3,M,0000,0000*52 
382.396         GPS_NMEA_FROM_GPS    iGPS            $GPGGA,184130.000,4144.3536,N,06959.5411,W,2,09,1.00,9.6,M,-34.3,M,0000,0000*58 
383.499         GPS_NMEA_FROM_GPS    iGPS            $GPGGA,184131.000,4144.3534,N,06959.5410,W,2,09,1.02,9.6,M,-34.3,M,0000,0000*58 
384.402         GPS_NMEA_FROM_GPS    iGPS            $GPGGA,184132.000,4144.3532,N,06959.5409,W,2,09,1.02,9.7,M,-34.3,M,0000,0000*54 
385.505         GPS_NMEA_FROM_GPS    iGPS            $GPRMC,184133.000,A,4144.3530,N,06959.5408,W,0.58,154.33,250321,,,D*75 
386.508         GPS_NMEA_FROM_GPS    iGPS            $GPRMC,184134.000,A,4144.3529,N,06959.5407,W,0.57,151.94,250321,,,D*72 
387.410         GPS_NMEA_FROM_GPS    iGPS            $GPGGA,184135.000,4144.3528,N,06959.5405,W,2,09,1.02,9.6,M,-34.3,M,0000,0000*55 
388.513         GPS_NMEA_FROM_GPS    iGPS            $GPRMC,184136.000,A,4144.3527,N,06959.5404,W,0.62,145.11,250321,,,D*73 
389.515         GPS_NMEA_FROM_GPS    iGPS            $GPRMC,184137.000,A,4144.3525,N,06959.5402,W,0.70,138.76,250321,,,D*7E 
390.417         GPS_NMEA_FROM_GPS    iGPS            $GPGGA,184138.000,4144.3524,N,06959.5400,W,2,09,1.00,9.5,M,-34.3,M,0000,0000*50 
391.420         GPS_NMEA_FROM_GPS    iGPS            $GPGGA,184139.000,4144.3524,N,06959.5398,W,2,09,1.02,9.4,M,-34.3,M,0000,0000*54 
392.423         GPS_NMEA_FROM_GPS    iGPS            $GPGGA,184140.000,4144.3522,N,06959.5396,W,2,09,1.00,9.4,M,-34.3,M,0000,0000*50 
393.426         GPS_NMEA_FROM_GPS    iGPS            $GPGGA,184141.000,4144.3521,N,06959.5395,W,2,09,1.00,9.5,M,-34.3,M,0000,0000*50 
394.428         GPS_NMEA_FROM_GPS    iGPS            $GPGGA,184142.000,4144.3520,N,06959.5394,W,2,09,1.02,9.5,M,-34.3,M,0000,0000*51 
395.431         GPS_NMEA_FROM_GPS    iGPS            $GPGGA,184143.000,4144.3518,N,06959.5393,W,2,09,1.02,9.5,M,-34.3,M,0000,0000*5C 
396.433         GPS_NMEA_FROM_GPS    iGPS            $GPGGA,184144.000,4144.3517,N,06959.5392,W,2,09,1.02,9.5,M,-34.3,M,0000,0000*55 
397.436         GPS_NMEA_FROM_GPS    iGPS            $GPRMC,184145.000,A,4144.3516,N,06959.5392,W,0.48,147.45,250321,,,D*76 
398.438         GPS_NMEA_FROM_GPS    iGPS            $GPGGA,184146.000,4144.3514,N,06959.5391,W,2,09,1.02,9.5,M,-34.3,M,0000,0000*57 
399.441         GPS_NMEA_FROM_GPS    iGPS            $GPGGA,184147.000,4144.3513,N,06959.5391,W,2,09,1.02,9.5,M,-34.3,M,0000,0000*51 
400.443         GPS_NMEA_FROM_GPS    iGPS            $GPGGA,184148.000,4144.3512,N,06959.5391,W,2,09,1.02,9.5,M,-34.3,M,0000,0000*5F 
401.446         GPS_NMEA_FROM_GPS    iGPS            $GPGGA,184149.000,4144.3511,N,06959.5391,W,2,09,1.02,9.5,M,-34.3,M,0000,0000*5D 
402.448         GPS_NMEA_FROM_GPS    iGPS            $GPGGA,184150.000,4144.3510,N,06959.5392,W,2,09,1.02,9.4,M,-34.3,M,0000,0000*56 
403.451         GPS_NMEA_FROM_GPS    iGPS            $GPRMC,184151.000,A,4144.3509,N,06959.5393,W,0.51,200.42,250321,,,D*73 
404.454         GPS_NMEA_FROM_GPS    iGPS            $GPGGA,184152.000,4144.3508,N,06959.5395,W,2,09,1.02,9.4,M,-34.3,M,0000,0000*5A 
405.456         GPS_NMEA_FROM_GPS    iGPS            $GPGGA,184153.000,4144.3507,N,06959.5397,W,2,09,1.00,9.3,M,-34.3,M,0000,0000*53 
406.459         GPS_NMEA_FROM_GPS    iGPS            $GPGGA,184154.000,4144.3507,N,06959.5399,W,2,09,1.00,9.3,M,-34.3,M,0000,0000*5A 
407.462         GPS_NMEA_FROM_GPS    iGPS            $GPGGA,184155.000,4144.3507,N,06959.5401,W,2,09,1.00,9.4,M,-34.3,M,0000,0000*5A 
408.464         GPS_NMEA_FROM_GPS    iGPS            $GPGGA,184156.000,4144.3507,N,06959.5403,W,2,09,1.00,9.4,M,-34.3,M,0000,0000*5B 
409.467         GPS_NMEA_FROM_GPS    iGPS            $GPRMC,184157.000,A,4144.3507,N,06959.5404,W,0.55,251.65,250321,,,D*77 
410.369         GPS_NMEA_FROM_GPS    iGPS            $GPGGA,184158.000,4144.3507,N,06959.5406,W,2,09,1.02,9.3,M,-34.3,M,0000,0000*55 
411.472         GPS_NMEA_FROM_GPS    iGPS            $GPGGA,184159.000,4144.3507,N,06959.5408,W,2,09,1.00,9.4,M,-34.3,M,0000,0000*5F 
412.475         GPS_NMEA_FROM_GPS    iGPS            $GPRMC,184200.000,A,4144.3507,N,06959.5410,W,0.57,249.43,250321,,,D*7C 
413.477         GPS_NMEA_FROM_GPS    iGPS            $GPGGA,184201.000,4144.3506,N,06959.5412,W,2,09,1.00,9.4,M,-34.3,M,0000,0000*5B 
414.480         GPS_NMEA_FROM_GPS    iGPS            $GPRMC,184202.000,A,4144.3505,N,06959.5414,W,0.61,243.55,250321,,,D*70 
415.482         GPS_NMEA_FROM_GPS    iGPS            $GPGGA,184203.000,4144.3505,N,06959.5416,W,2,09,1.02,9.5,M,-34.3,M,0000,0000*5D 
416.485         GPS_NMEA_FROM_GPS    iGPS            $GPRMC,184204.000,A,4144.3504,N,06959.5419,W,0.73,238.11,250321,,,D*75 
417.488         GPS_NMEA_FROM_GPS    iGPS            $GPGGA,184205.000,4144.3503,N,06959.5421,W,2,09,1.00,9.8,M,-34.3,M,0000,0000*56 
418.390         GPS_NMEA_FROM_GPS    iGPS            $GPGGA,184206.000,4144.3503,N,06959.5424,W,2,09,1.02,9.9,M,-34.3,M,0000,0000*53 
419.393         GPS_NMEA_FROM_GPS    iGPS            $GPGGA,184207.000,4144.3502,N,06959.5426,W,2,09,1.00,10.0,M,-34.3,M,0000,0000*62 
420.495         GPS_NMEA_FROM_GPS    iGPS            $GPGGA,184208.000,4144.3501,N,06959.5429,W,2,09,1.00,10.2,M,-34.3,M,0000,0000*63 
421.498         GPS_NMEA_FROM_GPS    iGPS            $GPRMC,184209.000,A,4144.3500,N,06959.5431,W,0.74,235.36,250321,,,D*79 
422.501         GPS_NMEA_FROM_GPS    iGPS            $GPGGA,184210.000,4144.3499,N,06959.5434,W,2,09,1.00,10.5,M,-34.3,M,0000,0000*61 
423.403         GPS_NMEA_FROM_GPS    iGPS            $GPGGA,184211.000,4144.3499,N,06959.5436,W,2,09,1.00,10.6,M,-34.3,M,0000,0000*61 
424.406         GPS_NMEA_FROM_GPS    iGPS            $GPGGA,184212.000,4144.3498,N,06959.5439,W,2,09,1.00,10.6,M,-34.3,M,0000,0000*6C 
425.509         GPS_NMEA_FROM_GPS    iGPS            $GPGGA,184213.000,4144.3497,N,06959.5441,W,2,09,1.00,10.7,M,-34.3,M,0000,0000*6C 
426.412         GPS_NMEA_FROM_GPS    iGPS            $GPGGA,184214.000,4144.3496,N,06959.5444,W,2,09,1.00,10.8,M,-34.3,M,0000,0000*60 
427.518         GPS_NMEA_FROM_GPS    iGPS            $GPRMC,184215.000,A,4144.3495,N,06959.5446,W,0.76,238.02,250321,,,D*71 
428.419         GPS_NMEA_FROM_GPS    iGPS            $GPGGA,184216.000,4144.3495,N,06959.5449,W,2,09,1.00,10.9,M,-34.3,M,0000,0000*6D 
429.522         GPS_NMEA_FROM_GPS    iGPS            $GPRMC,184217.000,A,4144.3494,N,06959.5451,W,0.78,240.55,250321,,,D*77 
430.424         GPS_NMEA_FROM_GPS    iGPS            $GPGGA,184218.000,4144.3493,N,06959.5454,W,2,09,1.00,11.1,M,-34.3,M,0000,0000*60 
431.427         GPS_NMEA_FROM_GPS    iGPS            $GPGGA,184219.000,4144.3492,N,06959.5456,W,2,09,1.00,11.2,M,-34.3,M,0000,0000*61 
432.530         GPS_NMEA_FROM_GPS    iGPS            $GPRMC,184220.000,A,4144.3492,N,06959.5459,W,0.78,242.39,250321,,,D*75 
433.432         GPS_NMEA_FROM_GPS    iGPS            $GPGGA,184221.000,4144.3491,N,06959.5462,W,2,09,1.00,11.5,M,-34.3,M,0000,0000*69 
434.435         GPS_NMEA_FROM_GPS    iGPS            $GPGGA,184222.000,4144.3490,N,06959.5464,W,2,09,1.00,11.6,M,-34.3,M,0000,0000*6E 
435.437         GPS_NMEA_FROM_GPS    iGPS            $GPGGA,184223.000,4144.3490,N,06959.5467,W,2,09,1.00,11.7,M,-34.3,M,0000,0000*6D 
436.440         GPS_NMEA_FROM_GPS    iGPS            $GPGGA,184224.000,4144.3489,N,06959.5469,W,2,09,1.00,11.8,M,-34.3,M,0000,0000*63 
437.443         GPS_NMEA_FROM_GPS    iGPS            $GPGGA,184225.000,4144.3488,N,06959.5471,W,2,09,1.00,11.9,M,-34.3,M,0000,0000*6B 
438.445         GPS_NMEA_FROM_GPS    iGPS            $GPGGA,184226.000,4144.3487,N,06959.5474,W,2,09,1.00,12.0,M,-34.3,M,0000,0000*68 
439.448         GPS_NMEA_FROM_GPS    iGPS            $GPGGA,184227.000,4144.3487,N,06959.5476,W,2,09,1.00,12.1,M,-34.3,M,0000,0000*6A 
440.451         GPS_NMEA_FROM_GPS    iGPS            $GPRMC,184228.000,A,4144.3486,N,06959.5479,W,0.79,240.30,250321,,,D*70 
441.453         GPS_NMEA_FROM_GPS    iGPS            $GPGGA,184229.000,4144.3485,N,06959.5482,W,2,09,1.00,12.2,M,-34.3,M,0000,0000*6E 
442.456         GPS_NMEA_FROM_GPS    iGPS            $GPGGA,184230.000,4144.3484,N,06959.5484,W,2,09,1.00,12.3,M,-34.3,M,0000,0000*60 
443.459         GPS_NMEA_FROM_GPS    iGPS            $GPGGA,184231.000,4144.3483,N,06959.5487,W,2,09,1.00,12.4,M,-34.3,M,0000,0000*62 
444.461         GPS_NMEA_FROM_GPS    iGPS            $GPRMC,184232.000,A,4144.3482,N,06959.5490,W,0.78,242.28,250321,,,D*72 
445.464         GPS_NMEA_FROM_GPS    iGPS            $GPGGA,184233.000,4144.3482,N,06959.5493,W,2,09,1.00,12.7,M,-34.3,M,0000,0000*67 
446.466         GPS_NMEA_FROM_GPS    iGPS            $GPGGA,184234.000,4144.3481,N,06959.5495,W,2,09,1.00,12.8,M,-34.3,M,0000,0000*6A 
447.469         GPS_NMEA_FROM_GPS    iGPS            $GPRMC,184235.000,A,4144.3481,N,06959.5498,W,0.70,240.33,250321,,,D*7E 
448.472         GPS_NMEA_FROM_GPS    iGPS            $GPGGA,184236.000,4144.3480,N,06959.5500,W,2,09,1.00,12.9,M,-34.3,M,0000,0000*65 
