1.667           GPS_NMEA_FROM_GPS    iGPS            $GPRMC,185328.000,A,4144.3507,N,06959.5359,W,0.20,319.56,270321,,,D*7E 
2.468           GPS_NMEA_FROM_GPS    iGPS            $GPRMC,185329.000,A,4144.3508,N,06959.5359,W,0.19,316.39,270321,,,D*7C 
2.468           GPS_NMEA_FROM_GPS    iGPS            $GPRMC,185329.000,A,4144.3508,N,06959.5359,W,0.19,316.39,270321,,,D*7C 
3.372           GPS_NMEA_FROM_GPS    iGPS            $GPGGA,185330.000,4144.3508,N,06959.5360,W,2,09,0.98,13.2,M,-34.3,M,0000,0000*68 
3.372           GPS_NMEA_FROM_GPS    iGPS            $GPGGA,185330.000,4144.3508,N,06959.5360,W,2,09,0.98,13.2,M,-34.3,M,0000,0000*68 
4.475           GPS_NMEA_FROM_GPS    iGPS            $GPGGA,185331.000,4144.3508,N,06959.5361,W,2,09,0.98,13.2,M,-34.3,M,0000,0000*68 
5.377           GPS_NMEA_FROM_GPS    iGPS            $GPGGA,185332.000,4144.3508,N,06959.5361,W,2,09,0.98,13.2,M,-34.3,M,0000,0000*6B 
6.480           GPS_NMEA_FROM_GPS    iGPS            $GPRMC,185333.000,A,4144.3509,N,06959.5362,W,0.19,298.81,270321,,,D*7A 
7.482           GPS_NMEA_FROM_GPS    iGPS            $GPRMC,185334.000,A,4144.3509,N,06959.5363,W,0.18,294.64,270321,,,D*7A 
8.484           GPS_NMEA_FROM_GPS    iGPS            $GPRMC,185335.000,A,4144.3509,N,06959.5363,W,0.20,290.97,270321,,,D*78 
9.485           GPS_NMEA_FROM_GPS    iGPS            $GPRMC,185336.000,A,4144.3509,N,06959.5364,W,0.19,287.68,270321,,,D*70 
10.387          GPS_NMEA_FROM_GPS    iGPS            $GPGGA,185337.000,4144.3509,N,06959.5365,W,2,09,0.98,13.1,M,-34.3,M,0000,0000*68 
11.389          GPS_NMEA_FROM_GPS    iGPS            $GPGGA,185338.000,4144.3509,N,06959.5365,W,2,09,0.98,13.1,M,-34.3,M,0000,0000*67 
11.389          GPS_NMEA_FROM_GPS    iGPS            $GPGGA,185338.000,4144.3509,N,06959.5365,W,2,09,0.98,13.1,M,-34.3,M,0000,0000*67 
12.391          GPS_NMEA_FROM_GPS    iGPS            $GPGGA,185339.000,4144.3509,N,06959.5366,W,2,09,0.98,13.1,M,-34.3,M,0000,0000*65 
12.391          GPS_NMEA_FROM_GPS    iGPS            $GPGGA,185339.000,4144.3509,N,06959.5366,W,2,09,0.98,13.1,M,-34.3,M,0000,0000*65 
13.394          GPS_NMEA_FROM_GPS    iGPS            $GPGGA,185340.000,4144.3509,N,06959.5367,W,2,09,0.98,13.0,M,-34.3,M,0000,0000*6B 
14.397          GPS_NMEA_FROM_GPS    iGPS            $GPGGA,185341.000,4144.3509,N,06959.5367,W,2,09,0.98,13.0,M,-34.3,M,0000,0000*6A 
15.399          GPS_NMEA_FROM_GPS    iGPS            $GPGGA,185342.000,4144.3509,N,06959.5368,W,2,09,0.98,13.0,M,-34.3,M,0000,0000*66 
16.501          GPS_NMEA_FROM_GPS    iGPS            $GPRMC,185343.000,A,4144.3509,N,06959.5369,W,0.17,279.06,270321,,,D*78 
17.403          GPS_NMEA_FROM_GPS    iGPS            $GPGGA,185344.000,4144.3509,N,06959.5369,W,2,09,0.98,12.9,M,-34.3,M,0000,0000*69 
18.505          GPS_NMEA_FROM_GPS    iGPS            $GPRMC,185345.000,A,4144.3509,N,06959.5370,W,0.19,279.44,270321,,,D*7E 
19.407          GPS_NMEA_FROM_GPS    iGPS            $GPGGA,185346.000,4144.3510,N,06959.5371,W,2,09,0.98,12.9,M,-34.3,M,0000,0000*6A 
20.409          GPS_NMEA_FROM_GPS    iGPS            $GPGGA,185347.000,4144.3510,N,06959.5371,W,2,09,0.98,12.8,M,-34.3,M,0000,0000*6A 
21.411          GPS_NMEA_FROM_GPS    iGPS            $GPGGA,185348.000,4144.3510,N,06959.5372,W,2,09,0.98,12.8,M,-34.3,M,0000,0000*66 
22.413          GPS_NMEA_FROM_GPS    iGPS            $GPGGA,185349.000,4144.3510,N,06959.5373,W,2,09,0.98,12.8,M,-34.3,M,0000,0000*66 
23.415          GPS_NMEA_FROM_GPS    iGPS            $GPGGA,185350.000,4144.3510,N,06959.5374,W,2,09,0.98,12.7,M,-34.3,M,0000,0000*66 
24.417          GPS_NMEA_FROM_GPS    iGPS            $GPRMC,185351.000,A,4144.3510,N,06959.5374,W,0.19,276.26,270321,,,D*7C 
24.417          GPS_NMEA_FROM_GPS    iGPS            $GPRMC,185351.000,A,4144.3510,N,06959.5374,W,0.19,276.26,270321,,,D*7C 
25.420          GPS_NMEA_FROM_GPS    iGPS            $GPGGA,185352.000,4144.3510,N,06959.5375,W,2,09,0.98,12.7,M,-34.3,M,0000,0000*65 
26.423          GPS_NMEA_FROM_GPS    iGPS            $GPGGA,185353.000,4144.3510,N,06959.5376,W,2,09,0.98,12.7,M,-34.3,M,0000,0000*67 
26.423          GPS_NMEA_FROM_GPS    iGPS            $GPGGA,185353.000,4144.3510,N,06959.5376,W,2,09,0.98,12.7,M,-34.3,M,0000,0000*67 
27.425          GPS_NMEA_FROM_GPS    iGPS            $GPGGA,185354.000,4144.3510,N,06959.5376,W,2,09,0.98,12.6,M,-34.3,M,0000,0000*61 
28.428          GPS_NMEA_FROM_GPS    iGPS            $GPGGA,185355.000,4144.3510,N,06959.5377,W,2,09,0.98,12.6,M,-34.3,M,0000,0000*61 
29.430          GPS_NMEA_FROM_GPS    iGPS            $GPGGA,185356.000,4144.3510,N,06959.5378,W,2,09,0.98,12.6,M,-34.3,M,0000,0000*6D 
30.434          GPS_NMEA_FROM_GPS    iGPS            $GPGGA,185357.000,4144.3510,N,06959.5379,W,2,09,0.98,12.6,M,-34.3,M,0000,0000*6D 
31.436          GPS_NMEA_FROM_GPS    iGPS            $GPRMC,185358.000,A,4144.3511,N,06959.5379,W,0.19,298.46,270321,,,D*7F 
32.438          GPS_NMEA_FROM_GPS    iGPS            $GPRMC,185359.000,A,4144.3511,N,06959.5380,W,0.19,304.72,270321,,,D*7B 
33.440          GPS_NMEA_FROM_GPS    iGPS            $GPRMC,185400.000,A,4144.3512,N,06959.5380,W,0.17,311.40,270321,,,D*78 
34.442          GPS_NMEA_FROM_GPS    iGPS            $GPGGA,185401.000,4144.3512,N,06959.5380,W,2,09,0.98,12.5,M,-34.3,M,0000,0000*6E 
35.445          GPS_NMEA_FROM_GPS    iGPS            $GPGGA,185402.000,4144.3513,N,06959.5380,W,2,09,0.98,12.5,M,-34.3,M,0000,0000*6C 
36.447          GPS_NMEA_FROM_GPS    iGPS            $GPRMC,185403.000,A,4144.3513,N,06959.5380,W,0.20,6.13,270321,,,D*7D 
37.449          GPS_NMEA_FROM_GPS    iGPS            $GPGGA,185404.000,4144.3514,N,06959.5380,W,2,09,0.98,12.4,M,-34.3,M,0000,0000*6C 
38.451          GPS_NMEA_FROM_GPS    iGPS            $GPGGA,185405.000,4144.3514,N,06959.5380,W,2,09,0.98,12.4,M,-34.3,M,0000,0000*6D 
39.454          GPS_NMEA_FROM_GPS    iGPS            $GPGGA,185406.000,4144.3515,N,06959.5380,W,2,09,0.98,12.3,M,-34.3,M,0000,0000*68 
40.355          GPS_NMEA_FROM_GPS    iGPS            $GPGGA,185407.000,4144.3516,N,06959.5379,W,2,09,0.98,12.3,M,-34.3,M,0000,0000*6C 
41.458          GPS_NMEA_FROM_GPS    iGPS            $GPGGA,185408.000,4144.3516,N,06959.5378,W,2,09,0.96,12.3,M,-34.3,M,0000,0000*6C 
42.460          GPS_NMEA_FROM_GPS    iGPS            $GPRMC,185409.000,A,4144.3517,N,06959.5377,W,0.40,34.88,270321,,,D*4E 
43.363          GPS_NMEA_FROM_GPS    iGPS            $GPGGA,185410.000,4144.3518,N,06959.5376,W,2,09,0.96,12.2,M,-34.3,M,0000,0000*64 
44.466          GPS_NMEA_FROM_GPS    iGPS            $GPRMC,185411.000,A,4144.3519,N,06959.5375,W,0.46,38.51,270321,,,D*45 
45.368          GPS_NMEA_FROM_GPS    iGPS            $GPGGA,185412.000,4144.3520,N,06959.5374,W,2,09,0.96,12.2,M,-34.3,M,0000,0000*6F 
46.370          GPS_NMEA_FROM_GPS    iGPS            $GPGGA,185413.000,4144.3521,N,06959.5373,W,2,09,0.96,12.3,M,-34.3,M,0000,0000*69 
47.473          GPS_NMEA_FROM_GPS    iGPS            $GPGGA,185414.000,4144.3522,N,06959.5372,W,2,09,0.96,12.3,M,-34.3,M,0000,0000*6C 
48.475          GPS_NMEA_FROM_GPS    iGPS            $GPGGA,185415.000,4144.3523,N,06959.5370,W,2,09,0.96,12.3,M,-34.3,M,0000,0000*6E 
49.477          GPS_NMEA_FROM_GPS    iGPS            $GPGGA,185416.000,4144.3524,N,06959.5369,W,2,09,0.96,12.3,M,-34.3,M,0000,0000*62 
50.479          GPS_NMEA_FROM_GPS    iGPS            $GPGGA,185417.000,4144.3525,N,06959.5367,W,2,09,0.96,12.3,M,-34.3,M,0000,0000*6C 
51.481          GPS_NMEA_FROM_GPS    iGPS            $GPGGA,185418.000,4144.3526,N,06959.5365,W,2,09,0.96,12.3,M,-34.3,M,0000,0000*62 
52.383          GPS_NMEA_FROM_GPS    iGPS            $GPGGA,185419.000,4144.3527,N,06959.5363,W,2,09,0.96,12.3,M,-34.3,M,0000,0000*64 
53.385          GPS_NMEA_FROM_GPS    iGPS            $GPGGA,185420.000,4144.3528,N,06959.5361,W,2,09,0.96,12.3,M,-34.3,M,0000,0000*63 
54.387          GPS_NMEA_FROM_GPS    iGPS            $GPGGA,185421.000,4144.3528,N,06959.5358,W,2,08,1.04,12.2,M,-34.3,M,0000,0000*62 
55.389          GPS_NMEA_FROM_GPS    iGPS            $GPGGA,185422.000,4144.3529,N,06959.5356,W,2,09,0.96,12.1,M,-34.3,M,0000,0000*66 
56.392          GPS_NMEA_FROM_GPS    iGPS            $GPGGA,185423.000,4144.3530,N,06959.5353,W,2,09,0.96,12.0,M,-34.3,M,0000,0000*6B 
57.394          GPS_NMEA_FROM_GPS    iGPS            $GPGGA,185424.000,4144.3530,N,06959.5350,W,2,09,0.96,12.0,M,-34.3,M,0000,0000*6F 
58.497          GPS_NMEA_FROM_GPS    iGPS            $GPRMC,185425.000,A,4144.3530,N,06959.5348,W,0.68,63.33,270321,,,D*41 
59.399          GPS_NMEA_FROM_GPS    iGPS            $GPGGA,185426.000,4144.3531,N,06959.5345,W,2,09,0.96,11.8,M,-34.3,M,0000,0000*63 
60.405          GPS_NMEA_FROM_GPS    iGPS            $GPGGA,185427.000,4144.3531,N,06959.5342,W,2,09,0.96,11.7,M,-34.3,M,0000,0000*6A 
61.407          GPS_NMEA_FROM_GPS    iGPS            $GPGGA,185428.000,4144.3532,N,06959.5340,W,2,09,0.96,11.7,M,-34.3,M,0000,0000*64 
62.409          GPS_NMEA_FROM_GPS    iGPS            $GPGGA,185429.000,4144.3532,N,06959.5337,W,2,09,0.96,11.6,M,-34.3,M,0000,0000*64 
63.411          GPS_NMEA_FROM_GPS    iGPS            $GPGGA,185430.000,4144.3532,N,06959.5334,W,2,09,0.96,11.5,M,-34.3,M,0000,0000*6C 
64.413          GPS_NMEA_FROM_GPS    iGPS            $GPGGA,185431.000,4144.3533,N,06959.5331,W,2,09,0.96,11.4,M,-34.3,M,0000,0000*68 
65.416          GPS_NMEA_FROM_GPS    iGPS            $GPGGA,185432.000,4144.3533,N,06959.5328,W,2,09,0.96,11.4,M,-34.3,M,0000,0000*63 
66.418          GPS_NMEA_FROM_GPS    iGPS            $GPGGA,185433.000,4144.3534,N,06959.5325,W,2,09,0.96,11.3,M,-34.3,M,0000,0000*6F 
67.420          GPS_NMEA_FROM_GPS    iGPS            $GPGGA,185434.000,4144.3534,N,06959.5322,W,2,08,1.04,11.2,M,-34.3,M,0000,0000*65 
68.423          GPS_NMEA_FROM_GPS    iGPS            $GPGGA,185435.000,4144.3535,N,06959.5319,W,2,09,0.96,11.1,M,-34.3,M,0000,0000*65 
69.425          GPS_NMEA_FROM_GPS    iGPS            $GPGGA,185436.000,4144.3535,N,06959.5316,W,2,08,1.04,11.1,M,-34.3,M,0000,0000*62 
70.427          GPS_NMEA_FROM_GPS    iGPS            $GPGGA,185437.000,4144.3536,N,06959.5313,W,2,08,1.04,11.0,M,-34.3,M,0000,0000*64 
71.429          GPS_NMEA_FROM_GPS    iGPS            $GPGGA,185438.000,4144.3537,N,06959.5310,W,2,09,0.96,10.9,M,-34.3,M,0000,0000*6A 
72.432          GPS_NMEA_FROM_GPS    iGPS            $GPRMC,185439.000,A,4144.3537,N,06959.5308,W,0.75,65.35,270321,,,D*43 
73.434          GPS_NMEA_FROM_GPS    iGPS            $GPGGA,185440.000,4144.3538,N,06959.5305,W,2,09,0.96,10.8,M,-34.3,M,0000,0000*6F 
74.436          GPS_NMEA_FROM_GPS    iGPS            $GPGGA,185441.000,4144.3538,N,06959.5302,W,2,09,0.96,10.8,M,-34.3,M,0000,0000*69 
75.438          GPS_NMEA_FROM_GPS    iGPS            $GPRMC,185442.000,A,4144.3538,N,06959.5299,W,0.78,69.92,270321,,,D*45 
76.440          GPS_NMEA_FROM_GPS    iGPS            $GPRMC,185443.000,A,4144.3538,N,06959.5296,W,0.76,71.86,270321,,,D*49 
77.442          GPS_NMEA_FROM_GPS    iGPS            $GPGGA,185444.000,4144.3539,N,06959.5293,W,2,09,0.96,10.7,M,-34.3,M,0000,0000*6B 
78.444          GPS_NMEA_FROM_GPS    iGPS            $GPGGA,185445.000,4144.3539,N,06959.5290,W,2,09,0.99,10.7,M,-34.3,M,0000,0000*66 
79.451          GPS_NMEA_FROM_GPS    iGPS            $GPGGA,185446.000,4144.3539,N,06959.5287,W,2,09,0.96,10.7,M,-34.3,M,0000,0000*6C 
80.453          GPS_NMEA_FROM_GPS    iGPS            $GPGGA,185447.000,4144.3540,N,06959.5284,W,2,09,0.96,10.6,M,-34.3,M,0000,0000*61 
81.455          GPS_NMEA_FROM_GPS    iGPS            $GPGGA,185448.000,4144.3541,N,06959.5281,W,2,09,0.99,10.5,M,-34.3,M,0000,0000*66 
82.357          GPS_NMEA_FROM_GPS    iGPS            $GPGGA,185449.000,4144.3542,N,06959.5278,W,2,09,0.97,10.5,M,-34.3,M,0000,0000*6C 
83.459          GPS_NMEA_FROM_GPS    iGPS            $GPGGA,185450.000,4144.3542,N,06959.5275,W,2,09,0.97,10.4,M,-34.3,M,0000,0000*68 
84.461          GPS_NMEA_FROM_GPS    iGPS            $GPRMC,185451.000,A,4144.3543,N,06959.5272,W,0.73,69.09,270321,,,D*47 
85.363          GPS_NMEA_FROM_GPS    iGPS            $GPGGA,185452.000,4144.3543,N,06959.5269,W,2,09,0.97,10.3,M,-34.3,M,0000,0000*61 
86.365          GPS_NMEA_FROM_GPS    iGPS            $GPGGA,185453.000,4144.3544,N,06959.5265,W,2,09,0.97,10.2,M,-34.3,M,0000,0000*6A 
87.467          GPS_NMEA_FROM_GPS    iGPS            $GPRMC,185454.000,A,4144.3544,N,06959.5262,W,0.74,72.58,270321,,,D*4D 
88.369          GPS_NMEA_FROM_GPS    iGPS            $GPGGA,185455.000,4144.3545,N,06959.5259,W,2,09,0.97,10.1,M,-34.3,M,0000,0000*61 
89.471          GPS_NMEA_FROM_GPS    iGPS            $GPGGA,185456.000,4144.3545,N,06959.5256,W,2,09,0.97,10.0,M,-34.3,M,0000,0000*6C 
90.373          GPS_NMEA_FROM_GPS    iGPS            $GPGGA,185457.000,4144.3545,N,06959.5253,W,2,09,0.97,9.8,M,-34.3,M,0000,0000*58 
91.476          GPS_NMEA_FROM_GPS    iGPS            $GPRMC,185458.000,A,4144.3546,N,06959.5251,W,0.74,73.85,270321,,,D*42 
92.477          GPS_NMEA_FROM_GPS    iGPS            $GPGGA,185459.000,4144.3546,N,06959.5248,W,2,09,0.97,9.6,M,-34.3,M,0000,0000*51 
93.480          GPS_NMEA_FROM_GPS    iGPS            $GPRMC,185500.000,A,4144.3547,N,06959.5245,W,0.78,70.45,270321,,,D*49 
94.482          GPS_NMEA_FROM_GPS    iGPS            $GPRMC,185501.000,A,4144.3547,N,06959.5243,W,0.77,68.43,270321,,,D*4E 
95.383          GPS_NMEA_FROM_GPS    iGPS            $GPGGA,185502.000,4144.3548,N,06959.5240,W,2,09,0.97,9.5,M,-34.3,M,0000,0000*5B 
96.385          GPS_NMEA_FROM_GPS    iGPS            $GPGGA,185503.000,4144.3548,N,06959.5238,W,2,09,0.97,9.6,M,-34.3,M,0000,0000*56 
97.387          GPS_NMEA_FROM_GPS    iGPS            $GPGGA,185504.000,4144.3549,N,06959.5236,W,2,09,0.97,9.5,M,-34.3,M,0000,0000*5D 
98.490          GPS_NMEA_FROM_GPS    iGPS            $GPRMC,185505.000,A,4144.3549,N,06959.5233,W,0.71,66.09,270321,,,D*45 
99.391          GPS_NMEA_FROM_GPS    iGPS            $GPGGA,185506.000,4144.3550,N,06959.5230,W,2,09,0.97,9.5,M,-34.3,M,0000,0000*51 
100.394         GPS_NMEA_FROM_GPS    iGPS            $GPGGA,185507.000,4144.3550,N,06959.5228,W,2,09,0.97,9.5,M,-34.3,M,0000,0000*59 
101.496         GPS_NMEA_FROM_GPS    iGPS            $GPRMC,185508.000,A,4144.3551,N,06959.5225,W,0.72,68.84,270321,,,D*4E 
102.397         GPS_NMEA_FROM_GPS    iGPS            $GPGGA,185509.000,4144.3551,N,06959.5222,W,2,09,0.97,9.3,M,-34.3,M,0000,0000*5A 
103.500         GPS_NMEA_FROM_GPS    iGPS            $GPRMC,185510.000,A,4144.3551,N,06959.5219,W,0.77,69.38,270321,,,D*4B 
104.502         GPS_NMEA_FROM_GPS    iGPS            $GPRMC,185511.000,A,4144.3552,N,06959.5216,W,0.79,67.73,270321,,,D*49 
105.404         GPS_NMEA_FROM_GPS    iGPS            $GPGGA,185512.000,4144.3552,N,06959.5214,W,2,09,0.97,9.1,M,-34.3,M,0000,0000*54 
106.407         GPS_NMEA_FROM_GPS    iGPS            $GPGGA,185513.000,4144.3553,N,06959.5211,W,2,09,0.97,9.1,M,-34.3,M,0000,0000*51 
107.409         GPS_NMEA_FROM_GPS    iGPS            $GPGGA,185514.000,4144.3554,N,06959.5209,W,2,09,0.97,9.1,M,-34.3,M,0000,0000*58 
108.411         GPS_NMEA_FROM_GPS    iGPS            $GPGGA,185515.000,4144.3555,N,06959.5207,W,2,09,0.97,9.1,M,-34.3,M,0000,0000*56 
109.413         GPS_NMEA_FROM_GPS    iGPS            $GPGGA,185516.000,4144.3556,N,06959.5204,W,2,09,0.97,9.1,M,-34.3,M,0000,0000*55 
110.415         GPS_NMEA_FROM_GPS    iGPS            $GPGGA,185517.000,4144.3557,N,06959.5202,W,2,09,0.97,9.2,M,-34.3,M,0000,0000*50 
111.418         GPS_NMEA_FROM_GPS    iGPS            $GPGGA,185518.000,4144.3557,N,06959.5200,W,2,09,0.97,9.1,M,-34.3,M,0000,0000*5E 
112.420         GPS_NMEA_FROM_GPS    iGPS            $GPGGA,185519.000,4144.3558,N,06959.5197,W,2,09,0.97,9.1,M,-34.3,M,0000,0000*5D 
113.422         GPS_NMEA_FROM_GPS    iGPS            $GPGGA,185520.000,4144.3559,N,06959.5195,W,2,09,0.97,9.1,M,-34.3,M,0000,0000*54 
114.424         GPS_NMEA_FROM_GPS    iGPS            $GPGGA,185521.000,4144.3559,N,06959.5192,W,2,09,0.97,9.1,M,-34.3,M,0000,0000*52 
115.426         GPS_NMEA_FROM_GPS    iGPS            $GPGGA,185522.000,4144.3560,N,06959.5189,W,2,09,0.97,9.0,M,-34.3,M,0000,0000*50 
116.428         GPS_NMEA_FROM_GPS    iGPS            $GPGGA,185523.000,4144.3561,N,06959.5187,W,2,09,0.97,9.0,M,-34.3,M,0000,0000*5E 
117.430         GPS_NMEA_FROM_GPS    iGPS            $GPRMC,185524.000,A,4144.3562,N,06959.5184,W,0.78,62.71,270321,,,D*42 
118.433         GPS_NMEA_FROM_GPS    iGPS            $GPGGA,185525.000,4144.3563,N,06959.5182,W,2,09,0.97,9.0,M,-34.3,M,0000,0000*5F 
119.435         GPS_NMEA_FROM_GPS    iGPS            $GPGGA,185526.000,4144.3564,N,06959.5180,W,2,09,0.97,9.0,M,-34.3,M,0000,0000*59 
120.337         GPS_NMEA_FROM_GPS    iGPS            $GPGGA,185527.000,4144.3566,N,06959.5178,W,2,09,0.97,9.1,M,-34.3,M,0000,0000*5C 
121.440         GPS_NMEA_FROM_GPS    iGPS            $GPRMC,185528.000,A,4144.3567,N,06959.5175,W,0.76,58.20,270321,,,D*46 
122.443         GPS_NMEA_FROM_GPS    iGPS            $GPGGA,185529.000,4144.3568,N,06959.5173,W,2,09,0.97,9.1,M,-34.3,M,0000,0000*57 
123.449         GPS_NMEA_FROM_GPS    iGPS            $GPGGA,185530.000,4144.3568,N,06959.5171,W,2,09,0.97,9.1,M,-34.3,M,0000,0000*5D 
124.452         GPS_NMEA_FROM_GPS    iGPS            $GPGGA,185531.000,4144.3569,N,06959.5168,W,2,09,0.97,9.1,M,-34.3,M,0000,0000*55 
125.454         GPS_NMEA_FROM_GPS    iGPS            $GPGGA,185532.000,4144.3570,N,06959.5166,W,2,09,0.97,9.1,M,-34.3,M,0000,0000*50 
126.456         GPS_NMEA_FROM_GPS    iGPS            $GPRMC,185533.000,A,4144.3570,N,06959.5163,W,0.75,64.87,270321,,,D*4C 
127.358         GPS_NMEA_FROM_GPS    iGPS            $GPGGA,185534.000,4144.3571,N,06959.5161,W,2,09,0.97,9.0,M,-34.3,M,0000,0000*51 
128.361         GPS_NMEA_FROM_GPS    iGPS            $GPGGA,185535.000,4144.3572,N,06959.5159,W,2,09,0.97,9.1,M,-34.3,M,0000,0000*59 
129.463         GPS_NMEA_FROM_GPS    iGPS            $GPGGA,185536.000,4144.3573,N,06959.5157,W,2,09,0.97,9.1,M,-34.3,M,0000,0000*55 
130.365         GPS_NMEA_FROM_GPS    iGPS            $GPGGA,185537.000,4144.3575,N,06959.5155,W,2,09,0.97,9.1,M,-34.3,M,0000,0000*50 
131.468         GPS_NMEA_FROM_GPS    iGPS            $GPRMC,185538.000,A,4144.3576,N,06959.5153,W,0.76,58.07,270321,,,D*46 
132.369         GPS_NMEA_FROM_GPS    iGPS            $GPGGA,185539.000,4144.3578,N,06959.5151,W,2,09,0.97,9.1,M,-34.3,M,0000,0000*57 
133.373         GPS_NMEA_FROM_GPS    iGPS            $GPGGA,185540.000,4144.3580,N,06959.5149,W,2,09,0.97,9.1,M,-34.3,M,0000,0000*57 
134.474         GPS_NMEA_FROM_GPS    iGPS            $GPRMC,185541.000,A,4144.3581,N,06959.5147,W,0.78,54.64,270321,,,D*42 
135.476         GPS_NMEA_FROM_GPS    iGPS            $GPRMC,185542.000,A,4144.3583,N,06959.5145,W,0.76,54.52,270321,,,D*4A 
136.378         GPS_NMEA_FROM_GPS    iGPS            $GPGGA,185543.000,4144.3585,N,06959.5144,W,2,09,0.97,9.2,M,-34.3,M,0000,0000*5F 
137.381         GPS_NMEA_FROM_GPS    iGPS            $GPGGA,185544.000,4144.3586,N,06959.5142,W,2,09,0.97,9.2,M,-34.3,M,0000,0000*5D 
138.383         GPS_NMEA_FROM_GPS    iGPS            $GPGGA,185545.000,4144.3587,N,06959.5141,W,2,09,0.97,9.2,M,-34.3,M,0000,0000*5E 
139.385         GPS_NMEA_FROM_GPS    iGPS            $GPGGA,185546.000,4144.3588,N,06959.5140,W,2,09,0.99,9.3,M,-34.3,M,0000,0000*5C 
140.387         GPS_NMEA_FROM_GPS    iGPS            $GPGGA,185547.000,4144.3589,N,06959.5139,W,2,08,1.33,9.3,M,-34.3,M,0000,0000*52 
141.489         GPS_NMEA_FROM_GPS    iGPS            $GPRMC,185548.000,A,4144.3590,N,06959.5138,W,0.47,43.76,270321,,,D*4A 
142.391         GPS_NMEA_FROM_GPS    iGPS            $GPGGA,185549.000,4144.3591,N,06959.5137,W,2,09,0.99,9.4,M,-34.3,M,0000,0000*5C 
143.494         GPS_NMEA_FROM_GPS    iGPS            $GPRMC,185550.000,A,4144.3593,N,06959.5137,W,0.46,32.53,270321,,,D*4F 
144.496         GPS_NMEA_FROM_GPS    iGPS            $GPRMC,185551.000,A,4144.3594,N,06959.5136,W,0.44,25.42,270321,,,D*4C 
145.398         GPS_NMEA_FROM_GPS    iGPS            $GPGGA,185552.000,4144.3595,N,06959.5136,W,2,08,1.33,9.3,M,-34.3,M,0000,0000*54 
146.400         GPS_NMEA_FROM_GPS    iGPS            $GPGGA,185553.000,4144.3596,N,06959.5137,W,2,08,1.33,9.2,M,-34.3,M,0000,0000*56 
147.502         GPS_NMEA_FROM_GPS    iGPS            $GPRMC,185554.000,A,4144.3597,N,06959.5138,W,0.47,355.09,270321,,,D*7C 
148.404         GPS_NMEA_FROM_GPS    iGPS            $GPGGA,185555.000,4144.3598,N,06959.5139,W,2,09,0.99,9.2,M,-34.3,M,0000,0000*50 
149.407         GPS_NMEA_FROM_GPS    iGPS            $GPRMC,185556.000,A,4144.3599,N,06959.5140,W,0.51,332.13,270321,,,D*72 
150.409         GPS_NMEA_FROM_GPS    iGPS            $GPGGA,185557.000,4144.3600,N,06959.5142,W,2,09,0.99,9.1,M,-34.3,M,0000,0000*5F 
151.411         GPS_NMEA_FROM_GPS    iGPS            $GPRMC,185558.000,A,4144.3601,N,06959.5143,W,0.54,312.52,270321,,,D*7F 
152.413         GPS_NMEA_FROM_GPS    iGPS            $GPGGA,185559.000,4144.3601,N,06959.5145,W,2,09,0.99,9.0,M,-34.3,M,0000,0000*56 
153.415         GPS_NMEA_FROM_GPS    iGPS            $GPGGA,185600.000,4144.3602,N,06959.5147,W,2,09,0.99,9.0,M,-34.3,M,0000,0000*58 
154.417         GPS_NMEA_FROM_GPS    iGPS            $GPRMC,185601.000,A,4144.3602,N,06959.5149,W,0.55,291.76,270321,,,D*74 
155.418         GPS_NMEA_FROM_GPS    iGPS            $GPGGA,185602.000,4144.3602,N,06959.5151,W,2,09,0.99,8.9,M,-34.3,M,0000,0000*55 
156.421         GPS_NMEA_FROM_GPS    iGPS            $GPGGA,185603.000,4144.3603,N,06959.5154,W,2,09,0.99,8.7,M,-34.3,M,0000,0000*5E 
157.423         GPS_NMEA_FROM_GPS    iGPS            $GPGGA,185604.000,4144.3603,N,06959.5157,W,2,09,0.99,8.5,M,-34.3,M,0000,0000*58 
158.426         GPS_NMEA_FROM_GPS    iGPS            $GPRMC,185605.000,A,4144.3603,N,06959.5160,W,0.61,275.67,270321,,,D*77 
159.428         GPS_NMEA_FROM_GPS    iGPS            $GPGGA,185606.000,4144.3604,N,06959.5163,W,2,09,0.97,8.4,M,-34.3,M,0000,0000*55 
160.435         GPS_NMEA_FROM_GPS    iGPS            $GPRMC,185607.000,A,4144.3604,N,06959.5166,W,0.69,267.66,270321,,,D*7E 
161.437         GPS_NMEA_FROM_GPS    iGPS            $GPRMC,185608.000,A,4144.3604,N,06959.5169,W,0.66,265.15,270321,,,D*77 
162.438         GPS_NMEA_FROM_GPS    iGPS            $GPGGA,185609.000,4144.3604,N,06959.5173,W,2,09,0.99,8.1,M,-34.3,M,0000,0000*50 
163.340         GPS_NMEA_FROM_GPS    iGPS            $GPGGA,185610.000,4144.3604,N,06959.5176,W,2,09,0.97,8.2,M,-34.3,M,0000,0000*50 
164.443         GPS_NMEA_FROM_GPS    iGPS            $GPGGA,185611.000,4144.3603,N,06959.5180,W,2,09,0.97,8.0,M,-34.3,M,0000,0000*5D 
165.445         GPS_NMEA_FROM_GPS    iGPS            $GPGGA,185612.000,4144.3602,N,06959.5183,W,2,09,0.97,8.0,M,-34.3,M,0000,0000*5C 
166.448         GPS_NMEA_FROM_GPS    iGPS            $GPGGA,185613.000,4144.3602,N,06959.5186,W,2,09,0.97,8.0,M,-34.3,M,0000,0000*58 
167.350         GPS_NMEA_FROM_GPS    iGPS            $GPGGA,185614.000,4144.3600,N,06959.5190,W,2,09,0.97,8.1,M,-34.3,M,0000,0000*5B 
168.453         GPS_NMEA_FROM_GPS    iGPS            $GPGGA,185615.000,4144.3599,N,06959.5193,W,2,09,0.97,8.1,M,-34.3,M,0000,0000*5A 
169.354         GPS_NMEA_FROM_GPS    iGPS            $GPGGA,185616.000,4144.3598,N,06959.5196,W,2,09,0.97,8.1,M,-34.3,M,0000,0000*5D 
170.357         GPS_NMEA_FROM_GPS    iGPS            $GPGGA,185617.000,4144.3597,N,06959.5199,W,2,09,0.97,8.2,M,-34.3,M,0000,0000*5F 
171.460         GPS_NMEA_FROM_GPS    iGPS            $GPRMC,185618.000,A,4144.3595,N,06959.5202,W,0.81,235.50,270321,,,D*7E 
172.462         GPS_NMEA_FROM_GPS    iGPS            $GPGGA,185619.000,4144.3594,N,06959.5206,W,2,09,0.97,8.4,M,-34.3,M,0000,0000*51 
173.464         GPS_NMEA_FROM_GPS    iGPS            $GPRMC,185620.000,A,4144.3593,N,06959.5209,W,0.76,234.07,270321,,,D*73 
174.466         GPS_NMEA_FROM_GPS    iGPS            $GPRMC,185621.000,A,4144.3591,N,06959.5212,W,0.77,233.59,270321,,,D*77 
175.469         GPS_NMEA_FROM_GPS    iGPS            $GPRMC,185622.000,A,4144.3590,N,06959.5215,W,0.79,233.73,270321,,,D*74 
176.471         GPS_NMEA_FROM_GPS    iGPS            $GPRMC,185623.000,A,4144.3589,N,06959.5218,W,0.80,233.83,270321,,,D*79 
177.473         GPS_NMEA_FROM_GPS    iGPS            $GPRMC,185624.000,A,4144.3588,N,06959.5221,W,0.82,234.15,270321,,,D*7F 
178.374         GPS_NMEA_FROM_GPS    iGPS            $GPGGA,185625.000,4144.3587,N,06959.5224,W,2,09,0.97,8.8,M,-34.3,M,0000,0000*50 
179.478         GPS_NMEA_FROM_GPS    iGPS            $GPRMC,185626.000,A,4144.3586,N,06959.5227,W,0.79,235.60,270321,,,D*72 
180.480         GPS_NMEA_FROM_GPS    iGPS            $GPRMC,185627.000,A,4144.3584,N,06959.5230,W,0.80,236.16,270321,,,D*73 
181.381         GPS_NMEA_FROM_GPS    iGPS            $GPGGA,185628.000,4144.3583,N,06959.5233,W,2,09,0.97,9.1,M,-34.3,M,0000,0000*57 
182.383         GPS_NMEA_FROM_GPS    iGPS            $GPGGA,185629.000,4144.3583,N,06959.5236,W,2,09,0.97,9.2,M,-34.3,M,0000,0000*50 
183.485         GPS_NMEA_FROM_GPS    iGPS            $GPRMC,185630.000,A,4144.3582,N,06959.5239,W,0.78,236.95,270321,,,D*76 
184.487         GPS_NMEA_FROM_GPS    iGPS            $GPGGA,185631.000,4144.3580,N,06959.5241,W,2,09,0.97,9.4,M,-34.3,M,0000,0000*5C 
185.389         GPS_NMEA_FROM_GPS    iGPS            $GPGGA,185632.000,4144.3579,N,06959.5244,W,2,09,0.97,9.5,M,-34.3,M,0000,0000*5D 
186.392         GPS_NMEA_FROM_GPS    iGPS            $GPGGA,185633.000,4144.3578,N,06959.5246,W,2,09,0.97,9.5,M,-34.3,M,0000,0000*5F 
187.494         GPS_NMEA_FROM_GPS    iGPS            $GPRMC,185634.000,A,4144.3577,N,06959.5248,W,0.78,235.16,270321,,,D*76 
188.396         GPS_NMEA_FROM_GPS    iGPS            $GPGGA,185635.000,4144.3576,N,06959.5251,W,2,09,0.97,9.7,M,-34.3,M,0000,0000*53 
189.398         GPS_NMEA_FROM_GPS    iGPS            $GPGGA,185636.000,4144.3575,N,06959.5254,W,2,09,0.97,9.7,M,-34.3,M,0000,0000*56 
190.404         GPS_NMEA_FROM_GPS    iGPS            $GPGGA,185637.000,4144.3574,N,06959.5256,W,2,09,0.97,9.8,M,-34.3,M,0000,0000*5B 
191.406         GPS_NMEA_FROM_GPS    iGPS            $GPGGA,185638.000,4144.3572,N,06959.5259,W,2,09,0.97,9.9,M,-34.3,M,0000,0000*5C 
192.408         GPS_NMEA_FROM_GPS    iGPS            $GPRMC,185639.000,A,4144.3571,N,06959.5262,W,0.81,234.52,270321,,,D*72 
193.410         GPS_NMEA_FROM_GPS    iGPS            $GPGGA,185640.000,4144.3570,N,06959.5265,W,2,09,0.97,10.1,M,-34.3,M,0000,0000*6E 
194.412         GPS_NMEA_FROM_GPS    iGPS            $GPGGA,185641.000,4144.3569,N,06959.5268,W,2,09,0.97,10.2,M,-34.3,M,0000,0000*69 
195.414         GPS_NMEA_FROM_GPS    iGPS            $GPGGA,185642.000,4144.3567,N,06959.5270,W,2,09,0.97,10.3,M,-34.3,M,0000,0000*6C 
196.416         GPS_NMEA_FROM_GPS    iGPS            $GPGGA,185643.000,4144.3566,N,06959.5273,W,2,09,0.97,10.4,M,-34.3,M,0000,0000*68 
197.418         GPS_NMEA_FROM_GPS    iGPS            $GPGGA,185644.000,4144.3565,N,06959.5276,W,2,09,0.97,10.5,M,-34.3,M,0000,0000*68 
198.420         GPS_NMEA_FROM_GPS    iGPS            $GPGGA,185645.000,4144.3563,N,06959.5279,W,2,09,0.97,10.5,M,-34.3,M,0000,0000*60 
199.423         GPS_NMEA_FROM_GPS    iGPS            $GPGGA,185646.000,4144.3562,N,06959.5281,W,2,09,0.97,10.6,M,-34.3,M,0000,0000*66 
200.425         GPS_NMEA_FROM_GPS    iGPS            $GPGGA,185647.000,4144.3561,N,06959.5284,W,2,09,0.97,10.7,M,-34.3,M,0000,0000*60 
201.327         GPS_NMEA_FROM_GPS    iGPS            $GPGGA,185648.000,4144.3560,N,06959.5288,W,2,09,0.97,10.7,M,-34.3,M,0000,0000*62 
202.429         GPS_NMEA_FROM_GPS    iGPS            $GPGGA,185649.000,4144.3559,N,06959.5291,W,2,09,0.97,10.8,M,-34.3,M,0000,0000*6E 
203.432         GPS_NMEA_FROM_GPS    iGPS            $GPRMC,185650.000,A,4144.3558,N,06959.5293,W,0.83,236.26,270321,,,D*7B 
204.434         GPS_NMEA_FROM_GPS    iGPS            $GPGGA,185651.000,4144.3556,N,06959.5296,W,2,09,0.97,10.8,M,-34.3,M,0000,0000*6F 
205.336         GPS_NMEA_FROM_GPS    iGPS            $GPGGA,185652.000,4144.3555,N,06959.5299,W,2,09,0.97,10.8,M,-34.3,M,0000,0000*60 
206.438         GPS_NMEA_FROM_GPS    iGPS            $GPGGA,185653.000,4144.3554,N,06959.5302,W,2,09,0.97,10.8,M,-34.3,M,0000,0000*63 
207.440         GPS_NMEA_FROM_GPS    iGPS            $GPGGA,185654.000,4144.3553,N,06959.5305,W,2,09,0.97,10.9,M,-34.3,M,0000,0000*65 
208.444         GPS_NMEA_FROM_GPS    iGPS            $GPRMC,185655.000,A,4144.3552,N,06959.5308,W,0.82,237.79,270321,,,D*7D 
209.446         GPS_NMEA_FROM_GPS    iGPS            $GPGGA,185656.000,4144.3550,N,06959.5311,W,2,09,0.97,10.9,M,-34.3,M,0000,0000*61 
210.448         GPS_NMEA_FROM_GPS    iGPS            $GPGGA,185657.000,4144.3549,N,06959.5314,W,2,09,0.97,10.9,M,-34.3,M,0000,0000*6D 
211.350         GPS_NMEA_FROM_GPS    iGPS            $GPGGA,185658.000,4144.3548,N,06959.5317,W,2,09,0.97,10.9,M,-34.3,M,0000,0000*60 
212.352         GPS_NMEA_FROM_GPS    iGPS            $GPGGA,185659.000,4144.3547,N,06959.5320,W,2,09,0.97,10.9,M,-34.3,M,0000,0000*6A 
213.354         GPS_NMEA_FROM_GPS    iGPS            $GPGGA,185700.000,4144.3546,N,06959.5322,W,2,09,0.97,10.9,M,-34.3,M,0000,0000*64 
214.456         GPS_NMEA_FROM_GPS    iGPS            $GPGGA,185701.000,4144.3545,N,06959.5325,W,2,09,0.97,10.9,M,-34.3,M,0000,0000*61 
215.358         GPS_NMEA_FROM_GPS    iGPS            $GPGGA,185702.000,4144.3544,N,06959.5328,W,2,09,0.97,10.8,M,-34.3,M,0000,0000*6F 
216.461         GPS_NMEA_FROM_GPS    iGPS            $GPRMC,185703.000,A,4144.3543,N,06959.5331,W,0.86,238.82,270321,,,D*7A 
217.363         GPS_NMEA_FROM_GPS    iGPS            $GPGGA,185704.000,4144.3542,N,06959.5333,W,2,09,0.97,10.9,M,-34.3,M,0000,0000*64 
218.365         GPS_NMEA_FROM_GPS    iGPS            $GPGGA,185705.000,4144.3541,N,06959.5336,W,2,09,0.97,10.8,M,-34.3,M,0000,0000*62 
219.476         GPS_NMEA_FROM_GPS    iGPS            $GPRMC,185706.000,A,4144.3540,N,06959.5339,W,0.80,239.18,270321,,,D*70 
220.478         GPS_NMEA_FROM_GPS    iGPS            $GPRMC,185707.000,A,4144.3538,N,06959.5342,W,0.83,238.94,270321,,,D*74 
221.379         GPS_NMEA_FROM_GPS    iGPS            $GPGGA,185708.000,4144.3537,N,06959.5345,W,2,09,0.97,10.8,M,-34.3,M,0000,0000*6A 
222.382         GPS_NMEA_FROM_GPS    iGPS            $GPGGA,185709.000,4144.3536,N,06959.5347,W,2,09,0.97,10.8,M,-34.3,M,0000,0000*68 
223.384         GPS_NMEA_FROM_GPS    iGPS            $GPGGA,185710.000,4144.3535,N,06959.5350,W,2,09,0.97,10.8,M,-34.3,M,0000,0000*65 
224.386         GPS_NMEA_FROM_GPS    iGPS            $GPGGA,185711.000,4144.3534,N,06959.5352,W,2,09,0.97,10.9,M,-34.3,M,0000,0000*66 
225.489         GPS_NMEA_FROM_GPS    iGPS            $GPRMC,185712.000,A,4144.3532,N,06959.5355,W,0.75,235.17,270321,,,D*73 
226.390         GPS_NMEA_FROM_GPS    iGPS            $GPGGA,185713.000,4144.3531,N,06959.5357,W,2,09,0.97,10.8,M,-34.3,M,0000,0000*65 
227.392         GPS_NMEA_FROM_GPS    iGPS            $GPGGA,185714.000,4144.3530,N,06959.5360,W,2,09,0.97,10.8,M,-34.3,M,0000,0000*67 
228.394         GPS_NMEA_FROM_GPS    iGPS            $GPGGA,185715.000,4144.3530,N,06959.5362,W,2,09,0.97,10.8,M,-34.3,M,0000,0000*64 
229.397         GPS_NMEA_FROM_GPS    iGPS            $GPGGA,185716.000,4144.3529,N,06959.5364,W,2,09,0.97,10.8,M,-34.3,M,0000,0000*69 
230.399         GPS_NMEA_FROM_GPS    iGPS            $GPGGA,185717.000,4144.3529,N,06959.5366,W,2,09,0.97,10.7,M,-34.3,M,0000,0000*65 
231.401         GPS_NMEA_FROM_GPS    iGPS            $GPGGA,185718.000,4144.3528,N,06959.5369,W,2,09,0.97,10.6,M,-34.3,M,0000,0000*65 
232.403         GPS_NMEA_FROM_GPS    iGPS            $GPGGA,185719.000,4144.3528,N,06959.5371,W,2,09,0.97,10.5,M,-34.3,M,0000,0000*6E 
233.405         GPS_NMEA_FROM_GPS    iGPS            $GPRMC,185720.000,A,4144.3528,N,06959.5373,W,0.61,262.30,270321,,,D*7F 
234.407         GPS_NMEA_FROM_GPS    iGPS            $GPRMC,185721.000,A,4144.3529,N,06959.5374,W,0.57,270.79,270321,,,D*73 
235.409         GPS_NMEA_FROM_GPS    iGPS            $GPGGA,185722.000,4144.3530,N,06959.5376,W,2,09,0.97,10.4,M,-34.3,M,0000,0000*69 
236.412         GPS_NMEA_FROM_GPS    iGPS            $GPGGA,185723.000,4144.3531,N,06959.5377,W,2,09,0.97,10.3,M,-34.3,M,0000,0000*6F 
237.414         GPS_NMEA_FROM_GPS    iGPS            $GPGGA,185724.000,4144.3532,N,06959.5378,W,2,09,0.97,10.4,M,-34.3,M,0000,0000*63 
238.416         GPS_NMEA_FROM_GPS    iGPS            $GPGGA,185725.000,4144.3533,N,06959.5379,W,2,09,0.97,10.3,M,-34.3,M,0000,0000*65 
239.418         GPS_NMEA_FROM_GPS    iGPS            $GPGGA,185726.000,4144.3535,N,06959.5379,W,2,09,0.97,10.2,M,-34.3,M,0000,0000*61 
240.420         GPS_NMEA_FROM_GPS    iGPS            $GPGGA,185727.000,4144.3537,N,06959.5379,W,2,09,0.97,10.2,M,-34.3,M,0000,0000*62 
241.422         GPS_NMEA_FROM_GPS    iGPS            $GPGGA,185728.000,4144.3538,N,06959.5380,W,2,09,0.97,10.1,M,-34.3,M,0000,0000*67 
242.424         GPS_NMEA_FROM_GPS    iGPS            $GPGGA,185729.000,4144.3539,N,06959.5380,W,2,09,0.97,10.0,M,-34.3,M,0000,0000*66 
243.427         GPS_NMEA_FROM_GPS    iGPS            $GPRMC,185730.000,A,4144.3541,N,06959.5381,W,0.64,316.38,270321,,,D*73 
244.429         GPS_NMEA_FROM_GPS    iGPS            $GPGGA,185731.000,4144.3542,N,06959.5382,W,2,09,0.97,9.9,M,-34.3,M,0000,0000*50 
245.433         GPS_NMEA_FROM_GPS    iGPS            $GPRMC,185732.000,A,4144.3543,N,06959.5384,W,0.72,314.29,270321,,,D*73 
246.435         GPS_NMEA_FROM_GPS    iGPS            $GPGGA,185733.000,4144.3545,N,06959.5386,W,2,09,0.97,9.9,M,-34.3,M,0000,0000*51 
247.437         GPS_NMEA_FROM_GPS    iGPS            $GPGGA,185734.000,4144.3546,N,06959.5388,W,2,09,0.97,9.9,M,-34.3,M,0000,0000*5B 
248.340         GPS_NMEA_FROM_GPS    iGPS            $GPGGA,185735.000,4144.3547,N,06959.5390,W,2,09,0.97,9.9,M,-34.3,M,0000,0000*52 
249.443         GPS_NMEA_FROM_GPS    iGPS            $GPGGA,185736.000,4144.3549,N,06959.5392,W,2,09,0.97,9.9,M,-34.3,M,0000,0000*5D 
250.445         GPS_NMEA_FROM_GPS    iGPS            $GPGGA,185737.000,4144.3550,N,06959.5394,W,2,09,0.97,9.9,M,-34.3,M,0000,0000*52 
251.447         GPS_NMEA_FROM_GPS    iGPS            $GPGGA,185738.000,4144.3552,N,06959.5396,W,2,09,0.97,9.9,M,-34.3,M,0000,0000*5D 
252.349         GPS_NMEA_FROM_GPS    iGPS            $GPGGA,185739.000,4144.3553,N,06959.5398,W,2,09,0.97,10.0,M,-34.3,M,0000,0000*62 
253.451         GPS_NMEA_FROM_GPS    iGPS            $GPGGA,185740.000,4144.3555,N,06959.5399,W,2,09,0.97,10.0,M,-34.3,M,0000,0000*6B 
254.454         GPS_NMEA_FROM_GPS    iGPS            $GPRMC,185741.000,A,4144.3557,N,06959.5400,W,0.74,316.91,270321,,,D*7E 
255.355         GPS_NMEA_FROM_GPS    iGPS            $GPGGA,185742.000,4144.3559,N,06959.5401,W,2,09,1.00,10.1,M,-34.3,M,0000,0000*6D 
256.457         GPS_NMEA_FROM_GPS    iGPS            $GPGGA,185743.000,4144.3561,N,06959.5402,W,2,09,0.97,10.1,M,-34.3,M,0000,0000*6B 
257.460         GPS_NMEA_FROM_GPS    iGPS            $GPRMC,185744.000,A,4144.3563,N,06959.5403,W,0.78,326.92,270321,,,D*73 
258.462         GPS_NMEA_FROM_GPS    iGPS            $GPRMC,185745.000,A,4144.3565,N,06959.5404,W,0.70,325.58,270321,,,D*7E 
259.464         GPS_NMEA_FROM_GPS    iGPS            $GPGGA,185746.000,4144.3566,N,06959.5405,W,2,09,1.00,10.1,M,-34.3,M,0000,0000*61 
260.366         GPS_NMEA_FROM_GPS    iGPS            $GPGGA,185747.000,4144.3568,N,06959.5406,W,2,09,1.00,10.1,M,-34.3,M,0000,0000*6D 
261.468         GPS_NMEA_FROM_GPS    iGPS            $GPGGA,185748.000,4144.3570,N,06959.5407,W,2,09,0.97,10.1,M,-34.3,M,0000,0000*65 
262.470         GPS_NMEA_FROM_GPS    iGPS            $GPGGA,185749.000,4144.3572,N,06959.5408,W,2,09,0.97,10.1,M,-34.3,M,0000,0000*69 
263.473         GPS_NMEA_FROM_GPS    iGPS            $GPGGA,185750.000,4144.3574,N,06959.5409,W,2,09,0.97,10.1,M,-34.3,M,0000,0000*66 
264.375         GPS_NMEA_FROM_GPS    iGPS            $GPGGA,185751.000,4144.3576,N,06959.5410,W,2,09,0.97,10.2,M,-34.3,M,0000,0000*6E 
265.377         GPS_NMEA_FROM_GPS    iGPS            $GPGGA,185752.000,4144.3577,N,06959.5412,W,2,09,1.00,10.2,M,-34.3,M,0000,0000*61 
266.380         GPS_NMEA_FROM_GPS    iGPS            $GPGGA,185753.000,4144.3579,N,06959.5413,W,2,09,1.00,10.2,M,-34.3,M,0000,0000*6F 
267.382         GPS_NMEA_FROM_GPS    iGPS            $GPGGA,185754.000,4144.3581,N,06959.5414,W,2,09,0.97,10.2,M,-34.3,M,0000,0000*67 
268.484         GPS_NMEA_FROM_GPS    iGPS            $GPRMC,185755.000,A,4144.3583,N,06959.5416,W,0.66,325.22,270321,,,D*7E 
269.386         GPS_NMEA_FROM_GPS    iGPS            $GPGGA,185756.000,4144.3584,N,06959.5417,W,2,09,1.00,10.3,M,-34.3,M,0000,0000*6D 
270.488         GPS_NMEA_FROM_GPS    iGPS            $GPRMC,185757.000,A,4144.3586,N,06959.5418,W,0.72,327.75,270321,,,D*72 
271.490         GPS_NMEA_FROM_GPS    iGPS            $GPRMC,185758.000,A,4144.3588,N,06959.5419,W,0.74,329.11,270321,,,D*78 
272.493         GPS_NMEA_FROM_GPS    iGPS            $GPRMC,185759.000,A,4144.3590,N,06959.5420,W,0.77,330.14,270321,,,D*74 
273.394         GPS_NMEA_FROM_GPS    iGPS            $GPGGA,185800.000,4144.3592,N,06959.5422,W,2,09,1.00,10.4,M,-34.3,M,0000,0000*67 
274.497         GPS_NMEA_FROM_GPS    iGPS            $GPRMC,185801.000,A,4144.3594,N,06959.5423,W,0.77,331.18,270321,,,D*7C 
275.398         GPS_NMEA_FROM_GPS    iGPS            $GPGGA,185802.000,4144.3596,N,06959.5424,W,2,09,1.00,10.5,M,-34.3,M,0000,0000*66 
276.400         GPS_NMEA_FROM_GPS    iGPS            $GPGGA,185803.000,4144.3597,N,06959.5426,W,2,09,1.00,10.5,M,-34.3,M,0000,0000*64 
277.402         GPS_NMEA_FROM_GPS    iGPS            $GPGGA,185804.000,4144.3599,N,06959.5427,W,2,08,1.31,10.4,M,-34.3,M,0000,0000*6E 
278.405         GPS_NMEA_FROM_GPS    iGPS            $GPGGA,185805.000,4144.3600,N,06959.5429,W,2,08,1.31,10.4,M,-34.3,M,0000,0000*62 
279.407         GPS_NMEA_FROM_GPS    iGPS            $GPGGA,185806.000,4144.3601,N,06959.5430,W,2,08,1.31,10.3,M,-34.3,M,0000,0000*6F 
280.510         GPS_NMEA_FROM_GPS    iGPS            $GPRMC,185807.000,A,4144.3602,N,06959.5433,W,0.67,323.61,270321,,,D*7B 
281.511         GPS_NMEA_FROM_GPS    iGPS            $GPRMC,185808.000,A,4144.3603,N,06959.5435,W,0.66,320.93,270321,,,D*7C 
282.413         GPS_NMEA_FROM_GPS    iGPS            $GPGGA,185809.000,4144.3604,N,06959.5437,W,2,09,1.00,10.2,M,-34.3,M,0000,0000*60 
283.415         GPS_NMEA_FROM_GPS    iGPS            $GPGGA,185810.000,4144.3606,N,06959.5438,W,2,09,1.00,10.2,M,-34.3,M,0000,0000*65 
284.418         GPS_NMEA_FROM_GPS    iGPS            $GPGGA,185811.000,4144.3607,N,06959.5440,W,2,09,1.00,10.2,M,-34.3,M,0000,0000*6A 
285.420         GPS_NMEA_FROM_GPS    iGPS            $GPGGA,185812.000,4144.3609,N,06959.5442,W,2,09,0.97,10.1,M,-34.3,M,0000,0000*69 
286.422         GPS_NMEA_FROM_GPS    iGPS            $GPGGA,185813.000,4144.3610,N,06959.5444,W,2,09,0.97,10.0,M,-34.3,M,0000,0000*67 
287.424         GPS_NMEA_FROM_GPS    iGPS            $GPGGA,185814.000,4144.3611,N,06959.5446,W,2,09,1.00,10.0,M,-34.3,M,0000,0000*6C 
288.426         GPS_NMEA_FROM_GPS    iGPS            $GPGGA,185815.000,4144.3613,N,06959.5447,W,2,09,1.00,9.9,M,-34.3,M,0000,0000*5F 
289.428         GPS_NMEA_FROM_GPS    iGPS            $GPGGA,185816.000,4144.3615,N,06959.5448,W,2,09,1.00,9.9,M,-34.3,M,0000,0000*55 
290.431         GPS_NMEA_FROM_GPS    iGPS            $GPGGA,185817.000,4144.3617,N,06959.5448,W,2,09,1.00,9.8,M,-34.3,M,0000,0000*57 
291.433         GPS_NMEA_FROM_GPS    iGPS            $GPGGA,185818.000,4144.3619,N,06959.5449,W,2,09,1.00,9.7,M,-34.3,M,0000,0000*58 
292.435         GPS_NMEA_FROM_GPS    iGPS            $GPGGA,185819.000,4144.3621,N,06959.5450,W,2,09,1.00,9.6,M,-34.3,M,0000,0000*5B 
293.437         GPS_NMEA_FROM_GPS    iGPS            $GPGGA,185820.000,4144.3622,N,06959.5450,W,2,09,1.00,9.5,M,-34.3,M,0000,0000*51 
294.440         GPS_NMEA_FROM_GPS    iGPS            $GPRMC,185821.000,A,4144.3624,N,06959.5450,W,0.59,335.72,270321,,,D*76 
295.441         GPS_NMEA_FROM_GPS    iGPS            $GPGGA,185822.000,4144.3626,N,06959.5450,W,2,09,1.00,9.4,M,-34.3,M,0000,0000*56 
296.444         GPS_NMEA_FROM_GPS    iGPS            $GPRMC,185823.000,A,4144.3628,N,06959.5451,W,0.63,339.55,270321,,,D*79 
297.445         GPS_NMEA_FROM_GPS    iGPS            $GPGGA,185824.000,4144.3630,N,06959.5450,W,2,09,1.00,9.4,M,-34.3,M,0000,0000*57 
298.447         GPS_NMEA_FROM_GPS    iGPS            $GPRMC,185825.000,A,4144.3631,N,06959.5452,W,0.64,339.22,270321,,,D*73 
299.449         GPS_NMEA_FROM_GPS    iGPS            $GPGGA,185826.000,4144.3633,N,06959.5453,W,2,09,1.00,9.2,M,-34.3,M,0000,0000*53 
300.351         GPS_NMEA_FROM_GPS    iGPS            $GPGGA,185827.000,4144.3634,N,06959.5454,W,2,09,1.00,9.4,M,-34.3,M,0000,0000*54 
301.453         GPS_NMEA_FROM_GPS    iGPS            $GPGGA,185828.000,4144.3636,N,06959.5456,W,2,09,1.00,9.4,M,-34.3,M,0000,0000*5B 
302.356         GPS_NMEA_FROM_GPS    iGPS            $GPGGA,185829.000,4144.3637,N,06959.5457,W,2,09,1.00,9.5,M,-34.3,M,0000,0000*5B 
303.459         GPS_NMEA_FROM_GPS    iGPS            $GPGGA,185830.000,4144.3638,N,06959.5459,W,2,09,1.00,9.5,M,-34.3,M,0000,0000*52 
304.461         GPS_NMEA_FROM_GPS    iGPS            $GPGGA,185831.000,4144.3639,N,06959.5461,W,2,09,1.00,9.7,M,-34.3,M,0000,0000*5B 
305.463         GPS_NMEA_FROM_GPS    iGPS            $GPGGA,185832.000,4144.3640,N,06959.5462,W,2,09,1.00,9.7,M,-34.3,M,0000,0000*55 
306.465         GPS_NMEA_FROM_GPS    iGPS            $GPGGA,185833.000,4144.3641,N,06959.5464,W,2,09,1.00,9.7,M,-34.3,M,0000,0000*53 
307.367         GPS_NMEA_FROM_GPS    iGPS            $GPGGA,185834.000,4144.3641,N,06959.5465,W,2,09,1.00,9.7,M,-34.3,M,0000,0000*55 
308.370         GPS_NMEA_FROM_GPS    iGPS            $GPGGA,185835.000,4144.3642,N,06959.5466,W,2,09,1.00,9.7,M,-34.3,M,0000,0000*54 
309.372         GPS_NMEA_FROM_GPS    iGPS            $GPGGA,185836.000,4144.3642,N,06959.5466,W,2,09,1.00,9.7,M,-34.3,M,0000,0000*57 
310.474         GPS_NMEA_FROM_GPS    iGPS            $GPGGA,185837.000,4144.3641,N,06959.5467,W,2,09,1.00,9.7,M,-34.3,M,0000,0000*54 
311.376         GPS_NMEA_FROM_GPS    iGPS            $GPGGA,185838.000,4144.3641,N,06959.5468,W,2,09,1.00,9.7,M,-34.3,M,0000,0000*54 
312.478         GPS_NMEA_FROM_GPS    iGPS            $GPRMC,185839.000,A,4144.3640,N,06959.5469,W,0.34,250.77,270321,,,D*7B 
313.480         GPS_NMEA_FROM_GPS    iGPS            $GPRMC,185840.000,A,4144.3639,N,06959.5469,W,0.35,228.42,270321,,,D*73 
314.382         GPS_NMEA_FROM_GPS    iGPS            $GPGGA,185841.000,4144.3638,N,06959.5469,W,2,09,1.00,9.7,M,-34.3,M,0000,0000*55 
315.384         GPS_NMEA_FROM_GPS    iGPS            $GPGGA,185842.000,4144.3637,N,06959.5469,W,2,09,1.00,9.7,M,-34.3,M,0000,0000*59 
316.486         GPS_NMEA_FROM_GPS    iGPS            $GPRMC,185843.000,A,4144.3636,N,06959.5468,W,0.47,169.67,270321,,,D*7A 
317.388         GPS_NMEA_FROM_GPS    iGPS            $GPGGA,185844.000,4144.3635,N,06959.5467,W,2,09,1.00,9.7,M,-34.3,M,0000,0000*53 
318.390         GPS_NMEA_FROM_GPS    iGPS            $GPGGA,185845.000,4144.3634,N,06959.5466,W,2,09,1.00,9.7,M,-34.3,M,0000,0000*52 
319.392         GPS_NMEA_FROM_GPS    iGPS            $GPGGA,185846.000,4144.3633,N,06959.5465,W,2,09,1.00,9.7,M,-34.3,M,0000,0000*55 
320.394         GPS_NMEA_FROM_GPS    iGPS            $GPGGA,185847.000,4144.3631,N,06959.5464,W,2,09,1.00,9.7,M,-34.3,M,0000,0000*57 
321.396         GPS_NMEA_FROM_GPS    iGPS            $GPGGA,185848.000,4144.3630,N,06959.5464,W,2,09,1.00,9.9,M,-34.3,M,0000,0000*57 
322.399         GPS_NMEA_FROM_GPS    iGPS            $GPGGA,185849.000,4144.3628,N,06959.5463,W,2,09,1.00,10.1,M,-34.3,M,0000,0000*68 
323.402         GPS_NMEA_FROM_GPS    iGPS            $GPGGA,185850.000,4144.3626,N,06959.5463,W,2,09,1.00,10.2,M,-34.3,M,0000,0000*6D 
324.404         GPS_NMEA_FROM_GPS    iGPS            $GPGGA,185851.000,4144.3624,N,06959.5463,W,2,09,1.00,10.2,M,-34.3,M,0000,0000*6E 
325.406         GPS_NMEA_FROM_GPS    iGPS            $GPGGA,185852.000,4144.3623,N,06959.5463,W,2,09,1.00,10.3,M,-34.3,M,0000,0000*6B 
326.508         GPS_NMEA_FROM_GPS    iGPS            $GPRMC,185853.000,A,4144.3621,N,06959.5463,W,0.66,164.17,270321,,,D*7F 
327.410         GPS_NMEA_FROM_GPS    iGPS            $GPGGA,185854.000,4144.3619,N,06959.5463,W,2,09,1.00,10.4,M,-34.3,M,0000,0000*63 
328.412         GPS_NMEA_FROM_GPS    iGPS            $GPGGA,185855.000,4144.3618,N,06959.5462,W,2,09,1.00,10.5,M,-34.3,M,0000,0000*63 
329.414         GPS_NMEA_FROM_GPS    iGPS            $GPGGA,185856.000,4144.3616,N,06959.5462,W,2,09,1.00,10.7,M,-34.3,M,0000,0000*6C 
330.416         GPS_NMEA_FROM_GPS    iGPS            $GPGGA,185857.000,4144.3614,N,06959.5462,W,2,09,1.00,10.9,M,-34.3,M,0000,0000*61 
331.418         GPS_NMEA_FROM_GPS    iGPS            $GPGGA,185858.000,4144.3612,N,06959.5463,W,2,09,1.00,11.3,M,-34.3,M,0000,0000*62 
332.422         GPS_NMEA_FROM_GPS    iGPS            $GPGGA,185859.000,4144.3610,N,06959.5463,W,2,09,1.00,11.6,M,-34.3,M,0000,0000*64 
333.424         GPS_NMEA_FROM_GPS    iGPS            $GPRMC,185900.000,A,4144.3608,N,06959.5463,W,0.71,164.60,270321,,,D*75 
334.426         GPS_NMEA_FROM_GPS    iGPS            $GPGGA,185901.000,4144.3605,N,06959.5462,W,2,09,1.00,11.9,M,-34.3,M,0000,0000*62 
335.428         GPS_NMEA_FROM_GPS    iGPS            $GPGGA,185902.000,4144.3603,N,06959.5462,W,2,09,1.00,12.1,M,-34.3,M,0000,0000*6C 
336.431         GPS_NMEA_FROM_GPS    iGPS            $GPGGA,185903.000,4144.3602,N,06959.5461,W,2,09,1.00,12.5,M,-34.3,M,0000,0000*6B 
337.433         GPS_NMEA_FROM_GPS    iGPS            $GPGGA,185904.000,4144.3601,N,06959.5459,W,2,09,1.00,13.0,M,-34.3,M,0000,0000*60 
338.335         GPS_NMEA_FROM_GPS    iGPS            $GPGGA,185905.000,4144.3600,N,06959.5458,W,2,09,1.00,13.4,M,-34.3,M,0000,0000*65 
339.437         GPS_NMEA_FROM_GPS    iGPS            $GPGGA,185906.000,4144.3598,N,06959.5456,W,2,09,1.00,13.7,M,-34.3,M,0000,0000*69 
340.439         GPS_NMEA_FROM_GPS    iGPS            $GPRMC,185907.000,A,4144.3597,N,06959.5453,W,0.68,134.99,270321,,,D*7F 
341.441         GPS_NMEA_FROM_GPS    iGPS            $GPGGA,185908.000,4144.3596,N,06959.5451,W,2,09,1.00,14.3,M,-34.3,M,0000,0000*6D 
342.443         GPS_NMEA_FROM_GPS    iGPS            $GPRMC,185909.000,A,4144.3595,N,06959.5449,W,0.66,127.88,270321,,,D*74 
343.445         GPS_NMEA_FROM_GPS    iGPS            $GPGGA,185910.000,4144.3594,N,06959.5447,W,2,09,1.00,14.5,M,-34.3,M,0000,0000*67 
344.447         GPS_NMEA_FROM_GPS    iGPS            $GPGGA,185911.000,4144.3593,N,06959.5445,W,2,09,1.00,14.6,M,-34.3,M,0000,0000*60 
345.350         GPS_NMEA_FROM_GPS    iGPS            $GPGGA,185912.000,4144.3591,N,06959.5443,W,2,09,1.00,14.8,M,-34.3,M,0000,0000*69 
346.452         GPS_NMEA_FROM_GPS    iGPS            $GPGGA,185913.000,4144.3590,N,06959.5442,W,2,09,1.00,15.1,M,-34.3,M,0000,0000*60 
347.454         GPS_NMEA_FROM_GPS    iGPS            $GPGGA,185914.000,4144.3588,N,06959.5441,W,2,09,1.00,15.2,M,-34.3,M,0000,0000*6E 
348.456         GPS_NMEA_FROM_GPS    iGPS            $GPRMC,185915.000,A,4144.3587,N,06959.5439,W,0.68,135.29,270321,,,D*7B 
349.359         GPS_NMEA_FROM_GPS    iGPS            $GPGGA,185916.000,4144.3585,N,06959.5438,W,2,09,1.00,15.6,M,-34.3,M,0000,0000*6B 
350.361         GPS_NMEA_FROM_GPS    iGPS            $GPGGA,185917.000,4144.3583,N,06959.5437,W,2,08,1.14,15.7,M,-34.3,M,0000,0000*66 
351.363         GPS_NMEA_FROM_GPS    iGPS            $GPGGA,185918.000,4144.3581,N,06959.5436,W,2,09,0.98,15.7,M,-34.3,M,0000,0000*6E 
352.466         GPS_NMEA_FROM_GPS    iGPS            $GPRMC,185919.000,A,4144.3580,N,06959.5436,W,0.71,153.28,270321,,,D*76 
353.467         GPS_NMEA_FROM_GPS    iGPS            $GPRMC,185920.000,A,4144.3578,N,06959.5435,W,0.65,155.48,270321,,,D*7D 
354.369         GPS_NMEA_FROM_GPS    iGPS            $GPGGA,185921.000,4144.3576,N,06959.5435,W,2,09,0.98,15.6,M,-34.3,M,0000,0000*6E 
355.475         GPS_NMEA_FROM_GPS    iGPS            $GPRMC,185922.000,A,4144.3575,N,06959.5435,W,0.61,159.60,270321,,,D*70 
356.477         GPS_NMEA_FROM_GPS    iGPS            $GPRMC,185923.000,A,4144.3574,N,06959.5435,W,0.62,160.31,270321,,,D*7D 
357.479         GPS_NMEA_FROM_GPS    iGPS            $GPGGA,185924.000,4144.3572,N,06959.5435,W,2,10,0.96,15.8,M,-34.3,M,0000,0000*67 
358.481         GPS_NMEA_FROM_GPS    iGPS            $GPRMC,185925.000,A,4144.3570,N,06959.5434,W,0.61,158.24,270321,,,D*72 
359.483         GPS_NMEA_FROM_GPS    iGPS            $GPGGA,185926.000,4144.3569,N,06959.5433,W,2,10,0.96,16.0,M,-34.3,M,0000,0000*62 
360.385         GPS_NMEA_FROM_GPS    iGPS            $GPGGA,185927.000,4144.3567,N,06959.5432,W,2,09,1.00,16.0,M,-34.3,M,0000,0000*6A 
361.388         GPS_NMEA_FROM_GPS    iGPS            $GPGGA,185928.000,4144.3566,N,06959.5430,W,2,09,0.98,16.1,M,-34.3,M,0000,0000*67 
362.490         GPS_NMEA_FROM_GPS    iGPS            $GPGGA,185929.000,4144.3564,N,06959.5428,W,2,09,0.98,16.1,M,-34.3,M,0000,0000*6D 
363.392         GPS_NMEA_FROM_GPS    iGPS            $GPGGA,185930.000,4144.3562,N,06959.5426,W,2,09,1.00,16.2,M,-34.3,M,0000,0000*6E 
364.394         GPS_NMEA_FROM_GPS    iGPS            $GPGGA,185931.000,4144.3560,N,06959.5425,W,2,09,1.00,16.3,M,-34.3,M,0000,0000*6F 
365.497         GPS_NMEA_FROM_GPS    iGPS            $GPRMC,185932.000,A,4144.3559,N,06959.5423,W,0.74,137.31,270321,,,D*70 
366.399         GPS_NMEA_FROM_GPS    iGPS            $GPGGA,185933.000,4144.3557,N,06959.5421,W,2,10,0.91,16.3,M,-34.3,M,0000,0000*6C 
367.502         GPS_NMEA_FROM_GPS    iGPS            $GPGGA,185934.000,4144.3555,N,06959.5420,W,2,10,0.96,16.3,M,-34.3,M,0000,0000*6F 
368.505         GPS_NMEA_FROM_GPS    iGPS            $GPGGA,185935.000,4144.3554,N,06959.5419,W,2,10,0.91,16.5,M,-34.3,M,0000,0000*64 
369.507         GPS_NMEA_FROM_GPS    iGPS            $GPGGA,185936.000,4144.3552,N,06959.5418,W,2,10,0.91,16.7,M,-34.3,M,0000,0000*62 
370.409         GPS_NMEA_FROM_GPS    iGPS            $GPGGA,185937.000,4144.3550,N,06959.5416,W,2,10,0.96,17.0,M,-34.3,M,0000,0000*6E 
371.411         GPS_NMEA_FROM_GPS    iGPS            $GPGGA,185938.000,4144.3548,N,06959.5415,W,2,10,0.91,17.3,M,-34.3,M,0000,0000*6F 
372.413         GPS_NMEA_FROM_GPS    iGPS            $GPGGA,185939.000,4144.3547,N,06959.5414,W,2,10,0.91,17.5,M,-34.3,M,0000,0000*66 
373.415         GPS_NMEA_FROM_GPS    iGPS            $GPGGA,185940.000,4144.3545,N,06959.5413,W,2,10,0.96,17.6,M,-34.3,M,0000,0000*69 
374.518         GPS_NMEA_FROM_GPS    iGPS            $GPRMC,185941.000,A,4144.3543,N,06959.5413,W,0.74,149.89,270321,,,D*76 
375.419         GPS_NMEA_FROM_GPS    iGPS            $GPGGA,185942.000,4144.3541,N,06959.5412,W,2,09,0.98,17.8,M,-34.3,M,0000,0000*66 
376.422         GPS_NMEA_FROM_GPS    iGPS            $GPGGA,185943.000,4144.3540,N,06959.5411,W,2,09,1.00,17.9,M,-34.3,M,0000,0000*64 
377.424         GPS_NMEA_FROM_GPS    iGPS            $GPGGA,185944.000,4144.3538,N,06959.5411,W,2,09,1.00,17.9,M,-34.3,M,0000,0000*6C 
378.426         GPS_NMEA_FROM_GPS    iGPS            $GPGGA,185945.000,4144.3536,N,06959.5409,W,2,09,1.00,17.8,M,-34.3,M,0000,0000*6B 
379.428         GPS_NMEA_FROM_GPS    iGPS            $GPRMC,185946.000,A,4144.3534,N,06959.5408,W,0.70,149.81,270321,,,D*77 
380.430         GPS_NMEA_FROM_GPS    iGPS            $GPGGA,185947.000,4144.3532,N,06959.5407,W,2,09,0.98,17.9,M,-34.3,M,0000,0000*62 
381.432         GPS_NMEA_FROM_GPS    iGPS            $GPGGA,185948.000,4144.3531,N,06959.5405,W,2,09,1.00,18.0,M,-34.3,M,0000,0000*6A 
382.435         GPS_NMEA_FROM_GPS    iGPS            $GPGGA,185949.000,4144.3530,N,06959.5403,W,2,09,0.98,18.2,M,-34.3,M,0000,0000*6E 
383.437         GPS_NMEA_FROM_GPS    iGPS            $GPRMC,185950.000,A,4144.3528,N,06959.5401,W,0.72,137.43,270321,,,D*71 
384.439         GPS_NMEA_FROM_GPS    iGPS            $GPGGA,185951.000,4144.3527,N,06959.5398,W,2,09,1.00,18.4,M,-34.3,M,0000,0000*62 
385.442         GPS_NMEA_FROM_GPS    iGPS            $GPGGA,185952.000,4144.3526,N,06959.5396,W,2,09,0.98,18.4,M,-34.3,M,0000,0000*6E 
386.444         GPS_NMEA_FROM_GPS    iGPS            $GPGGA,185953.000,4144.3526,N,06959.5393,W,2,09,0.98,18.5,M,-34.3,M,0000,0000*6B 
387.446         GPS_NMEA_FROM_GPS    iGPS            $GPGGA,185954.000,4144.3524,N,06959.5390,W,2,09,1.00,18.5,M,-34.3,M,0000,0000*6D 
388.448         GPS_NMEA_FROM_GPS    iGPS            $GPGGA,185955.000,4144.3523,N,06959.5388,W,2,09,1.00,18.5,M,-34.3,M,0000,0000*62 
389.451         GPS_NMEA_FROM_GPS    iGPS            $GPGGA,185956.000,4144.3522,N,06959.5386,W,2,09,1.00,18.6,M,-34.3,M,0000,0000*6D 
390.353         GPS_NMEA_FROM_GPS    iGPS            $GPGGA,185957.000,4144.3521,N,06959.5385,W,2,08,1.30,18.7,M,-34.3,M,0000,0000*6F 
391.455         GPS_NMEA_FROM_GPS    iGPS            $GPGGA,185958.000,4144.3520,N,06959.5384,W,2,09,1.00,18.6,M,-34.3,M,0000,0000*63 
392.457         GPS_NMEA_FROM_GPS    iGPS            $GPGGA,185959.000,4144.3518,N,06959.5384,W,2,09,1.00,18.5,M,-34.3,M,0000,0000*6A 
393.359         GPS_NMEA_FROM_GPS    iGPS            $GPGGA,190000.000,4144.3517,N,06959.5384,W,2,09,1.00,18.6,M,-34.3,M,0000,0000*67 
394.361         GPS_NMEA_FROM_GPS    iGPS            $GPGGA,190001.000,4144.3516,N,06959.5384,W,2,09,1.00,18.6,M,-34.3,M,0000,0000*67 
395.465         GPS_NMEA_FROM_GPS    iGPS            $GPGGA,190002.000,4144.3514,N,06959.5385,W,2,09,1.00,18.6,M,-34.3,M,0000,0000*67 
396.467         GPS_NMEA_FROM_GPS    iGPS            $GPGGA,190003.000,4144.3513,N,06959.5386,W,2,09,1.00,18.6,M,-34.3,M,0000,0000*62 
397.470         GPS_NMEA_FROM_GPS    iGPS            $GPGGA,190004.000,4144.3512,N,06959.5388,W,2,09,1.00,18.6,M,-34.3,M,0000,0000*6A 
398.471         GPS_NMEA_FROM_GPS    iGPS            $GPRMC,190005.000,A,4144.3511,N,06959.5389,W,0.60,210.94,270321,,,D*7E 
399.473         GPS_NMEA_FROM_GPS    iGPS            $GPRMC,190006.000,A,4144.3510,N,06959.5391,W,0.61,218.67,270321,,,D*70 
400.375         GPS_NMEA_FROM_GPS    iGPS            $GPGGA,190007.000,4144.3510,N,06959.5393,W,2,09,1.00,18.2,M,-34.3,M,0000,0000*65 
401.477         GPS_NMEA_FROM_GPS    iGPS            $GPGGA,190008.000,4144.3510,N,06959.5395,W,2,09,1.00,17.9,M,-34.3,M,0000,0000*68 
402.379         GPS_NMEA_FROM_GPS    iGPS            $GPGGA,190009.000,4144.3509,N,06959.5397,W,2,09,1.00,17.6,M,-34.3,M,0000,0000*6C 
403.381         GPS_NMEA_FROM_GPS    iGPS            $GPGGA,190010.000,4144.3508,N,06959.5399,W,2,09,0.98,17.4,M,-34.3,M,0000,0000*69 
404.384         GPS_NMEA_FROM_GPS    iGPS            $GPGGA,190011.000,4144.3507,N,06959.5402,W,2,09,0.98,17.3,M,-34.3,M,0000,0000*65 
405.487         GPS_NMEA_FROM_GPS    iGPS            $GPRMC,190012.000,A,4144.3506,N,06959.5404,W,0.63,235.79,270321,,,D*7B 
406.489         GPS_NMEA_FROM_GPS    iGPS            $GPGGA,190013.000,4144.3505,N,06959.5406,W,2,09,1.00,17.3,M,-34.3,M,0000,0000*61 
407.491         GPS_NMEA_FROM_GPS    iGPS            $GPRMC,190014.000,A,4144.3503,N,06959.5409,W,0.76,233.55,270321,,,D*79 
408.393         GPS_NMEA_FROM_GPS    iGPS            $GPGGA,190015.000,4144.3502,N,06959.5411,W,2,09,0.98,17.3,M,-34.3,M,0000,0000*66 
409.395         GPS_NMEA_FROM_GPS    iGPS            $GPGGA,190016.000,4144.3500,N,06959.5414,W,2,09,0.98,17.3,M,-34.3,M,0000,0000*62 
410.498         GPS_NMEA_FROM_GPS    iGPS            $GPRMC,190017.000,A,4144.3499,N,06959.5416,W,0.79,231.83,270321,,,D*70 
411.500         GPS_NMEA_FROM_GPS    iGPS            $GPRMC,190018.000,A,4144.3497,N,06959.5418,W,0.91,231.25,270321,,,D*75 
412.502         GPS_NMEA_FROM_GPS    iGPS            $GPRMC,190019.000,A,4144.3496,N,06959.5420,W,0.89,231.41,270321,,,D*75 
413.404         GPS_NMEA_FROM_GPS    iGPS            $GPGGA,190020.000,4144.3495,N,06959.5423,W,2,09,1.00,17.3,M,-34.3,M,0000,0000*6E 
414.406         GPS_NMEA_FROM_GPS    iGPS            $GPGGA,190021.000,4144.3494,N,06959.5425,W,2,09,0.98,17.1,M,-34.3,M,0000,0000*6A 
415.408         GPS_NMEA_FROM_GPS    iGPS            $GPGGA,190022.000,4144.3493,N,06959.5427,W,2,09,0.98,17.0,M,-34.3,M,0000,0000*6D 
416.410         GPS_NMEA_FROM_GPS    iGPS            $GPGGA,190023.000,4144.3492,N,06959.5430,W,2,09,0.98,16.9,M,-34.3,M,0000,0000*63 
417.412         GPS_NMEA_FROM_GPS    iGPS            $GPRMC,190024.000,A,4144.3491,N,06959.5432,W,0.81,238.53,270321,,,D*7D 
418.415         GPS_NMEA_FROM_GPS    iGPS            $GPGGA,190025.000,4144.3491,N,06959.5435,W,2,09,1.00,16.5,M,-34.3,M,0000,0000*6F 
419.517         GPS_NMEA_FROM_GPS    iGPS            $GPRMC,190026.000,A,4144.3490,N,06959.5438,W,0.78,242.93,270321,,,D*73 
420.419         GPS_NMEA_FROM_GPS    iGPS            $GPGGA,190027.000,4144.3489,N,06959.5441,W,2,09,0.98,16.1,M,-34.3,M,0000,0000*63 
421.421         GPS_NMEA_FROM_GPS    iGPS            $GPGGA,190028.000,4144.3489,N,06959.5444,W,2,09,1.00,16.0,M,-34.3,M,0000,0000*68 
422.424         GPS_NMEA_FROM_GPS    iGPS            $GPGGA,190029.000,4144.3488,N,06959.5447,W,2,09,0.98,15.7,M,-34.3,M,0000,0000*6F 
423.426         GPS_NMEA_FROM_GPS    iGPS            $GPGGA,190030.000,4144.3488,N,06959.5450,W,2,09,0.98,15.6,M,-34.3,M,0000,0000*60 
424.428         GPS_NMEA_FROM_GPS    iGPS            $GPGGA,190031.000,4144.3487,N,06959.5453,W,2,09,0.98,15.5,M,-34.3,M,0000,0000*6E 
425.431         GPS_NMEA_FROM_GPS    iGPS            $GPRMC,190032.000,A,4144.3486,N,06959.5456,W,0.80,248.67,270321,,,D*7F 
426.433         GPS_NMEA_FROM_GPS    iGPS            $GPGGA,190033.000,4144.3486,N,06959.5459,W,2,09,0.98,15.3,M,-34.3,M,0000,0000*61 
427.435         GPS_NMEA_FROM_GPS    iGPS            $GPGGA,190034.000,4144.3485,N,06959.5462,W,2,09,0.98,15.1,M,-34.3,M,0000,0000*6F 
428.437         GPS_NMEA_FROM_GPS    iGPS            $GPGGA,190035.000,4144.3485,N,06959.5465,W,2,09,0.98,15.1,M,-34.3,M,0000,0000*69 
429.439         GPS_NMEA_FROM_GPS    iGPS            $GPGGA,190036.000,4144.3484,N,06959.5467,W,2,09,0.98,15.1,M,-34.3,M,0000,0000*69 
430.441         GPS_NMEA_FROM_GPS    iGPS            $GPRMC,190037.000,A,4144.3484,N,06959.5469,W,0.71,247.97,270321,,,D*7A 
431.443         GPS_NMEA_FROM_GPS    iGPS            $GPGGA,190038.000,4144.3483,N,06959.5472,W,2,09,1.00,15.0,M,-34.3,M,0000,0000*65 
432.446         GPS_NMEA_FROM_GPS    iGPS            $GPGGA,190039.000,4144.3481,N,06959.5475,W,2,09,1.00,14.9,M,-34.3,M,0000,0000*69 
433.448         GPS_NMEA_FROM_GPS    iGPS            $GPGGA,190040.000,4144.3480,N,06959.5478,W,2,09,1.00,14.8,M,-34.3,M,0000,0000*6A 
434.350         GPS_NMEA_FROM_GPS    iGPS            $GPGGA,190041.000,4144.3478,N,06959.5480,W,2,09,0.98,14.6,M,-34.3,M,0000,0000*65 
435.352         GPS_NMEA_FROM_GPS    iGPS            $GPGGA,190042.000,4144.3477,N,06959.5483,W,2,09,0.98,14.5,M,-34.3,M,0000,0000*69 
436.455         GPS_NMEA_FROM_GPS    iGPS            $GPRMC,190043.000,A,4144.3476,N,06959.5486,W,0.80,240.84,270321,,,D*7E 
437.457         GPS_NMEA_FROM_GPS    iGPS            $GPRMC,190044.000,A,4144.3475,N,06959.5488,W,0.80,239.95,270321,,,D*7A 
438.459         GPS_NMEA_FROM_GPS    iGPS            $GPRMC,190045.000,A,4144.3474,N,06959.5491,W,0.81,239.54,270321,,,D*7E 
439.462         GPS_NMEA_FROM_GPS    iGPS            $GPRMC,190046.000,A,4144.3473,N,06959.5494,W,0.77,239.81,270321,,,D*7E 
440.463         GPS_NMEA_FROM_GPS    iGPS            $GPGGA,190047.000,4144.3472,N,06959.5496,W,2,09,0.98,14.3,M,-34.3,M,0000,0000*6B 
441.466         GPS_NMEA_FROM_GPS    iGPS            $GPGGA,190048.000,4144.3471,N,06959.5499,W,2,09,0.98,14.3,M,-34.3,M,0000,0000*68 
442.468         GPS_NMEA_FROM_GPS    iGPS            $GPGGA,190049.000,4144.3470,N,06959.5501,W,2,09,0.98,14.3,M,-34.3,M,0000,0000*68 
443.470         GPS_NMEA_FROM_GPS    iGPS            $GPGGA,190050.000,4144.3469,N,06959.5504,W,2,09,1.01,14.2,M,-34.3,M,0000,0000*6D 
444.372         GPS_NMEA_FROM_GPS    iGPS            $GPGGA,190051.000,4144.3468,N,06959.5506,W,2,09,0.98,14.2,M,-34.3,M,0000,0000*6E 
445.374         GPS_NMEA_FROM_GPS    iGPS            $GPGGA,190052.000,4144.3467,N,06959.5509,W,2,09,0.98,14.1,M,-34.3,M,0000,0000*6E 
446.376         GPS_NMEA_FROM_GPS    iGPS            $GPGGA,190053.000,4144.3466,N,06959.5512,W,2,09,0.98,13.9,M,-34.3,M,0000,0000*6B 
447.478         GPS_NMEA_FROM_GPS    iGPS            $GPGGA,190054.000,4144.3465,N,06959.5515,W,2,10,0.91,13.8,M,-34.3,M,0000,0000*68 
