1.663           GPS_NMEA_FROM_GPS    iGPS            $GPGGA,182902.000,4144.3479,N,06959.5397,W,2,09,1.00,5.6,M,-34.3,M,0000,0000*58 
2.665           GPS_NMEA_FROM_GPS    iGPS            $GPGGA,182903.000,4144.3478,N,06959.5398,W,2,09,1.00,5.6,M,-34.3,M,0000,0000*57 
2.665           GPS_NMEA_FROM_GPS    iGPS            $GPGGA,182903.000,4144.3478,N,06959.5398,W,2,09,1.00,5.6,M,-34.3,M,0000,0000*57 
3.768           GPS_NMEA_FROM_GPS    iGPS            $GPRMC,182904.000,A,4144.3478,N,06959.5398,W,0.27,212.08,270321,,,D*7F 
3.768           GPS_NMEA_FROM_GPS    iGPS            $GPRMC,182904.000,A,4144.3478,N,06959.5398,W,0.27,212.08,270321,,,D*7F 
4.669           GPS_NMEA_FROM_GPS    iGPS            $GPGGA,182905.000,4144.3477,N,06959.5399,W,2,09,1.00,5.7,M,-34.3,M,0000,0000*5E 
5.773           GPS_NMEA_FROM_GPS    iGPS            $GPRMC,182906.000,A,4144.3477,N,06959.5399,W,0.24,211.18,270321,,,D*72 
6.674           GPS_NMEA_FROM_GPS    iGPS            $GPGGA,182907.000,4144.3476,N,06959.5400,W,2,09,1.00,5.8,M,-34.3,M,0000,0000*55 
7.777           GPS_NMEA_FROM_GPS    iGPS            $GPGGA,182908.000,4144.3475,N,06959.5400,W,2,09,1.00,5.9,M,-34.3,M,0000,0000*58 
8.780           GPS_NMEA_FROM_GPS    iGPS            $GPRMC,182909.000,A,4144.3475,N,06959.5401,W,0.24,221.01,270321,,,D*72 
9.782           GPS_NMEA_FROM_GPS    iGPS            $GPGGA,182910.000,4144.3475,N,06959.5402,W,2,09,1.00,5.9,M,-34.3,M,0000,0000*53 
10.784          GPS_NMEA_FROM_GPS    iGPS            $GPGGA,182911.000,4144.3474,N,06959.5402,W,2,09,1.00,6.0,M,-34.3,M,0000,0000*59 
11.787          GPS_NMEA_FROM_GPS    iGPS            $GPRMC,182912.000,A,4144.3474,N,06959.5403,W,0.20,231.73,270321,,,D*7B 
11.787          GPS_NMEA_FROM_GPS    iGPS            $GPRMC,182912.000,A,4144.3474,N,06959.5403,W,0.20,231.73,270321,,,D*7B 
12.689          GPS_NMEA_FROM_GPS    iGPS            $GPGGA,182913.000,4144.3474,N,06959.5404,W,2,09,1.00,6.1,M,-34.3,M,0000,0000*5C 
12.689          GPS_NMEA_FROM_GPS    iGPS            $GPGGA,182913.000,4144.3474,N,06959.5404,W,2,09,1.00,6.1,M,-34.3,M,0000,0000*5C 
13.693          GPS_NMEA_FROM_GPS    iGPS            $GPGGA,182914.000,4144.3473,N,06959.5404,W,2,09,1.00,6.1,M,-34.3,M,0000,0000*5C 
14.795          GPS_NMEA_FROM_GPS    iGPS            $GPRMC,182915.000,A,4144.3473,N,06959.5405,W,0.23,235.78,270321,,,D*71 
15.698          GPS_NMEA_FROM_GPS    iGPS            $GPGGA,182916.000,4144.3473,N,06959.5406,W,2,09,1.00,6.2,M,-34.3,M,0000,0000*5F 
16.700          GPS_NMEA_FROM_GPS    iGPS            $GPGGA,182917.000,4144.3473,N,06959.5407,W,2,09,1.00,6.3,M,-34.3,M,0000,0000*5E 
17.702          GPS_NMEA_FROM_GPS    iGPS            $GPGGA,182918.000,4144.3472,N,06959.5407,W,2,09,1.00,6.3,M,-34.3,M,0000,0000*50 
18.705          GPS_NMEA_FROM_GPS    iGPS            $GPGGA,182919.000,4144.3472,N,06959.5408,W,2,09,1.00,6.4,M,-34.3,M,0000,0000*59 
19.808          GPS_NMEA_FROM_GPS    iGPS            $GPRMC,182920.000,A,4144.3472,N,06959.5409,W,0.19,246.02,270321,,,D*7A 
20.812          GPS_NMEA_FROM_GPS    iGPS            $GPRMC,182921.000,A,4144.3472,N,06959.5409,W,0.20,250.03,270321,,,D*77 
21.714          GPS_NMEA_FROM_GPS    iGPS            $GPGGA,182922.000,4144.3472,N,06959.5410,W,2,09,1.00,6.5,M,-34.3,M,0000,0000*59 
21.714          GPS_NMEA_FROM_GPS    iGPS            $GPGGA,182922.000,4144.3472,N,06959.5410,W,2,09,1.00,6.5,M,-34.3,M,0000,0000*59 
22.716          GPS_NMEA_FROM_GPS    iGPS            $GPGGA,182923.000,4144.3472,N,06959.5411,W,2,09,1.01,6.5,M,-34.3,M,0000,0000*58 
23.719          GPS_NMEA_FROM_GPS    iGPS            $GPGGA,182924.000,4144.3472,N,06959.5412,W,2,09,1.01,6.6,M,-34.3,M,0000,0000*5F 
23.719          GPS_NMEA_FROM_GPS    iGPS            $GPGGA,182924.000,4144.3472,N,06959.5412,W,2,09,1.01,6.6,M,-34.3,M,0000,0000*5F 
24.722          GPS_NMEA_FROM_GPS    iGPS            $GPGGA,182925.000,4144.3472,N,06959.5412,W,2,09,1.01,6.7,M,-34.3,M,0000,0000*5F 
25.725          GPS_NMEA_FROM_GPS    iGPS            $GPRMC,182926.000,A,4144.3472,N,06959.5413,W,0.14,275.77,270321,,,D*78 
26.727          GPS_NMEA_FROM_GPS    iGPS            $GPGGA,182927.000,4144.3472,N,06959.5413,W,2,09,1.01,6.8,M,-34.3,M,0000,0000*53 
27.630          GPS_NMEA_FROM_GPS    iGPS            $GPGGA,182928.000,4144.3471,N,06959.5414,W,2,08,1.07,6.8,M,-34.3,M,0000,0000*5F 
28.732          GPS_NMEA_FROM_GPS    iGPS            $GPRMC,182929.000,A,4144.3471,N,06959.5414,W,0.13,195.70,270321,,,D*7E 
29.734          GPS_NMEA_FROM_GPS    iGPS            $GPGGA,182930.000,4144.3471,N,06959.5414,W,2,08,1.07,7.0,M,-34.3,M,0000,0000*5F 
30.737          GPS_NMEA_FROM_GPS    iGPS            $GPGGA,182931.000,4144.3470,N,06959.5414,W,2,08,1.07,7.1,M,-34.3,M,0000,0000*5E 
31.739          GPS_NMEA_FROM_GPS    iGPS            $GPGGA,182932.000,4144.3469,N,06959.5414,W,2,08,1.07,7.1,M,-34.3,M,0000,0000*55 
32.742          GPS_NMEA_FROM_GPS    iGPS            $GPGGA,182933.000,4144.3469,N,06959.5414,W,2,08,1.07,7.2,M,-34.3,M,0000,0000*57 
33.745          GPS_NMEA_FROM_GPS    iGPS            $GPRMC,182934.000,A,4144.3468,N,06959.5414,W,0.39,192.52,270321,,,D*75 
34.647          GPS_NMEA_FROM_GPS    iGPS            $GPGGA,182935.000,4144.3467,N,06959.5414,W,2,08,1.07,7.3,M,-34.3,M,0000,0000*5E 
35.750          GPS_NMEA_FROM_GPS    iGPS            $GPRMC,182936.000,A,4144.3466,N,06959.5415,W,0.38,188.75,270321,,,D*77 
36.752          GPS_NMEA_FROM_GPS    iGPS            $GPGGA,182937.000,4144.3466,N,06959.5414,W,2,09,1.01,7.3,M,-34.3,M,0000,0000*5A 
37.754          GPS_NMEA_FROM_GPS    iGPS            $GPGGA,182938.000,4144.3465,N,06959.5414,W,2,09,1.01,7.3,M,-34.3,M,0000,0000*56 
38.758          GPS_NMEA_FROM_GPS    iGPS            $GPGGA,182939.000,4144.3465,N,06959.5412,W,2,09,1.01,7.4,M,-34.3,M,0000,0000*56 
39.761          GPS_NMEA_FROM_GPS    iGPS            $GPRMC,182940.000,A,4144.3464,N,06959.5412,W,0.31,172.21,270321,,,D*7E 
40.763          GPS_NMEA_FROM_GPS    iGPS            $GPGGA,182941.000,4144.3464,N,06959.5411,W,2,09,1.01,7.5,M,-34.3,M,0000,0000*5A 
41.766          GPS_NMEA_FROM_GPS    iGPS            $GPRMC,182942.000,A,4144.3463,N,06959.5410,W,0.35,153.75,270321,,,D*7F 
42.768          GPS_NMEA_FROM_GPS    iGPS            $GPGGA,182943.000,4144.3463,N,06959.5409,W,2,08,1.07,7.7,M,-34.3,M,0000,0000*53 
43.771          GPS_NMEA_FROM_GPS    iGPS            $GPRMC,182944.000,A,4144.3462,N,06959.5408,W,0.45,129.60,270321,,,D*7F 
44.773          GPS_NMEA_FROM_GPS    iGPS            $GPRMC,182945.000,A,4144.3462,N,06959.5406,W,0.43,118.51,270321,,,D*76 
45.676          GPS_NMEA_FROM_GPS    iGPS            $GPGGA,182946.000,4144.3463,N,06959.5403,W,2,09,0.94,7.9,M,-34.3,M,0000,0000*58 
46.679          GPS_NMEA_FROM_GPS    iGPS            $GPGGA,182947.000,4144.3464,N,06959.5400,W,2,08,1.07,7.9,M,-34.3,M,0000,0000*57 
47.681          GPS_NMEA_FROM_GPS    iGPS            $GPGGA,182948.000,4144.3465,N,06959.5397,W,2,08,1.07,8.1,M,-34.3,M,0000,0000*57 
48.783          GPS_NMEA_FROM_GPS    iGPS            $GPGGA,182949.000,4144.3466,N,06959.5393,W,2,08,1.07,8.2,M,-34.3,M,0000,0000*52 
49.786          GPS_NMEA_FROM_GPS    iGPS            $GPGGA,182950.000,4144.3467,N,06959.5391,W,2,09,1.01,8.3,M,-34.3,M,0000,0000*5F 
50.788          GPS_NMEA_FROM_GPS    iGPS            $GPGGA,182951.000,4144.3468,N,06959.5387,W,2,08,1.07,8.3,M,-34.3,M,0000,0000*51 
51.791          GPS_NMEA_FROM_GPS    iGPS            $GPRMC,182952.000,A,4144.3469,N,06959.5384,W,0.63,82.37,270321,,,D*46 
52.793          GPS_NMEA_FROM_GPS    iGPS            $GPGGA,182953.000,4144.3469,N,06959.5381,W,2,08,1.07,8.3,M,-34.3,M,0000,0000*54 
53.798          GPS_NMEA_FROM_GPS    iGPS            $GPRMC,182954.000,A,4144.3470,N,06959.5378,W,0.65,84.94,270321,,,D*42 
54.699          GPS_NMEA_FROM_GPS    iGPS            $GPGGA,182955.000,4144.3470,N,06959.5375,W,2,07,1.11,8.4,M,-34.3,M,0000,0000*5E 
55.702          GPS_NMEA_FROM_GPS    iGPS            $GPGGA,182956.000,4144.3471,N,06959.5372,W,2,08,1.06,8.4,M,-34.3,M,0000,0000*52 
56.805          GPS_NMEA_FROM_GPS    iGPS            $GPRMC,182957.000,A,4144.3472,N,06959.5369,W,0.72,86.89,270321,,,D*4B 
57.807          GPS_NMEA_FROM_GPS    iGPS            $GPRMC,182958.000,A,4144.3473,N,06959.5365,W,0.75,84.95,270321,,,D*41 
58.709          GPS_NMEA_FROM_GPS    iGPS            $GPGGA,182959.000,4144.3473,N,06959.5362,W,2,08,1.05,8.6,M,-34.3,M,0000,0000*5F 
59.812          GPS_NMEA_FROM_GPS    iGPS            $GPRMC,183000.000,A,4144.3474,N,06959.5358,W,0.75,81.21,270321,,,D*47 
60.714          GPS_NMEA_FROM_GPS    iGPS            $GPGGA,183001.000,4144.3475,N,06959.5355,W,2,08,1.06,8.8,M,-34.3,M,0000,0000*55 
61.817          GPS_NMEA_FROM_GPS    iGPS            $GPRMC,183002.000,A,4144.3477,N,06959.5352,W,0.80,76.42,270321,,,D*4B 
62.819          GPS_NMEA_FROM_GPS    iGPS            $GPRMC,183003.000,A,4144.3478,N,06959.5348,W,0.71,75.77,270321,,,D*45 
63.822          GPS_NMEA_FROM_GPS    iGPS            $GPRMC,183004.000,A,4144.3479,N,06959.5345,W,0.70,75.32,270321,,,D*4E 
64.723          GPS_NMEA_FROM_GPS    iGPS            $GPGGA,183005.000,4144.3480,N,06959.5342,W,2,09,1.01,8.6,M,-34.3,M,0000,0000*55 
65.725          GPS_NMEA_FROM_GPS    iGPS            $GPGGA,183006.000,4144.3481,N,06959.5338,W,2,09,0.99,8.5,M,-34.3,M,0000,0000*59 
66.728          GPS_NMEA_FROM_GPS    iGPS            $GPGGA,183007.000,4144.3482,N,06959.5335,W,2,09,0.99,8.5,M,-34.3,M,0000,0000*56 
67.731          GPS_NMEA_FROM_GPS    iGPS            $GPGGA,183008.000,4144.3484,N,06959.5331,W,2,09,1.01,8.6,M,-34.3,M,0000,0000*58 
68.734          GPS_NMEA_FROM_GPS    iGPS            $GPRMC,183009.000,A,4144.3485,N,06959.5328,W,0.81,71.48,270321,,,D*4C 
69.736          GPS_NMEA_FROM_GPS    iGPS            $GPGGA,183010.000,4144.3487,N,06959.5325,W,2,09,1.01,8.7,M,-34.3,M,0000,0000*56 
70.738          GPS_NMEA_FROM_GPS    iGPS            $GPGGA,183011.000,4144.3488,N,06959.5321,W,2,09,0.99,8.8,M,-34.3,M,0000,0000*53 
71.741          GPS_NMEA_FROM_GPS    iGPS            $GPGGA,183012.000,4144.3489,N,06959.5319,W,2,09,0.99,8.8,M,-34.3,M,0000,0000*5A 
72.744          GPS_NMEA_FROM_GPS    iGPS            $GPGGA,183013.000,4144.3491,N,06959.5315,W,2,09,0.99,8.9,M,-34.3,M,0000,0000*5F 
73.746          GPS_NMEA_FROM_GPS    iGPS            $GPGGA,183014.000,4144.3492,N,06959.5312,W,2,09,0.99,9.0,M,-34.3,M,0000,0000*54 
74.749          GPS_NMEA_FROM_GPS    iGPS            $GPGGA,183015.000,4144.3494,N,06959.5309,W,2,09,0.99,9.0,M,-34.3,M,0000,0000*59 
75.752          GPS_NMEA_FROM_GPS    iGPS            $GPGGA,183016.000,4144.3494,N,06959.5305,W,2,09,0.99,9.0,M,-34.3,M,0000,0000*56 
76.754          GPS_NMEA_FROM_GPS    iGPS            $GPRMC,183017.000,A,4144.3495,N,06959.5302,W,0.78,68.45,270321,,,D*49 
77.756          GPS_NMEA_FROM_GPS    iGPS            $GPRMC,183018.000,A,4144.3496,N,06959.5298,W,0.81,69.48,270321,,,D*4D 
78.759          GPS_NMEA_FROM_GPS    iGPS            $GPRMC,183019.000,A,4144.3497,N,06959.5295,W,0.76,70.53,270321,,,D*4A 
79.760          GPS_NMEA_FROM_GPS    iGPS            $GPRMC,183020.000,A,4144.3498,N,06959.5292,W,0.77,71.04,270321,,,D*4A 
80.763          GPS_NMEA_FROM_GPS    iGPS            $GPGGA,183021.000,4144.3499,N,06959.5289,W,2,09,0.99,8.8,M,-34.3,M,0000,0000*53 
81.665          GPS_NMEA_FROM_GPS    iGPS            $GPGGA,183022.000,4144.3500,N,06959.5286,W,2,09,0.99,8.8,M,-34.3,M,0000,0000*5E 
82.768          GPS_NMEA_FROM_GPS    iGPS            $GPGGA,183023.000,4144.3502,N,06959.5283,W,2,09,1.01,8.8,M,-34.3,M,0000,0000*58 
83.771          GPS_NMEA_FROM_GPS    iGPS            $GPGGA,183024.000,4144.3503,N,06959.5279,W,2,09,0.99,8.9,M,-34.3,M,0000,0000*5A 
84.774          GPS_NMEA_FROM_GPS    iGPS            $GPRMC,183025.000,A,4144.3505,N,06959.5276,W,0.81,64.44,270321,,,D*49 
85.776          GPS_NMEA_FROM_GPS    iGPS            $GPGGA,183026.000,4144.3506,N,06959.5273,W,2,09,0.99,9.0,M,-34.3,M,0000,0000*5F 
86.679          GPS_NMEA_FROM_GPS    iGPS            $GPGGA,183027.000,4144.3507,N,06959.5270,W,2,09,0.99,9.0,M,-34.3,M,0000,0000*5C 
87.681          GPS_NMEA_FROM_GPS    iGPS            $GPGGA,183028.000,4144.3509,N,06959.5268,W,2,09,0.99,9.0,M,-34.3,M,0000,0000*54 
88.684          GPS_NMEA_FROM_GPS    iGPS            $GPGGA,183029.000,4144.3510,N,06959.5265,W,2,09,0.99,9.0,M,-34.3,M,0000,0000*50 
89.687          GPS_NMEA_FROM_GPS    iGPS            $GPGGA,183030.000,4144.3511,N,06959.5262,W,2,09,0.99,9.0,M,-34.3,M,0000,0000*5E 
90.790          GPS_NMEA_FROM_GPS    iGPS            $GPRMC,183031.000,A,4144.3512,N,06959.5259,W,0.82,62.75,270321,,,D*40 
91.692          GPS_NMEA_FROM_GPS    iGPS            $GPGGA,183032.000,4144.3514,N,06959.5257,W,2,09,1.01,8.8,M,-34.3,M,0000,0000*56 
92.795          GPS_NMEA_FROM_GPS    iGPS            $GPRMC,183033.000,A,4144.3515,N,06959.5254,W,0.84,62.52,270321,,,D*4B 
93.697          GPS_NMEA_FROM_GPS    iGPS            $GPGGA,183034.000,4144.3516,N,06959.5251,W,2,09,0.99,8.8,M,-34.3,M,0000,0000*54 
94.801          GPS_NMEA_FROM_GPS    iGPS            $GPRMC,183035.000,A,4144.3517,N,06959.5248,W,0.85,63.66,270321,,,D*45 
95.703          GPS_NMEA_FROM_GPS    iGPS            $GPGGA,183036.000,4144.3519,N,06959.5245,W,2,09,1.00,8.8,M,-34.3,M,0000,0000*5D 
96.806          GPS_NMEA_FROM_GPS    iGPS            $GPRMC,183037.000,A,4144.3520,N,06959.5242,W,0.81,63.88,270321,,,D*4D 
97.708          GPS_NMEA_FROM_GPS    iGPS            $GPGGA,183038.000,4144.3521,N,06959.5239,W,2,09,0.99,8.8,M,-34.3,M,0000,0000*52 
98.711          GPS_NMEA_FROM_GPS    iGPS            $GPGGA,183039.000,4144.3523,N,06959.5235,W,2,09,1.00,8.8,M,-34.3,M,0000,0000*5C 
99.714          GPS_NMEA_FROM_GPS    iGPS            $GPGGA,183040.000,4144.3524,N,06959.5232,W,2,08,1.04,8.8,M,-34.3,M,0000,0000*57 
100.716         GPS_NMEA_FROM_GPS    iGPS            $GPGGA,183041.000,4144.3525,N,06959.5230,W,2,09,0.99,8.7,M,-34.3,M,0000,0000*5E 
101.719         GPS_NMEA_FROM_GPS    iGPS            $GPGGA,183042.000,4144.3527,N,06959.5227,W,2,08,1.04,8.6,M,-34.3,M,0000,0000*5C 
102.722         GPS_NMEA_FROM_GPS    iGPS            $GPGGA,183043.000,4144.3528,N,06959.5224,W,2,08,1.04,8.5,M,-34.3,M,0000,0000*52 
103.724         GPS_NMEA_FROM_GPS    iGPS            $GPGGA,183044.000,4144.3529,N,06959.5222,W,2,08,1.04,8.5,M,-34.3,M,0000,0000*52 
104.727         GPS_NMEA_FROM_GPS    iGPS            $GPGGA,183045.000,4144.3531,N,06959.5219,W,2,08,1.04,8.5,M,-34.3,M,0000,0000*52 
105.729         GPS_NMEA_FROM_GPS    iGPS            $GPGGA,183046.000,4144.3532,N,06959.5216,W,2,08,1.04,8.5,M,-34.3,M,0000,0000*5D 
106.732         GPS_NMEA_FROM_GPS    iGPS            $GPGGA,183047.000,4144.3534,N,06959.5214,W,2,08,1.04,8.6,M,-34.3,M,0000,0000*5B 
107.735         GPS_NMEA_FROM_GPS    iGPS            $GPGGA,183048.000,4144.3535,N,06959.5211,W,2,08,1.04,8.7,M,-34.3,M,0000,0000*51 
108.738         GPS_NMEA_FROM_GPS    iGPS            $GPRMC,183049.000,A,4144.3537,N,06959.5209,W,0.84,55.48,270321,,,D*41 
109.740         GPS_NMEA_FROM_GPS    iGPS            $GPRMC,183050.000,A,4144.3539,N,06959.5206,W,0.87,55.75,270321,,,D*45 
110.743         GPS_NMEA_FROM_GPS    iGPS            $GPRMC,183051.000,A,4144.3540,N,06959.5203,W,0.79,56.78,270321,,,D*40 
111.745         GPS_NMEA_FROM_GPS    iGPS            $GPGGA,183052.000,4144.3541,N,06959.5201,W,2,08,1.04,9.0,M,-34.3,M,0000,0000*5E 
112.748         GPS_NMEA_FROM_GPS    iGPS            $GPRMC,183053.000,A,4144.3543,N,06959.5198,W,0.75,56.64,270321,,,D*41 
113.750         GPS_NMEA_FROM_GPS    iGPS            $GPGGA,183054.000,4144.3544,N,06959.5196,W,2,08,1.04,8.9,M,-34.3,M,0000,0000*58 
114.853         GPS_NMEA_FROM_GPS    iGPS            $GPRMC,183055.000,A,4144.3545,N,06959.5194,W,0.74,55.86,270321,,,D*43 
115.755         GPS_NMEA_FROM_GPS    iGPS            $GPGGA,183056.000,4144.3546,N,06959.5192,W,2,09,0.92,8.8,M,-34.3,M,0000,0000*52 
116.758         GPS_NMEA_FROM_GPS    iGPS            $GPGGA,183057.000,4144.3548,N,06959.5189,W,2,09,0.92,8.8,M,-34.3,M,0000,0000*57 
117.761         GPS_NMEA_FROM_GPS    iGPS            $GPGGA,183058.000,4144.3549,N,06959.5187,W,2,09,0.92,8.7,M,-34.3,M,0000,0000*58 
118.764         GPS_NMEA_FROM_GPS    iGPS            $GPRMC,183059.000,A,4144.3551,N,06959.5185,W,0.71,53.71,270321,,,D*41 
119.766         GPS_NMEA_FROM_GPS    iGPS            $GPGGA,183100.000,4144.3552,N,06959.5183,W,2,09,0.92,8.6,M,-34.3,M,0000,0000*5B 
120.768         GPS_NMEA_FROM_GPS    iGPS            $GPGGA,183101.000,4144.3553,N,06959.5181,W,2,09,0.92,8.5,M,-34.3,M,0000,0000*5A 
121.771         GPS_NMEA_FROM_GPS    iGPS            $GPRMC,183102.000,A,4144.3555,N,06959.5179,W,0.69,53.32,270321,,,D*47 
122.774         GPS_NMEA_FROM_GPS    iGPS            $GPGGA,183103.000,4144.3556,N,06959.5177,W,2,09,0.92,8.3,M,-34.3,M,0000,0000*52 
123.776         GPS_NMEA_FROM_GPS    iGPS            $GPGGA,183104.000,4144.3557,N,06959.5174,W,2,09,0.92,8.4,M,-34.3,M,0000,0000*50 
124.779         GPS_NMEA_FROM_GPS    iGPS            $GPRMC,183105.000,A,4144.3559,N,06959.5172,W,0.77,54.60,270321,,,D*48 
125.781         GPS_NMEA_FROM_GPS    iGPS            $GPGGA,183106.000,4144.3560,N,06959.5169,W,2,09,0.92,8.4,M,-34.3,M,0000,0000*5A 
126.784         GPS_NMEA_FROM_GPS    iGPS            $GPGGA,183107.000,4144.3561,N,06959.5167,W,2,09,0.92,8.4,M,-34.3,M,0000,0000*54 
127.787         GPS_NMEA_FROM_GPS    iGPS            $GPGGA,183108.000,4144.3562,N,06959.5164,W,2,09,0.92,8.5,M,-34.3,M,0000,0000*5A 
128.790         GPS_NMEA_FROM_GPS    iGPS            $GPRMC,183109.000,A,4144.3563,N,06959.5162,W,0.77,56.84,270321,,,D*44 
129.692         GPS_NMEA_FROM_GPS    iGPS            $GPGGA,183110.000,4144.3564,N,06959.5159,W,2,09,0.92,8.6,M,-34.3,M,0000,0000*58 
130.695         GPS_NMEA_FROM_GPS    iGPS            $GPGGA,183111.000,4144.3565,N,06959.5157,W,2,08,1.04,8.7,M,-34.3,M,0000,0000*58 
131.698         GPS_NMEA_FROM_GPS    iGPS            $GPGGA,183112.000,4144.3567,N,06959.5154,W,2,08,1.04,8.8,M,-34.3,M,0000,0000*55 
132.700         GPS_NMEA_FROM_GPS    iGPS            $GPGGA,183113.000,4144.3568,N,06959.5152,W,2,08,1.04,8.9,M,-34.3,M,0000,0000*5C 
133.703         GPS_NMEA_FROM_GPS    iGPS            $GPRMC,183114.000,A,4144.3569,N,06959.5149,W,0.79,49.05,270321,,,D*42 
134.705         GPS_NMEA_FROM_GPS    iGPS            $GPGGA,183115.000,4144.3571,N,06959.5147,W,2,08,1.04,9.0,M,-34.3,M,0000,0000*5E 
135.808         GPS_NMEA_FROM_GPS    iGPS            $GPRMC,183116.000,A,4144.3572,N,06959.5145,W,0.81,46.26,270321,,,D*4F 
136.810         GPS_NMEA_FROM_GPS    iGPS            $GPGGA,183117.000,4144.3573,N,06959.5142,W,2,09,0.92,9.2,M,-34.3,M,0000,0000*56 
137.713         GPS_NMEA_FROM_GPS    iGPS            $GPGGA,183118.000,4144.3575,N,06959.5140,W,2,08,1.04,9.3,M,-34.3,M,0000,0000*53 
138.816         GPS_NMEA_FROM_GPS    iGPS            $GPGGA,183119.000,4144.3576,N,06959.5138,W,2,09,0.92,9.4,M,-34.3,M,0000,0000*56 
139.718         GPS_NMEA_FROM_GPS    iGPS            $GPRMC,183120.000,A,4144.3577,N,06959.5136,W,0.70,42.04,270321,,,D*41 
140.721         GPS_NMEA_FROM_GPS    iGPS            $GPGGA,183121.000,4144.3578,N,06959.5134,W,2,09,1.00,9.6,M,-34.3,M,0000,0000*57 
141.723         GPS_NMEA_FROM_GPS    iGPS            $GPGGA,183122.000,4144.3579,N,06959.5132,W,2,09,1.01,9.7,M,-34.3,M,0000,0000*53 
142.726         GPS_NMEA_FROM_GPS    iGPS            $GPGGA,183123.000,4144.3580,N,06959.5131,W,2,08,1.06,9.9,M,-34.3,M,0000,0000*5F 
143.729         GPS_NMEA_FROM_GPS    iGPS            $GPGGA,183124.000,4144.3581,N,06959.5131,W,2,09,1.01,10.0,M,-34.3,M,0000,0000*6E 
144.834         GPS_NMEA_FROM_GPS    iGPS            $GPGGA,183125.000,4144.3582,N,06959.5131,W,2,10,0.87,10.2,M,-34.3,M,0000,0000*69 
145.735         GPS_NMEA_FROM_GPS    iGPS            $GPGGA,183126.000,4144.3583,N,06959.5131,W,2,09,1.01,10.2,M,-34.3,M,0000,0000*6C 
146.738         GPS_NMEA_FROM_GPS    iGPS            $GPGGA,183127.000,4144.3584,N,06959.5132,W,2,09,1.01,10.2,M,-34.3,M,0000,0000*69 
147.740         GPS_NMEA_FROM_GPS    iGPS            $GPGGA,183128.000,4144.3585,N,06959.5132,W,2,09,1.01,10.2,M,-34.3,M,0000,0000*67 
148.743         GPS_NMEA_FROM_GPS    iGPS            $GPGGA,183129.000,4144.3586,N,06959.5133,W,2,09,1.01,10.2,M,-34.3,M,0000,0000*64 
149.746         GPS_NMEA_FROM_GPS    iGPS            $GPGGA,183130.000,4144.3587,N,06959.5134,W,2,09,1.01,10.3,M,-34.3,M,0000,0000*6B 
150.749         GPS_NMEA_FROM_GPS    iGPS            $GPGGA,183131.000,4144.3588,N,06959.5136,W,2,09,1.01,10.3,M,-34.3,M,0000,0000*67 
151.752         GPS_NMEA_FROM_GPS    iGPS            $GPGGA,183132.000,4144.3589,N,06959.5137,W,2,09,1.01,10.3,M,-34.3,M,0000,0000*64 
152.755         GPS_NMEA_FROM_GPS    iGPS            $GPRMC,183133.000,A,4144.3589,N,06959.5139,W,0.54,308.22,270321,,,D*72 
153.657         GPS_NMEA_FROM_GPS    iGPS            $GPGGA,183134.000,4144.3589,N,06959.5141,W,2,09,1.01,10.4,M,-34.3,M,0000,0000*64 
154.760         GPS_NMEA_FROM_GPS    iGPS            $GPGGA,183135.000,4144.3589,N,06959.5144,W,2,09,1.00,10.4,M,-34.3,M,0000,0000*61 
155.763         GPS_NMEA_FROM_GPS    iGPS            $GPRMC,183136.000,A,4144.3589,N,06959.5147,W,0.64,275.35,270321,,,D*70 
156.765         GPS_NMEA_FROM_GPS    iGPS            $GPGGA,183137.000,4144.3589,N,06959.5150,W,2,09,1.00,10.7,M,-34.3,M,0000,0000*65 
157.768         GPS_NMEA_FROM_GPS    iGPS            $GPGGA,183138.000,4144.3588,N,06959.5154,W,2,09,1.00,10.7,M,-34.3,M,0000,0000*6F 
158.771         GPS_NMEA_FROM_GPS    iGPS            $GPGGA,183139.000,4144.3588,N,06959.5157,W,2,09,1.00,10.7,M,-34.3,M,0000,0000*6D 
159.774         GPS_NMEA_FROM_GPS    iGPS            $GPGGA,183140.000,4144.3587,N,06959.5160,W,2,09,1.00,10.6,M,-34.3,M,0000,0000*69 
160.777         GPS_NMEA_FROM_GPS    iGPS            $GPRMC,183141.000,A,4144.3587,N,06959.5164,W,0.80,261.64,270321,,,D*74 
161.679         GPS_NMEA_FROM_GPS    iGPS            $GPGGA,183142.000,4144.3587,N,06959.5167,W,2,09,1.00,10.5,M,-34.3,M,0000,0000*6F 
162.782         GPS_NMEA_FROM_GPS    iGPS            $GPGGA,183143.000,4144.3586,N,06959.5170,W,2,09,1.00,10.6,M,-34.3,M,0000,0000*6A 
163.784         GPS_NMEA_FROM_GPS    iGPS            $GPGGA,183144.000,4144.3586,N,06959.5173,W,2,09,1.00,10.5,M,-34.3,M,0000,0000*6D 
164.686         GPS_NMEA_FROM_GPS    iGPS            $GPGGA,183145.000,4144.3586,N,06959.5177,W,2,09,1.00,10.4,M,-34.3,M,0000,0000*69 
165.789         GPS_NMEA_FROM_GPS    iGPS            $GPGGA,183146.000,4144.3586,N,06959.5180,W,2,09,1.00,10.4,M,-34.3,M,0000,0000*62 
166.792         GPS_NMEA_FROM_GPS    iGPS            $GPGGA,183147.000,4144.3586,N,06959.5183,W,2,09,1.01,10.3,M,-34.3,M,0000,0000*66 
167.795         GPS_NMEA_FROM_GPS    iGPS            $GPRMC,183148.000,A,4144.3586,N,06959.5187,W,0.75,265.65,270321,,,D*7E 
168.797         GPS_NMEA_FROM_GPS    iGPS            $GPGGA,183149.000,4144.3585,N,06959.5190,W,2,09,1.00,10.4,M,-34.3,M,0000,0000*6F 
169.800         GPS_NMEA_FROM_GPS    iGPS            $GPRMC,183150.000,A,4144.3585,N,06959.5193,W,0.73,261.29,270321,,,D*7B 
170.702         GPS_NMEA_FROM_GPS    iGPS            $GPGGA,183151.000,4144.3584,N,06959.5197,W,2,09,1.00,10.5,M,-34.3,M,0000,0000*61 
171.704         GPS_NMEA_FROM_GPS    iGPS            $GPGGA,183152.000,4144.3584,N,06959.5200,W,2,09,1.00,10.5,M,-34.3,M,0000,0000*6F 
172.707         GPS_NMEA_FROM_GPS    iGPS            $GPGGA,183153.000,4144.3583,N,06959.5203,W,2,09,1.00,10.5,M,-34.3,M,0000,0000*6A 
173.710         GPS_NMEA_FROM_GPS    iGPS            $GPGGA,183154.000,4144.3582,N,06959.5206,W,2,09,1.00,10.6,M,-34.3,M,0000,0000*6A 
174.712         GPS_NMEA_FROM_GPS    iGPS            $GPGGA,183155.000,4144.3581,N,06959.5209,W,2,09,1.00,10.6,M,-34.3,M,0000,0000*67 
175.815         GPS_NMEA_FROM_GPS    iGPS            $GPRMC,183156.000,A,4144.3580,N,06959.5212,W,0.89,240.58,270321,,,D*72 
176.717         GPS_NMEA_FROM_GPS    iGPS            $GPGGA,183157.000,4144.3579,N,06959.5215,W,2,09,1.00,10.6,M,-34.3,M,0000,0000*6F 
177.821         GPS_NMEA_FROM_GPS    iGPS            $GPRMC,183158.000,A,4144.3578,N,06959.5218,W,0.76,240.18,270321,,,D*75 
178.723         GPS_NMEA_FROM_GPS    iGPS            $GPGGA,183159.000,4144.3577,N,06959.5221,W,2,09,1.00,10.7,M,-34.3,M,0000,0000*69 
179.725         GPS_NMEA_FROM_GPS    iGPS            $GPGGA,183200.000,4144.3576,N,06959.5225,W,2,09,1.00,10.8,M,-34.3,M,0000,0000*6C 
180.728         GPS_NMEA_FROM_GPS    iGPS            $GPGGA,183201.000,4144.3575,N,06959.5228,W,2,09,1.00,10.9,M,-34.3,M,0000,0000*62 
181.731         GPS_NMEA_FROM_GPS    iGPS            $GPGGA,183202.000,4144.3574,N,06959.5232,W,2,09,1.00,11.0,M,-34.3,M,0000,0000*63 
182.734         GPS_NMEA_FROM_GPS    iGPS            $GPGGA,183203.000,4144.3572,N,06959.5235,W,2,09,1.00,11.1,M,-34.3,M,0000,0000*62 
183.736         GPS_NMEA_FROM_GPS    iGPS            $GPGGA,183204.000,4144.3571,N,06959.5238,W,2,09,1.00,11.1,M,-34.3,M,0000,0000*6B 
184.739         GPS_NMEA_FROM_GPS    iGPS            $GPGGA,183205.000,4144.3570,N,06959.5241,W,2,09,1.00,11.1,M,-34.3,M,0000,0000*65 
185.742         GPS_NMEA_FROM_GPS    iGPS            $GPGGA,183206.000,4144.3569,N,06959.5245,W,2,09,1.00,11.1,M,-34.3,M,0000,0000*6A 
186.744         GPS_NMEA_FROM_GPS    iGPS            $GPGGA,183207.000,4144.3568,N,06959.5248,W,2,09,1.00,11.0,M,-34.3,M,0000,0000*66 
187.747         GPS_NMEA_FROM_GPS    iGPS            $GPGGA,183208.000,4144.3567,N,06959.5251,W,2,09,1.00,11.0,M,-34.3,M,0000,0000*6E 
188.749         GPS_NMEA_FROM_GPS    iGPS            $GPGGA,183209.000,4144.3566,N,06959.5254,W,2,09,1.00,11.0,M,-34.3,M,0000,0000*6B 
189.752         GPS_NMEA_FROM_GPS    iGPS            $GPGGA,183210.000,4144.3565,N,06959.5257,W,2,09,1.00,11.0,M,-34.3,M,0000,0000*63 
190.755         GPS_NMEA_FROM_GPS    iGPS            $GPGGA,183211.000,4144.3564,N,06959.5260,W,2,09,1.00,11.1,M,-34.3,M,0000,0000*66 
191.758         GPS_NMEA_FROM_GPS    iGPS            $GPGGA,183212.000,4144.3564,N,06959.5263,W,2,09,1.00,11.1,M,-34.3,M,0000,0000*66 
192.761         GPS_NMEA_FROM_GPS    iGPS            $GPRMC,183213.000,A,4144.3563,N,06959.5266,W,0.76,248.21,270321,,,D*78 
193.763         GPS_NMEA_FROM_GPS    iGPS            $GPRMC,183214.000,A,4144.3562,N,06959.5269,W,0.76,247.74,270321,,,D*7E 
194.766         GPS_NMEA_FROM_GPS    iGPS            $GPRMC,183215.000,A,4144.3561,N,06959.5272,W,0.82,245.56,270321,,,D*7F 
195.668         GPS_NMEA_FROM_GPS    iGPS            $GPGGA,183216.000,4144.3560,N,06959.5275,W,2,09,1.00,11.4,M,-34.3,M,0000,0000*64 
196.770         GPS_NMEA_FROM_GPS    iGPS            $GPGGA,183217.000,4144.3559,N,06959.5278,W,2,09,1.00,11.4,M,-34.3,M,0000,0000*62 
197.773         GPS_NMEA_FROM_GPS    iGPS            $GPRMC,183218.000,A,4144.3558,N,06959.5281,W,0.82,240.31,270321,,,D*70 
198.775         GPS_NMEA_FROM_GPS    iGPS            $GPGGA,183219.000,4144.3557,N,06959.5284,W,2,09,1.00,11.5,M,-34.3,M,0000,0000*60 
199.678         GPS_NMEA_FROM_GPS    iGPS            $GPGGA,183220.000,4144.3556,N,06959.5286,W,2,09,1.00,11.6,M,-34.3,M,0000,0000*6A 
200.780         GPS_NMEA_FROM_GPS    iGPS            $GPGGA,183221.000,4144.3555,N,06959.5289,W,2,09,1.00,11.6,M,-34.3,M,0000,0000*67 
201.783         GPS_NMEA_FROM_GPS    iGPS            $GPRMC,183222.000,A,4144.3554,N,06959.5292,W,0.82,240.22,270321,,,D*75 
202.786         GPS_NMEA_FROM_GPS    iGPS            $GPGGA,183223.000,4144.3553,N,06959.5295,W,2,09,1.00,11.7,M,-34.3,M,0000,0000*6F 
203.688         GPS_NMEA_FROM_GPS    iGPS            $GPGGA,183224.000,4144.3552,N,06959.5297,W,2,09,1.00,11.8,M,-34.3,M,0000,0000*64 
204.691         GPS_NMEA_FROM_GPS    iGPS            $GPGGA,183225.000,4144.3551,N,06959.5300,W,2,09,1.00,11.8,M,-34.3,M,0000,0000*69 
205.794         GPS_NMEA_FROM_GPS    iGPS            $GPGGA,183226.000,4144.3550,N,06959.5303,W,2,09,1.00,11.9,M,-34.3,M,0000,0000*69 
206.696         GPS_NMEA_FROM_GPS    iGPS            $GPGGA,183227.000,4144.3549,N,06959.5306,W,2,09,1.00,11.9,M,-34.3,M,0000,0000*65 
207.799         GPS_NMEA_FROM_GPS    iGPS            $GPGGA,183228.000,4144.3548,N,06959.5309,W,2,09,1.00,11.9,M,-34.3,M,0000,0000*64 
208.702         GPS_NMEA_FROM_GPS    iGPS            $GPGGA,183229.000,4144.3547,N,06959.5312,W,2,09,1.00,11.9,M,-34.3,M,0000,0000*60 
209.703         GPS_NMEA_FROM_GPS    iGPS            $GPGGA,183230.000,4144.3546,N,06959.5315,W,2,09,1.00,11.8,M,-34.3,M,0000,0000*6F 
210.807         GPS_NMEA_FROM_GPS    iGPS            $GPRMC,183231.000,A,4144.3545,N,06959.5318,W,0.82,245.31,270321,,,D*73 
211.809         GPS_NMEA_FROM_GPS    iGPS            $GPRMC,183232.000,A,4144.3544,N,06959.5321,W,0.83,245.08,270321,,,D*70 
212.812         GPS_NMEA_FROM_GPS    iGPS            $GPRMC,183233.000,A,4144.3543,N,06959.5324,W,0.78,245.09,270321,,,D*76 
213.714         GPS_NMEA_FROM_GPS    iGPS            $GPGGA,183234.000,4144.3542,N,06959.5327,W,2,09,1.00,11.8,M,-34.3,M,0000,0000*6E 
214.717         GPS_NMEA_FROM_GPS    iGPS            $GPGGA,183235.000,4144.3541,N,06959.5330,W,2,09,1.00,11.9,M,-34.3,M,0000,0000*6B 
215.719         GPS_NMEA_FROM_GPS    iGPS            $GPGGA,183236.000,4144.3540,N,06959.5333,W,2,09,1.00,11.9,M,-34.3,M,0000,0000*6A 
216.723         GPS_NMEA_FROM_GPS    iGPS            $GPGGA,183237.000,4144.3539,N,06959.5336,W,2,09,1.00,12.1,M,-34.3,M,0000,0000*6B 
217.725         GPS_NMEA_FROM_GPS    iGPS            $GPGGA,183238.000,4144.3539,N,06959.5339,W,2,09,1.00,12.2,M,-34.3,M,0000,0000*68 
218.728         GPS_NMEA_FROM_GPS    iGPS            $GPGGA,183239.000,4144.3538,N,06959.5341,W,2,09,1.00,12.3,M,-34.3,M,0000,0000*66 
219.730         GPS_NMEA_FROM_GPS    iGPS            $GPGGA,183240.000,4144.3537,N,06959.5344,W,2,09,1.00,12.5,M,-34.3,M,0000,0000*64 
220.733         GPS_NMEA_FROM_GPS    iGPS            $GPGGA,183241.000,4144.3537,N,06959.5346,W,2,09,1.00,12.6,M,-34.3,M,0000,0000*64 
221.735         GPS_NMEA_FROM_GPS    iGPS            $GPGGA,183242.000,4144.3536,N,06959.5348,W,2,09,1.00,12.7,M,-34.3,M,0000,0000*69 
222.737         GPS_NMEA_FROM_GPS    iGPS            $GPGGA,183243.000,4144.3535,N,06959.5351,W,2,09,1.02,12.7,M,-34.3,M,0000,0000*61 
223.740         GPS_NMEA_FROM_GPS    iGPS            $GPGGA,183244.000,4144.3534,N,06959.5353,W,2,09,1.00,12.7,M,-34.3,M,0000,0000*67 
224.743         GPS_NMEA_FROM_GPS    iGPS            $GPGGA,183245.000,4144.3533,N,06959.5355,W,2,09,1.00,12.7,M,-34.3,M,0000,0000*67 
225.745         GPS_NMEA_FROM_GPS    iGPS            $GPGGA,183246.000,4144.3532,N,06959.5358,W,2,09,1.00,12.8,M,-34.3,M,0000,0000*67 
226.748         GPS_NMEA_FROM_GPS    iGPS            $GPGGA,183247.000,4144.3531,N,06959.5360,W,2,09,1.00,12.9,M,-34.3,M,0000,0000*6F 
227.751         GPS_NMEA_FROM_GPS    iGPS            $GPGGA,183248.000,4144.3530,N,06959.5362,W,2,09,1.02,12.8,M,-34.3,M,0000,0000*60 
228.753         GPS_NMEA_FROM_GPS    iGPS            $GPGGA,183249.000,4144.3529,N,06959.5364,W,2,09,1.00,12.8,M,-34.3,M,0000,0000*6D 
229.756         GPS_NMEA_FROM_GPS    iGPS            $GPGGA,183250.000,4144.3528,N,06959.5366,W,2,09,1.00,12.8,M,-34.3,M,0000,0000*66 
230.759         GPS_NMEA_FROM_GPS    iGPS            $GPRMC,183251.000,A,4144.3528,N,06959.5368,W,0.62,246.03,270321,,,D*75 
231.761         GPS_NMEA_FROM_GPS    iGPS            $GPGGA,183252.000,4144.3528,N,06959.5371,W,2,09,1.02,12.6,M,-34.3,M,0000,0000*6E 
232.765         GPS_NMEA_FROM_GPS    iGPS            $GPGGA,183253.000,4144.3528,N,06959.5372,W,2,09,1.02,12.5,M,-34.3,M,0000,0000*6F 
233.767         GPS_NMEA_FROM_GPS    iGPS            $GPGGA,183254.000,4144.3528,N,06959.5374,W,2,09,1.02,12.4,M,-34.3,M,0000,0000*6F 
234.770         GPS_NMEA_FROM_GPS    iGPS            $GPRMC,183255.000,A,4144.3529,N,06959.5376,W,0.58,273.79,270321,,,D*7D 
235.773         GPS_NMEA_FROM_GPS    iGPS            $GPRMC,183256.000,A,4144.3530,N,06959.5378,W,0.60,282.19,270321,,,D*7B 
236.775         GPS_NMEA_FROM_GPS    iGPS            $GPRMC,183257.000,A,4144.3531,N,06959.5379,W,0.59,291.40,270321,,,D*7E 
237.677         GPS_NMEA_FROM_GPS    iGPS            $GPGGA,183258.000,4144.3532,N,06959.5380,W,2,09,1.02,11.8,M,-34.3,M,0000,0000*6C 
238.780         GPS_NMEA_FROM_GPS    iGPS            $GPGGA,183259.000,4144.3533,N,06959.5381,W,2,09,1.00,11.8,M,-34.3,M,0000,0000*6F 
239.682         GPS_NMEA_FROM_GPS    iGPS            $GPGGA,183300.000,4144.3534,N,06959.5382,W,2,09,1.00,11.7,M,-34.3,M,0000,0000*69 
240.685         GPS_NMEA_FROM_GPS    iGPS            $GPGGA,183301.000,4144.3536,N,06959.5382,W,2,09,1.02,11.7,M,-34.3,M,0000,0000*68 
241.787         GPS_NMEA_FROM_GPS    iGPS            $GPGGA,183302.000,4144.3537,N,06959.5383,W,2,09,1.00,11.7,M,-34.3,M,0000,0000*69 
242.790         GPS_NMEA_FROM_GPS    iGPS            $GPGGA,183303.000,4144.3538,N,06959.5383,W,2,09,1.00,11.8,M,-34.3,M,0000,0000*68 
243.793         GPS_NMEA_FROM_GPS    iGPS            $GPGGA,183304.000,4144.3539,N,06959.5384,W,2,09,1.02,11.7,M,-34.3,M,0000,0000*64 
244.796         GPS_NMEA_FROM_GPS    iGPS            $GPGGA,183305.000,4144.3540,N,06959.5385,W,2,09,1.00,11.7,M,-34.3,M,0000,0000*68 
245.698         GPS_NMEA_FROM_GPS    iGPS            $GPGGA,183306.000,4144.3542,N,06959.5386,W,2,09,1.00,11.7,M,-34.3,M,0000,0000*6A 
246.701         GPS_NMEA_FROM_GPS    iGPS            $GPGGA,183307.000,4144.3543,N,06959.5388,W,2,09,1.02,11.6,M,-34.3,M,0000,0000*67 
247.703         GPS_NMEA_FROM_GPS    iGPS            $GPGGA,183308.000,4144.3545,N,06959.5389,W,2,09,1.00,11.6,M,-34.3,M,0000,0000*6D 
248.706         GPS_NMEA_FROM_GPS    iGPS            $GPGGA,183309.000,4144.3546,N,06959.5391,W,2,09,1.00,11.6,M,-34.3,M,0000,0000*66 
249.708         GPS_NMEA_FROM_GPS    iGPS            $GPGGA,183310.000,4144.3548,N,06959.5393,W,2,09,1.02,11.6,M,-34.3,M,0000,0000*60 
250.812         GPS_NMEA_FROM_GPS    iGPS            $GPRMC,183311.000,A,4144.3550,N,06959.5395,W,0.74,318.83,270321,,,D*78 
251.714         GPS_NMEA_FROM_GPS    iGPS            $GPGGA,183312.000,4144.3551,N,06959.5397,W,2,09,1.00,11.4,M,-34.3,M,0000,0000*6E 
252.717         GPS_NMEA_FROM_GPS    iGPS            $GPGGA,183313.000,4144.3552,N,06959.5400,W,2,09,1.02,11.3,M,-34.3,M,0000,0000*60 
253.719         GPS_NMEA_FROM_GPS    iGPS            $GPGGA,183314.000,4144.3553,N,06959.5402,W,2,09,1.00,11.0,M,-34.3,M,0000,0000*65 
254.721         GPS_NMEA_FROM_GPS    iGPS            $GPGGA,183315.000,4144.3555,N,06959.5405,W,2,09,1.00,10.8,M,-34.3,M,0000,0000*6C 
255.723         GPS_NMEA_FROM_GPS    iGPS            $GPGGA,183316.000,4144.3556,N,06959.5407,W,2,09,1.00,10.7,M,-34.3,M,0000,0000*61 
256.725         GPS_NMEA_FROM_GPS    iGPS            $GPGGA,183317.000,4144.3558,N,06959.5409,W,2,09,1.00,10.7,M,-34.3,M,0000,0000*60 
257.728         GPS_NMEA_FROM_GPS    iGPS            $GPGGA,183318.000,4144.3560,N,06959.5410,W,2,09,1.02,10.7,M,-34.3,M,0000,0000*6E 
258.730         GPS_NMEA_FROM_GPS    iGPS            $GPGGA,183319.000,4144.3562,N,06959.5411,W,2,09,1.00,10.7,M,-34.3,M,0000,0000*6E 
259.738         GPS_NMEA_FROM_GPS    iGPS            $GPGGA,183320.000,4144.3564,N,06959.5412,W,2,09,1.00,10.7,M,-34.3,M,0000,0000*61 
260.740         GPS_NMEA_FROM_GPS    iGPS            $GPGGA,183321.000,4144.3566,N,06959.5412,W,2,09,1.00,10.7,M,-34.3,M,0000,0000*62 
261.742         GPS_NMEA_FROM_GPS    iGPS            $GPGGA,183322.000,4144.3567,N,06959.5413,W,2,09,1.00,10.7,M,-34.3,M,0000,0000*61 
262.744         GPS_NMEA_FROM_GPS    iGPS            $GPGGA,183323.000,4144.3569,N,06959.5413,W,2,09,1.00,10.7,M,-34.3,M,0000,0000*6E 
263.747         GPS_NMEA_FROM_GPS    iGPS            $GPGGA,183324.000,4144.3570,N,06959.5414,W,2,09,1.00,10.7,M,-34.3,M,0000,0000*66 
264.749         GPS_NMEA_FROM_GPS    iGPS            $GPGGA,183325.000,4144.3572,N,06959.5414,W,2,09,1.00,10.7,M,-34.3,M,0000,0000*65 
265.751         GPS_NMEA_FROM_GPS    iGPS            $GPGGA,183326.000,4144.3573,N,06959.5415,W,2,09,1.02,10.7,M,-34.3,M,0000,0000*64 
266.754         GPS_NMEA_FROM_GPS    iGPS            $GPGGA,183327.000,4144.3575,N,06959.5416,W,2,09,1.00,10.8,M,-34.3,M,0000,0000*6D 
267.756         GPS_NMEA_FROM_GPS    iGPS            $GPRMC,183328.000,A,4144.3576,N,06959.5417,W,0.76,335.37,270321,,,D*79 
268.758         GPS_NMEA_FROM_GPS    iGPS            $GPGGA,183329.000,4144.3578,N,06959.5418,W,2,09,1.00,10.8,M,-34.3,M,0000,0000*60 
269.760         GPS_NMEA_FROM_GPS    iGPS            $GPGGA,183330.000,4144.3580,N,06959.5420,W,2,09,1.00,10.8,M,-34.3,M,0000,0000*64 
270.763         GPS_NMEA_FROM_GPS    iGPS            $GPRMC,183331.000,A,4144.3581,N,06959.5421,W,0.84,333.42,270321,,,D*75 
271.765         GPS_NMEA_FROM_GPS    iGPS            $GPGGA,183332.000,4144.3583,N,06959.5423,W,2,09,1.00,10.8,M,-34.3,M,0000,0000*66 
272.767         GPS_NMEA_FROM_GPS    iGPS            $GPGGA,183333.000,4144.3585,N,06959.5425,W,2,09,1.00,10.7,M,-34.3,M,0000,0000*68 
273.769         GPS_NMEA_FROM_GPS    iGPS            $GPGGA,183334.000,4144.3587,N,06959.5427,W,2,09,1.00,10.7,M,-34.3,M,0000,0000*6F 
274.771         GPS_NMEA_FROM_GPS    iGPS            $GPGGA,183335.000,4144.3588,N,06959.5429,W,2,09,1.00,10.7,M,-34.3,M,0000,0000*6F 
275.773         GPS_NMEA_FROM_GPS    iGPS            $GPGGA,183336.000,4144.3590,N,06959.5431,W,2,09,1.00,10.6,M,-34.3,M,0000,0000*6D 
276.676         GPS_NMEA_FROM_GPS    iGPS            $GPGGA,183337.000,4144.3591,N,06959.5432,W,2,09,1.00,10.6,M,-34.3,M,0000,0000*6E 
277.678         GPS_NMEA_FROM_GPS    iGPS            $GPGGA,183338.000,4144.3593,N,06959.5434,W,2,09,1.00,10.6,M,-34.3,M,0000,0000*65 
278.680         GPS_NMEA_FROM_GPS    iGPS            $GPGGA,183339.000,4144.3595,N,06959.5435,W,2,09,1.02,10.7,M,-34.3,M,0000,0000*60 
279.682         GPS_NMEA_FROM_GPS    iGPS            $GPGGA,183340.000,4144.3597,N,06959.5436,W,2,09,1.02,10.7,M,-34.3,M,0000,0000*6F 
280.684         GPS_NMEA_FROM_GPS    iGPS            $GPGGA,183341.000,4144.3599,N,06959.5437,W,2,09,1.00,10.8,M,-34.3,M,0000,0000*6C 
281.786         GPS_NMEA_FROM_GPS    iGPS            $GPGGA,183342.000,4144.3601,N,06959.5438,W,2,09,1.00,10.8,M,-34.3,M,0000,0000*62 
282.689         GPS_NMEA_FROM_GPS    iGPS            $GPGGA,183343.000,4144.3603,N,06959.5438,W,2,09,1.00,10.9,M,-34.3,M,0000,0000*60 
283.791         GPS_NMEA_FROM_GPS    iGPS            $GPRMC,183344.000,A,4144.3605,N,06959.5439,W,0.79,339.84,270321,,,D*73 
284.793         GPS_NMEA_FROM_GPS    iGPS            $GPGGA,183345.000,4144.3607,N,06959.5439,W,2,09,1.00,10.9,M,-34.3,M,0000,0000*63 
285.796         GPS_NMEA_FROM_GPS    iGPS            $GPGGA,183346.000,4144.3608,N,06959.5440,W,2,09,1.00,10.9,M,-34.3,M,0000,0000*61 
286.798         GPS_NMEA_FROM_GPS    iGPS            $GPRMC,183347.000,A,4144.3610,N,06959.5441,W,0.65,337.46,270321,,,D*76 
287.801         GPS_NMEA_FROM_GPS    iGPS            $GPRMC,183348.000,A,4144.3611,N,06959.5443,W,0.70,335.18,270321,,,D*77 
288.702         GPS_NMEA_FROM_GPS    iGPS            $GPGGA,183349.000,4144.3613,N,06959.5444,W,2,09,1.02,10.9,M,-34.3,M,0000,0000*62 
289.704         GPS_NMEA_FROM_GPS    iGPS            $GPGGA,183350.000,4144.3615,N,06959.5446,W,2,09,1.00,10.9,M,-34.3,M,0000,0000*6C 
290.806         GPS_NMEA_FROM_GPS    iGPS            $GPRMC,183351.000,A,4144.3617,N,06959.5448,W,0.79,327.74,270321,,,D*72 
291.708         GPS_NMEA_FROM_GPS    iGPS            $GPGGA,183352.000,4144.3618,N,06959.5450,W,2,09,1.02,10.8,M,-34.3,M,0000,0000*67 
292.811         GPS_NMEA_FROM_GPS    iGPS            $GPRMC,183353.000,A,4144.3620,N,06959.5452,W,0.80,327.56,270321,,,D*79 
293.712         GPS_NMEA_FROM_GPS    iGPS            $GPGGA,183354.000,4144.3622,N,06959.5454,W,2,09,1.00,10.8,M,-34.3,M,0000,0000*6E 
294.815         GPS_NMEA_FROM_GPS    iGPS            $GPRMC,183355.000,A,4144.3624,N,06959.5455,W,0.81,328.51,270321,,,D*75 
295.817         GPS_NMEA_FROM_GPS    iGPS            $GPRMC,183356.000,A,4144.3626,N,06959.5457,W,0.81,328.81,270321,,,D*7B 
296.718         GPS_NMEA_FROM_GPS    iGPS            $GPGGA,183357.000,4144.3627,N,06959.5459,W,2,09,1.00,10.7,M,-34.3,M,0000,0000*6A 
297.821         GPS_NMEA_FROM_GPS    iGPS            $GPRMC,183358.000,A,4144.3629,N,06959.5460,W,0.82,328.81,270321,,,D*7D 
298.722         GPS_NMEA_FROM_GPS    iGPS            $GPGGA,183359.000,4144.3631,N,06959.5462,W,2,09,1.00,10.7,M,-34.3,M,0000,0000*6B 
299.725         GPS_NMEA_FROM_GPS    iGPS            $GPRMC,183400.000,A,4144.3633,N,06959.5463,W,0.71,327.82,270321,,,D*7F 
300.726         GPS_NMEA_FROM_GPS    iGPS            $GPGGA,183401.000,4144.3634,N,06959.5465,W,2,09,1.02,10.5,M,-34.3,M,0000,0000*63 
301.729         GPS_NMEA_FROM_GPS    iGPS            $GPRMC,183402.000,A,4144.3635,N,06959.5466,W,0.61,325.69,270321,,,D*78 
302.731         GPS_NMEA_FROM_GPS    iGPS            $GPGGA,183403.000,4144.3636,N,06959.5467,W,2,09,1.02,10.4,M,-34.3,M,0000,0000*60 
303.733         GPS_NMEA_FROM_GPS    iGPS            $GPGGA,183404.000,4144.3637,N,06959.5469,W,2,09,1.02,10.2,M,-34.3,M,0000,0000*6E 
304.736         GPS_NMEA_FROM_GPS    iGPS            $GPGGA,183405.000,4144.3637,N,06959.5470,W,2,09,1.02,10.1,M,-34.3,M,0000,0000*64 
305.737         GPS_NMEA_FROM_GPS    iGPS            $GPGGA,183406.000,4144.3638,N,06959.5471,W,2,10,0.87,10.0,M,-34.3,M,0000,0000*6C 
306.840         GPS_NMEA_FROM_GPS    iGPS            $GPRMC,183407.000,A,4144.3638,N,06959.5473,W,0.43,308.02,270321,,,D*76 
307.741         GPS_NMEA_FROM_GPS    iGPS            $GPGGA,183408.000,4144.3639,N,06959.5474,W,2,10,0.87,9.8,M,-34.3,M,0000,0000*56 
308.745         GPS_NMEA_FROM_GPS    iGPS            $GPGGA,183409.000,4144.3639,N,06959.5476,W,2,09,1.02,9.7,M,-34.3,M,0000,0000*5E 
309.747         GPS_NMEA_FROM_GPS    iGPS            $GPRMC,183410.000,A,4144.3639,N,06959.5477,W,0.37,285.83,270321,,,D*7B 
310.649         GPS_NMEA_FROM_GPS    iGPS            $GPGGA,183411.000,4144.3638,N,06959.5479,W,2,09,1.02,9.6,M,-34.3,M,0000,0000*58 
311.751         GPS_NMEA_FROM_GPS    iGPS            $GPRMC,183412.000,A,4144.3638,N,06959.5480,W,0.43,260.68,270321,,,D*7D 
312.653         GPS_NMEA_FROM_GPS    iGPS            $GPGGA,183413.000,4144.3637,N,06959.5481,W,2,08,1.08,9.5,M,-34.3,M,0000,0000*5A 
313.755         GPS_NMEA_FROM_GPS    iGPS            $GPRMC,183414.000,A,4144.3636,N,06959.5482,W,0.48,232.02,270321,,,D*77 
314.657         GPS_NMEA_FROM_GPS    iGPS            $GPGGA,183415.000,4144.3635,N,06959.5482,W,2,09,1.00,9.3,M,-34.3,M,0000,0000*52 
315.660         GPS_NMEA_FROM_GPS    iGPS            $GPGGA,183416.000,4144.3633,N,06959.5483,W,2,08,1.08,9.3,M,-34.3,M,0000,0000*5F 
316.761         GPS_NMEA_FROM_GPS    iGPS            $GPGGA,183417.000,4144.3632,N,06959.5483,W,2,09,1.03,9.2,M,-34.3,M,0000,0000*54 
317.764         GPS_NMEA_FROM_GPS    iGPS            $GPRMC,183418.000,A,4144.3631,N,06959.5483,W,0.53,190.86,270321,,,D*70 
318.766         GPS_NMEA_FROM_GPS    iGPS            $GPRMC,183419.000,A,4144.3629,N,06959.5482,W,0.58,182.92,270321,,,D*74 
319.667         GPS_NMEA_FROM_GPS    iGPS            $GPGGA,183420.000,4144.3628,N,06959.5482,W,2,08,1.08,9.2,M,-34.3,M,0000,0000*50 
320.669         GPS_NMEA_FROM_GPS    iGPS            $GPGGA,183421.000,4144.3626,N,06959.5481,W,2,08,1.08,9.1,M,-34.3,M,0000,0000*5F 
321.671         GPS_NMEA_FROM_GPS    iGPS            $GPGGA,183422.000,4144.3624,N,06959.5480,W,2,08,1.08,9.0,M,-34.3,M,0000,0000*5E 
322.674         GPS_NMEA_FROM_GPS    iGPS            $GPGGA,183423.000,4144.3622,N,06959.5479,W,2,08,1.05,9.0,M,-34.3,M,0000,0000*52 
323.776         GPS_NMEA_FROM_GPS    iGPS            $GPRMC,183424.000,A,4144.3619,N,06959.5478,W,0.77,168.36,270321,,,D*7B 
324.678         GPS_NMEA_FROM_GPS    iGPS            $GPGGA,183425.000,4144.3617,N,06959.5477,W,2,08,1.08,8.8,M,-34.3,M,0000,0000*58 
325.780         GPS_NMEA_FROM_GPS    iGPS            $GPGGA,183426.000,4144.3615,N,06959.5476,W,2,09,1.00,8.7,M,-34.3,M,0000,0000*5E 
326.783         GPS_NMEA_FROM_GPS    iGPS            $GPRMC,183427.000,A,4144.3613,N,06959.5475,W,0.63,166.21,270321,,,D*72 
327.785         GPS_NMEA_FROM_GPS    iGPS            $GPRMC,183428.000,A,4144.3610,N,06959.5474,W,0.67,164.24,270321,,,D*7C 
328.787         GPS_NMEA_FROM_GPS    iGPS            $GPRMC,183429.000,A,4144.3608,N,06959.5473,W,0.69,162.19,270321,,,D*75 
329.789         GPS_NMEA_FROM_GPS    iGPS            $GPRMC,183430.000,A,4144.3606,N,06959.5472,W,0.71,160.18,270321,,,D*78 
330.691         GPS_NMEA_FROM_GPS    iGPS            $GPGGA,183431.000,4144.3604,N,06959.5471,W,2,08,1.05,8.6,M,-34.3,M,0000,0000*5A 
331.693         GPS_NMEA_FROM_GPS    iGPS            $GPGGA,183432.000,4144.3602,N,06959.5470,W,2,09,1.00,8.6,M,-34.3,M,0000,0000*5A 
332.797         GPS_NMEA_FROM_GPS    iGPS            $GPRMC,183433.000,A,4144.3600,N,06959.5469,W,0.72,151.99,270321,,,D*7F 
333.699         GPS_NMEA_FROM_GPS    iGPS            $GPGGA,183434.000,4144.3598,N,06959.5468,W,2,08,1.05,8.5,M,-34.3,M,0000,0000*52 
334.801         GPS_NMEA_FROM_GPS    iGPS            $GPRMC,183435.000,A,4144.3596,N,06959.5466,W,0.78,148.91,270321,,,D*70 
335.703         GPS_NMEA_FROM_GPS    iGPS            $GPGGA,183436.000,4144.3594,N,06959.5465,W,2,09,1.03,8.5,M,-34.3,M,0000,0000*56 
336.705         GPS_NMEA_FROM_GPS    iGPS            $GPGGA,183437.000,4144.3592,N,06959.5463,W,2,09,1.00,8.5,M,-34.3,M,0000,0000*54 
337.707         GPS_NMEA_FROM_GPS    iGPS            $GPGGA,183438.000,4144.3590,N,06959.5462,W,2,09,1.00,8.4,M,-34.3,M,0000,0000*59 
338.810         GPS_NMEA_FROM_GPS    iGPS            $GPRMC,183439.000,A,4144.3588,N,06959.5460,W,0.77,144.56,270321,,,D*7D 
339.812         GPS_NMEA_FROM_GPS    iGPS            $GPRMC,183440.000,A,4144.3587,N,06959.5458,W,0.75,142.36,270321,,,D*75 
340.714         GPS_NMEA_FROM_GPS    iGPS            $GPGGA,183441.000,4144.3585,N,06959.5456,W,2,09,1.00,8.3,M,-34.3,M,0000,0000*53 
341.716         GPS_NMEA_FROM_GPS    iGPS            $GPGGA,183442.000,4144.3584,N,06959.5454,W,2,09,1.03,8.4,M,-34.3,M,0000,0000*57 
342.718         GPS_NMEA_FROM_GPS    iGPS            $GPGGA,183443.000,4144.3582,N,06959.5453,W,2,09,1.00,8.4,M,-34.3,M,0000,0000*54 
343.720         GPS_NMEA_FROM_GPS    iGPS            $GPGGA,183444.000,4144.3580,N,06959.5452,W,2,08,1.05,8.5,M,-34.3,M,0000,0000*55 
344.722         GPS_NMEA_FROM_GPS    iGPS            $GPGGA,183445.000,4144.3578,N,06959.5450,W,2,09,1.03,8.5,M,-34.3,M,0000,0000*56 
345.724         GPS_NMEA_FROM_GPS    iGPS            $GPGGA,183446.000,4144.3576,N,06959.5449,W,2,09,1.00,8.5,M,-34.3,M,0000,0000*50 
346.727         GPS_NMEA_FROM_GPS    iGPS            $GPGGA,183447.000,4144.3574,N,06959.5448,W,2,08,1.05,8.5,M,-34.3,M,0000,0000*56 
347.729         GPS_NMEA_FROM_GPS    iGPS            $GPGGA,183448.000,4144.3572,N,06959.5446,W,2,09,1.00,8.5,M,-34.3,M,0000,0000*55 
348.731         GPS_NMEA_FROM_GPS    iGPS            $GPGGA,183449.000,4144.3570,N,06959.5445,W,2,08,1.05,8.5,M,-34.3,M,0000,0000*51 
349.733         GPS_NMEA_FROM_GPS    iGPS            $GPGGA,183450.000,4144.3568,N,06959.5443,W,2,09,1.03,8.5,M,-34.3,M,0000,0000*51 
350.735         GPS_NMEA_FROM_GPS    iGPS            $GPGGA,183451.000,4144.3566,N,06959.5441,W,2,08,1.05,8.6,M,-34.3,M,0000,0000*58 
351.738         GPS_NMEA_FROM_GPS    iGPS            $GPRMC,183452.000,A,4144.3565,N,06959.5440,W,0.73,142.13,270321,,,D*72 
352.740         GPS_NMEA_FROM_GPS    iGPS            $GPRMC,183453.000,A,4144.3563,N,06959.5438,W,0.72,140.58,270321,,,D*76 
353.742         GPS_NMEA_FROM_GPS    iGPS            $GPGGA,183454.000,4144.3562,N,06959.5436,W,2,09,1.01,8.5,M,-34.3,M,0000,0000*5F 
354.744         GPS_NMEA_FROM_GPS    iGPS            $GPGGA,183455.000,4144.3561,N,06959.5433,W,2,08,1.05,8.4,M,-34.3,M,0000,0000*5C 
355.746         GPS_NMEA_FROM_GPS    iGPS            $GPGGA,183456.000,4144.3560,N,06959.5431,W,2,08,1.09,8.3,M,-34.3,M,0000,0000*57 
356.748         GPS_NMEA_FROM_GPS    iGPS            $GPGGA,183457.000,4144.3558,N,06959.5429,W,2,08,1.05,8.3,M,-34.3,M,0000,0000*58 
357.750         GPS_NMEA_FROM_GPS    iGPS            $GPRMC,183458.000,A,4144.3556,N,06959.5428,W,0.76,136.81,270321,,,D*7B 
358.752         GPS_NMEA_FROM_GPS    iGPS            $GPGGA,183459.000,4144.3554,N,06959.5426,W,2,09,1.03,8.3,M,-34.3,M,0000,0000*52 
359.754         GPS_NMEA_FROM_GPS    iGPS            $GPGGA,183500.000,4144.3552,N,06959.5424,W,2,08,1.05,8.4,M,-34.3,M,0000,0000*5B 
360.756         GPS_NMEA_FROM_GPS    iGPS            $GPGGA,183501.000,4144.3550,N,06959.5423,W,2,08,1.05,8.4,M,-34.3,M,0000,0000*5F 
361.659         GPS_NMEA_FROM_GPS    iGPS            $GPGGA,183502.000,4144.3548,N,06959.5421,W,2,08,1.05,8.4,M,-34.3,M,0000,0000*57 
362.762         GPS_NMEA_FROM_GPS    iGPS            $GPRMC,183503.000,A,4144.3546,N,06959.5419,W,0.83,143.10,270321,,,D*77 
363.664         GPS_NMEA_FROM_GPS    iGPS            $GPGGA,183504.000,4144.3544,N,06959.5418,W,2,08,1.05,8.3,M,-34.3,M,0000,0000*50 
364.666         GPS_NMEA_FROM_GPS    iGPS            $GPGGA,183505.000,4144.3543,N,06959.5416,W,2,08,1.06,8.2,M,-34.3,M,0000,0000*5A 
365.668         GPS_NMEA_FROM_GPS    iGPS            $GPGGA,183506.000,4144.3541,N,06959.5415,W,2,08,1.06,8.2,M,-34.3,M,0000,0000*58 
366.771         GPS_NMEA_FROM_GPS    iGPS            $GPGGA,183507.000,4144.3539,N,06959.5414,W,2,08,1.09,8.3,M,-34.3,M,0000,0000*59 
367.773         GPS_NMEA_FROM_GPS    iGPS            $GPGGA,183508.000,4144.3537,N,06959.5412,W,2,08,1.06,8.3,M,-34.3,M,0000,0000*51 
368.776         GPS_NMEA_FROM_GPS    iGPS            $GPRMC,183509.000,A,4144.3536,N,06959.5411,W,0.71,144.70,270321,,,D*7E 
369.778         GPS_NMEA_FROM_GPS    iGPS            $GPGGA,183510.000,4144.3535,N,06959.5409,W,2,08,1.09,8.4,M,-34.3,M,0000,0000*58 
370.780         GPS_NMEA_FROM_GPS    iGPS            $GPRMC,183511.000,A,4144.3533,N,06959.5407,W,0.78,139.00,270321,,,D*71 
371.782         GPS_NMEA_FROM_GPS    iGPS            $GPRMC,183512.000,A,4144.3532,N,06959.5405,W,0.79,135.77,270321,,,D*7C 
372.684         GPS_NMEA_FROM_GPS    iGPS            $GPGGA,183513.000,4144.3531,N,06959.5403,W,2,08,1.09,8.4,M,-34.3,M,0000,0000*55 
373.686         GPS_NMEA_FROM_GPS    iGPS            $GPGGA,183514.000,4144.3530,N,06959.5400,W,2,08,1.06,8.4,M,-34.3,M,0000,0000*5F 
374.788         GPS_NMEA_FROM_GPS    iGPS            $GPRMC,183515.000,A,4144.3528,N,06959.5398,W,0.74,130.33,270321,,,D*7B 
375.790         GPS_NMEA_FROM_GPS    iGPS            $GPRMC,183516.000,A,4144.3527,N,06959.5396,W,0.67,129.70,270321,,,D*74 
376.692         GPS_NMEA_FROM_GPS    iGPS            $GPGGA,183517.000,4144.3526,N,06959.5394,W,2,08,1.06,8.4,M,-34.3,M,0000,0000*51 
377.795         GPS_NMEA_FROM_GPS    iGPS            $GPRMC,183518.000,A,4144.3524,N,06959.5392,W,0.59,131.29,270321,,,D*75 
378.697         GPS_NMEA_FROM_GPS    iGPS            $GPGGA,183519.000,4144.3523,N,06959.5391,W,2,08,1.09,8.4,M,-34.3,M,0000,0000*50 
379.799         GPS_NMEA_FROM_GPS    iGPS            $GPRMC,183520.000,A,4144.3521,N,06959.5390,W,0.53,137.19,270321,,,D*76 
380.803         GPS_NMEA_FROM_GPS    iGPS            $GPRMC,183521.000,A,4144.3520,N,06959.5390,W,0.51,142.03,270321,,,D*7D 
381.804         GPS_NMEA_FROM_GPS    iGPS            $GPRMC,183522.000,A,4144.3518,N,06959.5391,W,0.53,149.54,270321,,,D*7F 
382.706         GPS_NMEA_FROM_GPS    iGPS            $GPGGA,183523.000,4144.3517,N,06959.5390,W,2,08,1.09,8.6,M,-34.3,M,0000,0000*5D 
383.709         GPS_NMEA_FROM_GPS    iGPS            $GPGGA,183524.000,4144.3515,N,06959.5391,W,2,08,1.09,8.6,M,-34.3,M,0000,0000*59 
384.710         GPS_NMEA_FROM_GPS    iGPS            $GPGGA,183525.000,4144.3514,N,06959.5392,W,2,08,1.09,8.5,M,-34.3,M,0000,0000*59 
385.712         GPS_NMEA_FROM_GPS    iGPS            $GPGGA,183526.000,4144.3513,N,06959.5394,W,2,08,1.06,8.5,M,-34.3,M,0000,0000*54 
386.714         GPS_NMEA_FROM_GPS    iGPS            $GPGGA,183527.000,4144.3512,N,06959.5395,W,2,08,1.06,8.5,M,-34.3,M,0000,0000*55 
387.717         GPS_NMEA_FROM_GPS    iGPS            $GPGGA,183528.000,4144.3512,N,06959.5397,W,2,08,1.09,8.5,M,-34.3,M,0000,0000*57 
388.719         GPS_NMEA_FROM_GPS    iGPS            $GPGGA,183529.000,4144.3511,N,06959.5399,W,2,08,1.06,8.5,M,-34.3,M,0000,0000*54 
389.721         GPS_NMEA_FROM_GPS    iGPS            $GPGGA,183530.000,4144.3511,N,06959.5401,W,2,08,1.06,8.6,M,-34.3,M,0000,0000*59 
390.723         GPS_NMEA_FROM_GPS    iGPS            $GPGGA,183531.000,4144.3510,N,06959.5403,W,2,08,1.09,8.6,M,-34.3,M,0000,0000*54 
391.725         GPS_NMEA_FROM_GPS    iGPS            $GPGGA,183532.000,4144.3509,N,06959.5405,W,2,08,1.09,8.6,M,-34.3,M,0000,0000*59 
392.727         GPS_NMEA_FROM_GPS    iGPS            $GPGGA,183533.000,4144.3508,N,06959.5407,W,2,08,1.06,8.7,M,-34.3,M,0000,0000*55 
393.729         GPS_NMEA_FROM_GPS    iGPS            $GPGGA,183534.000,4144.3506,N,06959.5409,W,2,08,1.06,8.8,M,-34.3,M,0000,0000*5D 
394.731         GPS_NMEA_FROM_GPS    iGPS            $GPGGA,183535.000,4144.3505,N,06959.5411,W,2,08,1.09,8.9,M,-34.3,M,0000,0000*58 
395.733         GPS_NMEA_FROM_GPS    iGPS            $GPGGA,183536.000,4144.3503,N,06959.5414,W,2,08,1.06,9.0,M,-34.3,M,0000,0000*5F 
396.736         GPS_NMEA_FROM_GPS    iGPS            $GPGGA,183537.000,4144.3501,N,06959.5416,W,2,08,1.06,9.1,M,-34.3,M,0000,0000*5F 
397.738         GPS_NMEA_FROM_GPS    iGPS            $GPRMC,183538.000,A,4144.3500,N,06959.5418,W,0.76,223.33,270321,,,D*72 
398.740         GPS_NMEA_FROM_GPS    iGPS            $GPGGA,183539.000,4144.3498,N,06959.5420,W,2,08,1.06,9.4,M,-34.3,M,0000,0000*50 
399.742         GPS_NMEA_FROM_GPS    iGPS            $GPRMC,183540.000,A,4144.3497,N,06959.5423,W,0.78,225.48,270321,,,D*7E 
400.745         GPS_NMEA_FROM_GPS    iGPS            $GPGGA,183541.000,4144.3496,N,06959.5425,W,2,08,1.10,9.6,M,-34.3,M,0000,0000*51 
401.747         GPS_NMEA_FROM_GPS    iGPS            $GPGGA,183542.000,4144.3495,N,06959.5428,W,2,08,1.06,9.7,M,-34.3,M,0000,0000*5A 
402.749         GPS_NMEA_FROM_GPS    iGPS            $GPRMC,183543.000,A,4144.3494,N,06959.5430,W,0.79,230.92,270321,,,D*7E 
403.751         GPS_NMEA_FROM_GPS    iGPS            $GPGGA,183544.000,4144.3493,N,06959.5433,W,2,08,1.10,9.7,M,-34.3,M,0000,0000*57 
404.754         GPS_NMEA_FROM_GPS    iGPS            $GPRMC,183545.000,A,4144.3493,N,06959.5435,W,0.80,234.03,270321,,,D*70 
405.755         GPS_NMEA_FROM_GPS    iGPS            $GPRMC,183546.000,A,4144.3492,N,06959.5437,W,0.81,235.56,270321,,,D*70 
406.658         GPS_NMEA_FROM_GPS    iGPS            $GPGGA,183547.000,4144.3491,N,06959.5440,W,2,08,1.06,9.5,M,-34.3,M,0000,0000*57 
407.660         GPS_NMEA_FROM_GPS    iGPS            $GPGGA,183548.000,4144.3490,N,06959.5442,W,2,08,1.06,9.5,M,-34.3,M,0000,0000*5B 
408.762         GPS_NMEA_FROM_GPS    iGPS            $GPGGA,183549.000,4144.3489,N,06959.5445,W,2,08,1.06,9.5,M,-34.3,M,0000,0000*55 
409.664         GPS_NMEA_FROM_GPS    iGPS            $GPGGA,183550.000,4144.3489,N,06959.5448,W,2,08,1.06,9.4,M,-34.3,M,0000,0000*51 
410.767         GPS_NMEA_FROM_GPS    iGPS            $GPGGA,183551.000,4144.3488,N,06959.5450,W,2,08,1.06,9.4,M,-34.3,M,0000,0000*58 
411.769         GPS_NMEA_FROM_GPS    iGPS            $GPRMC,183552.000,A,4144.3487,N,06959.5453,W,0.79,243.64,270321,,,D*74 
412.772         GPS_NMEA_FROM_GPS    iGPS            $GPGGA,183553.000,4144.3487,N,06959.5455,W,2,08,1.06,9.3,M,-34.3,M,0000,0000*57 
413.774         GPS_NMEA_FROM_GPS    iGPS            $GPGGA,183554.000,4144.3486,N,06959.5457,W,2,08,1.06,9.3,M,-34.3,M,0000,0000*53 
414.776         GPS_NMEA_FROM_GPS    iGPS            $GPGGA,183555.000,4144.3485,N,06959.5459,W,2,08,1.06,9.3,M,-34.3,M,0000,0000*5F 
415.678         GPS_NMEA_FROM_GPS    iGPS            $GPGGA,183556.000,4144.3485,N,06959.5462,W,2,08,1.06,9.3,M,-34.3,M,0000,0000*54 
416.680         GPS_NMEA_FROM_GPS    iGPS            $GPGGA,183557.000,4144.3484,N,06959.5464,W,2,08,1.06,9.3,M,-34.3,M,0000,0000*52 
417.782         GPS_NMEA_FROM_GPS    iGPS            $GPGGA,183558.000,4144.3483,N,06959.5466,W,2,08,1.06,9.4,M,-34.3,M,0000,0000*5F 
418.684         GPS_NMEA_FROM_GPS    iGPS            $GPGGA,183559.000,4144.3482,N,06959.5469,W,2,08,1.06,9.4,M,-34.3,M,0000,0000*50 
419.787         GPS_NMEA_FROM_GPS    iGPS            $GPRMC,183600.000,A,4144.3481,N,06959.5472,W,0.89,240.84,270321,,,D*77 
420.689         GPS_NMEA_FROM_GPS    iGPS            $GPGGA,183601.000,4144.3480,N,06959.5475,W,2,08,1.06,9.5,M,-34.3,M,0000,0000*50 
421.691         GPS_NMEA_FROM_GPS    iGPS            $GPGGA,183602.000,4144.3479,N,06959.5477,W,2,08,1.06,9.6,M,-34.3,M,0000,0000*54 
422.793         GPS_NMEA_FROM_GPS    iGPS            $GPRMC,183603.000,A,4144.3478,N,06959.5480,W,0.83,242.18,270321,,,D*72 
423.795         GPS_NMEA_FROM_GPS    iGPS            $GPRMC,183604.000,A,4144.3477,N,06959.5483,W,0.79,243.51,270321,,,D*70 
424.797         GPS_NMEA_FROM_GPS    iGPS            $GPRMC,183605.000,A,4144.3476,N,06959.5486,W,0.78,244.40,270321,,,D*73 
425.699         GPS_NMEA_FROM_GPS    iGPS            $GPGGA,183606.000,4144.3476,N,06959.5489,W,2,08,1.06,9.7,M,-34.3,M,0000,0000*5F 
426.702         GPS_NMEA_FROM_GPS    iGPS            $GPGGA,183607.000,4144.3475,N,06959.5491,W,2,08,1.06,9.8,M,-34.3,M,0000,0000*5B 
427.704         GPS_NMEA_FROM_GPS    iGPS            $GPGGA,183608.000,4144.3474,N,06959.5494,W,2,08,1.06,9.8,M,-34.3,M,0000,0000*50 
428.706         GPS_NMEA_FROM_GPS    iGPS            $GPGGA,183609.000,4144.3474,N,06959.5496,W,2,08,1.06,9.8,M,-34.3,M,0000,0000*53 
429.708         GPS_NMEA_FROM_GPS    iGPS            $GPGGA,183610.000,4144.3473,N,06959.5499,W,2,08,1.06,9.9,M,-34.3,M,0000,0000*52 
430.711         GPS_NMEA_FROM_GPS    iGPS            $GPGGA,183611.000,4144.3472,N,06959.5502,W,2,08,1.06,10.0,M,-34.3,M,0000,0000*60 
431.713         GPS_NMEA_FROM_GPS    iGPS            $GPGGA,183612.000,4144.3471,N,06959.5505,W,2,08,1.06,10.1,M,-34.3,M,0000,0000*66 
432.718         GPS_NMEA_FROM_GPS    iGPS            $GPGGA,183613.000,4144.3470,N,06959.5507,W,2,08,1.06,10.3,M,-34.3,M,0000,0000*66 
433.721         GPS_NMEA_FROM_GPS    iGPS            $GPGGA,183614.000,4144.3468,N,06959.5510,W,2,08,1.06,10.4,M,-34.3,M,0000,0000*69 
434.723         GPS_NMEA_FROM_GPS    iGPS            $GPGGA,183615.000,4144.3468,N,06959.5513,W,2,08,1.06,10.5,M,-34.3,M,0000,0000*6A 
435.726         GPS_NMEA_FROM_GPS    iGPS            $GPGGA,183616.000,4144.3467,N,06959.5515,W,2,08,1.06,10.5,M,-34.3,M,0000,0000*60 
436.728         GPS_NMEA_FROM_GPS    iGPS            $GPGGA,183617.000,4144.3466,N,06959.5518,W,2,08,1.06,10.6,M,-34.3,M,0000,0000*6E 
437.731         GPS_NMEA_FROM_GPS    iGPS            $GPGGA,183618.000,4144.3465,N,06959.5520,W,2,08,1.06,10.6,M,-34.3,M,0000,0000*69 
438.733         GPS_NMEA_FROM_GPS    iGPS            $GPGGA,183619.000,4144.3464,N,06959.5523,W,2,08,1.06,10.6,M,-34.3,M,0000,0000*6A 
439.735         GPS_NMEA_FROM_GPS    iGPS            $GPGGA,183620.000,4144.3463,N,06959.5525,W,2,08,1.06,10.7,M,-34.3,M,0000,0000*60 
440.737         GPS_NMEA_FROM_GPS    iGPS            $GPGGA,183621.000,4144.3462,N,06959.5527,W,2,08,1.06,10.6,M,-34.3,M,0000,0000*63 
441.739         GPS_NMEA_FROM_GPS    iGPS            $GPGGA,183622.000,4144.3461,N,06959.5530,W,2,08,1.06,10.6,M,-34.3,M,0000,0000*65 
442.742         GPS_NMEA_FROM_GPS    iGPS            $GPGGA,183623.000,4144.3460,N,06959.5532,W,2,08,1.06,10.6,M,-34.3,M,0000,0000*67 
443.743         GPS_NMEA_FROM_GPS    iGPS            $GPGGA,183624.000,4144.3460,N,06959.5535,W,2,08,1.06,10.6,M,-34.3,M,0000,0000*67 
444.745         GPS_NMEA_FROM_GPS    iGPS            $GPGGA,183625.000,4144.3459,N,06959.5537,W,2,08,1.06,10.5,M,-34.3,M,0000,0000*6D 
445.747         GPS_NMEA_FROM_GPS    iGPS            $GPGGA,183626.000,4144.3458,N,06959.5540,W,2,08,1.06,10.5,M,-34.3,M,0000,0000*6F 
446.750         GPS_NMEA_FROM_GPS    iGPS            $GPGGA,183627.000,4144.3457,N,06959.5543,W,2,08,1.06,10.5,M,-34.3,M,0000,0000*62 
447.752         GPS_NMEA_FROM_GPS    iGPS            $GPGGA,183628.000,4144.3456,N,06959.5545,W,2,08,1.06,10.6,M,-34.3,M,0000,0000*69 
448.757         GPS_NMEA_FROM_GPS    iGPS            $GPRMC,183629.000,A,4144.3455,N,06959.5548,W,0.69,244.24,270321,,,D*7D 
