2.867           GPS_NMEA_FROM_GPS    iGPS            $GPGGA,201042.000,4144.3370,N,06959.5901,W,2,10,1.26,4.2,M,-34.3,M,0000,0000*5F 
3.869           GPS_NMEA_FROM_GPS    iGPS            $GPGGA,201043.000,4144.3370,N,06959.5901,W,2,11,1.01,4.2,M,-34.3,M,0000,0000*5A 
3.869           GPS_NMEA_FROM_GPS    iGPS            $GPGGA,201043.000,4144.3370,N,06959.5901,W,2,11,1.01,4.2,M,-34.3,M,0000,0000*5A 
4.871           GPS_NMEA_FROM_GPS    iGPS            $GPGGA,201044.000,4144.3370,N,06959.5901,W,2,11,1.01,4.2,M,-34.3,M,0000,0000*5D 
5.874           GPS_NMEA_FROM_GPS    iGPS            $GPGGA,201045.000,4144.3370,N,06959.5901,W,2,11,1.01,4.2,M,-34.3,M,0000,0000*5C 
6.977           GPS_NMEA_FROM_GPS    iGPS            $GPRMC,201046.000,A,4144.3370,N,06959.5901,W,0.03,96.35,290321,,,D*45 
7.879           GPS_NMEA_FROM_GPS    iGPS            $GPGGA,201047.000,4144.3370,N,06959.5901,W,2,11,1.01,4.2,M,-34.3,M,0000,0000*5E 
8.881           GPS_NMEA_FROM_GPS    iGPS            $GPGGA,201048.000,4144.3370,N,06959.5901,W,2,10,1.26,4.2,M,-34.3,M,0000,0000*55 
9.883           GPS_NMEA_FROM_GPS    iGPS            $GPGGA,201049.000,4144.3370,N,06959.5901,W,2,10,1.26,4.2,M,-34.3,M,0000,0000*54 
10.885          GPS_NMEA_FROM_GPS    iGPS            $GPGGA,201050.000,4144.3370,N,06959.5901,W,2,11,1.01,4.2,M,-34.3,M,0000,0000*58 
10.885          GPS_NMEA_FROM_GPS    iGPS            $GPGGA,201050.000,4144.3370,N,06959.5901,W,2,11,1.01,4.2,M,-34.3,M,0000,0000*58 
11.988          GPS_NMEA_FROM_GPS    iGPS            $GPRMC,201051.000,A,4144.3370,N,06959.5901,W,0.02,356.77,290321,,,D*7B 
12.891          GPS_NMEA_FROM_GPS    iGPS            $GPGGA,201052.000,4144.3370,N,06959.5901,W,2,11,1.01,4.2,M,-34.3,M,0000,0000*5A 
12.891          GPS_NMEA_FROM_GPS    iGPS            $GPGGA,201052.000,4144.3370,N,06959.5901,W,2,11,1.01,4.2,M,-34.3,M,0000,0000*5A 
13.894          GPS_NMEA_FROM_GPS    iGPS            $GPGGA,201053.000,4144.3370,N,06959.5901,W,2,11,1.01,4.2,M,-34.3,M,0000,0000*5B 
14.897          GPS_NMEA_FROM_GPS    iGPS            $GPGGA,201054.000,4144.3370,N,06959.5901,W,2,11,1.01,4.2,M,-34.3,M,0000,0000*5C 
15.899          GPS_NMEA_FROM_GPS    iGPS            $GPGGA,201055.000,4144.3370,N,06959.5901,W,2,11,1.01,4.2,M,-34.3,M,0000,0000*5D 
15.899          GPS_NMEA_FROM_GPS    iGPS            $GPGGA,201055.000,4144.3370,N,06959.5901,W,2,11,1.01,4.2,M,-34.3,M,0000,0000*5D 
16.902          GPS_NMEA_FROM_GPS    iGPS            $GPGGA,201056.000,4144.3370,N,06959.5901,W,2,11,1.01,4.2,M,-34.3,M,0000,0000*5E 
16.902          GPS_NMEA_FROM_GPS    iGPS            $GPGGA,201056.000,4144.3370,N,06959.5901,W,2,11,1.01,4.2,M,-34.3,M,0000,0000*5E 
17.904          GPS_NMEA_FROM_GPS    iGPS            $GPGGA,201057.000,4144.3370,N,06959.5901,W,2,11,1.01,4.2,M,-34.3,M,0000,0000*5F 
18.906          GPS_NMEA_FROM_GPS    iGPS            $GPGGA,201058.000,4144.3370,N,06959.5901,W,2,11,1.01,4.2,M,-34.3,M,0000,0000*50 
19.910          GPS_NMEA_FROM_GPS    iGPS            $GPGGA,201059.000,4144.3370,N,06959.5901,W,2,11,1.01,4.2,M,-34.3,M,0000,0000*51 
20.913          GPS_NMEA_FROM_GPS    iGPS            $GPGGA,201100.000,4144.3370,N,06959.5901,W,2,11,1.01,4.2,M,-34.3,M,0000,0000*5C 
22.416          GPS_NMEA_FROM_GPS    iGPS            $GPGGA,201101.000,4144.3370,N,06959.5901,W,2,11,1.01,4.2,M,-34.3,M,0000,0000*5D 
23.318          GPS_NMEA_FROM_GPS    iGPS            $GPGGA,201102.000,4144.3370,N,06959.5901,W,2,11,1.01,4.2,M,-34.3,M,0000,0000*5E 
24.321          GPS_NMEA_FROM_GPS    iGPS            $GPGGA,201103.000,4144.3370,N,06959.5901,W,2,10,1.26,4.2,M,-34.3,M,0000,0000*5B 
24.321          GPS_NMEA_FROM_GPS    iGPS            $GPGGA,201103.000,4144.3370,N,06959.5901,W,2,10,1.26,4.2,M,-34.3,M,0000,0000*5B 
25.225          GPS_NMEA_FROM_GPS    iGPS            $GPGGA,201104.000,4144.3370,N,06959.5901,W,2,10,1.26,4.2,M,-34.3,M,0000,0000*5C 
26.227          GPS_NMEA_FROM_GPS    iGPS            $GPGGA,201105.000,4144.3370,N,06959.5901,W,2,10,1.26,4.2,M,-34.3,M,0000,0000*5D 
27.331          GPS_NMEA_FROM_GPS    iGPS            $GPRMC,201106.000,A,4144.3370,N,06959.5901,W,0.04,27.89,290321,,,D*4A 
28.333          GPS_NMEA_FROM_GPS    iGPS            $GPGGA,201107.000,4144.3370,N,06959.5901,W,2,11,1.01,4.2,M,-34.3,M,0000,0000*5B 
29.336          GPS_NMEA_FROM_GPS    iGPS            $GPGGA,201108.000,4144.3370,N,06959.5901,W,2,11,1.01,4.2,M,-34.3,M,0000,0000*54 
30.441          GPS_NMEA_FROM_GPS    iGPS            $GPRMC,201109.000,A,4144.3370,N,06959.5901,W,0.03,42.07,290321,,,D*47 
31.444          GPS_NMEA_FROM_GPS    iGPS            $GPRMC,201110.000,A,4144.3370,N,06959.5901,W,0.04,36.55,290321,,,D*4C 
32.447          GPS_NMEA_FROM_GPS    iGPS            $GPRMC,201111.000,A,4144.3370,N,06959.5901,W,0.03,43.21,290321,,,D*4B 
33.350          GPS_NMEA_FROM_GPS    iGPS            $GPGGA,201112.000,4144.3370,N,06959.5901,W,2,11,1.01,4.2,M,-34.3,M,0000,0000*5F 
34.354          GPS_NMEA_FROM_GPS    iGPS            $GPRMC,201113.000,A,4144.3370,N,06959.5901,W,0.03,24.49,290321,,,D*46 
35.356          GPS_NMEA_FROM_GPS    iGPS            $GPRMC,201114.000,A,4144.3370,N,06959.5901,W,0.02,10.23,290321,,,D*4B 
36.359          GPS_NMEA_FROM_GPS    iGPS            $GPGGA,201115.000,4144.3370,N,06959.5901,W,2,11,1.01,4.2,M,-34.3,M,0000,0000*58 
37.361          GPS_NMEA_FROM_GPS    iGPS            $GPRMC,201116.000,A,4144.3370,N,06959.5901,W,0.03,47.57,290321,,,D*49 
38.365          GPS_NMEA_FROM_GPS    iGPS            $GPRMC,201117.000,A,4144.3371,N,06959.5901,W,0.03,57.08,290321,,,D*42 
39.267          GPS_NMEA_FROM_GPS    iGPS            $GPGGA,201118.000,4144.3371,N,06959.5901,W,2,11,1.01,4.2,M,-34.3,M,0000,0000*54 
40.270          GPS_NMEA_FROM_GPS    iGPS            $GPGGA,201119.000,4144.3371,N,06959.5901,W,2,11,1.01,4.2,M,-34.3,M,0000,0000*55 
41.373          GPS_NMEA_FROM_GPS    iGPS            $GPRMC,201120.000,A,4144.3371,N,06959.5901,W,0.03,61.87,290321,,,D*44 
42.275          GPS_NMEA_FROM_GPS    iGPS            $GPGGA,201121.000,4144.3371,N,06959.5901,W,2,11,1.01,4.2,M,-34.3,M,0000,0000*5E 
43.277          GPS_NMEA_FROM_GPS    iGPS            $GPGGA,201122.000,4144.3371,N,06959.5901,W,2,11,1.01,4.2,M,-34.3,M,0000,0000*5D 
44.280          GPS_NMEA_FROM_GPS    iGPS            $GPGGA,201123.000,4144.3371,N,06959.5901,W,2,11,1.01,4.2,M,-34.3,M,0000,0000*5C 
45.383          GPS_NMEA_FROM_GPS    iGPS            $GPRMC,201124.000,A,4144.3371,N,06959.5901,W,0.03,80.24,290321,,,D*46 
46.285          GPS_NMEA_FROM_GPS    iGPS            $GPGGA,201125.000,4144.3371,N,06959.5901,W,2,11,1.01,4.2,M,-34.3,M,0000,0000*5A 
47.288          GPS_NMEA_FROM_GPS    iGPS            $GPGGA,201126.000,4144.3371,N,06959.5901,W,2,11,1.01,4.1,M,-34.3,M,0000,0000*5A 
48.292          GPS_NMEA_FROM_GPS    iGPS            $GPGGA,201127.000,4144.3371,N,06959.5900,W,2,11,1.01,4.1,M,-34.3,M,0000,0000*5A 
49.294          GPS_NMEA_FROM_GPS    iGPS            $GPGGA,201128.000,4144.3371,N,06959.5900,W,2,11,1.01,4.1,M,-34.3,M,0000,0000*55 
50.297          GPS_NMEA_FROM_GPS    iGPS            $GPGGA,201129.000,4144.3371,N,06959.5900,W,2,11,1.02,4.2,M,-34.3,M,0000,0000*54 
51.299          GPS_NMEA_FROM_GPS    iGPS            $GPGGA,201130.000,4144.3371,N,06959.5900,W,2,11,1.01,4.2,M,-34.3,M,0000,0000*5F 
52.301          GPS_NMEA_FROM_GPS    iGPS            $GPGGA,201131.000,4144.3371,N,06959.5900,W,2,11,1.01,4.2,M,-34.3,M,0000,0000*5E 
53.304          GPS_NMEA_FROM_GPS    iGPS            $GPGGA,201132.000,4144.3371,N,06959.5900,W,2,11,1.02,4.2,M,-34.3,M,0000,0000*5E 
54.306          GPS_NMEA_FROM_GPS    iGPS            $GPGGA,201133.000,4144.3371,N,06959.5900,W,2,11,1.01,4.2,M,-34.3,M,0000,0000*5C 
55.309          GPS_NMEA_FROM_GPS    iGPS            $GPGGA,201134.000,4144.3371,N,06959.5900,W,2,11,1.01,4.2,M,-34.3,M,0000,0000*5B 
56.312          GPS_NMEA_FROM_GPS    iGPS            $GPRMC,201135.000,A,4144.3371,N,06959.5900,W,0.05,50.80,290321,,,D*42 
57.314          GPS_NMEA_FROM_GPS    iGPS            $GPGGA,201136.000,4144.3371,N,06959.5900,W,2,11,1.01,4.1,M,-34.3,M,0000,0000*5A 
58.318          GPS_NMEA_FROM_GPS    iGPS            $GPGGA,201137.000,4144.3371,N,06959.5900,W,2,11,1.01,4.1,M,-34.3,M,0000,0000*5B 
59.320          GPS_NMEA_FROM_GPS    iGPS            $GPGGA,201138.000,4144.3371,N,06959.5900,W,2,11,1.02,4.1,M,-34.3,M,0000,0000*57 
60.323          GPS_NMEA_FROM_GPS    iGPS            $GPGGA,201139.000,4144.3371,N,06959.5900,W,2,11,1.02,4.1,M,-34.3,M,0000,0000*56 
61.326          GPS_NMEA_FROM_GPS    iGPS            $GPGGA,201140.000,4144.3371,N,06959.5900,W,2,11,1.01,4.1,M,-34.3,M,0000,0000*5B 
62.429          GPS_NMEA_FROM_GPS    iGPS            $GPRMC,201141.000,A,4144.3371,N,06959.5900,W,0.03,62.82,290321,,,D*44 
63.230          GPS_NMEA_FROM_GPS    iGPS            $GPGGA,201142.000,4144.3371,N,06959.5900,W,2,11,1.01,4.1,M,-34.3,M,0000,0000*59 
64.333          GPS_NMEA_FROM_GPS    iGPS            $GPRMC,201143.000,A,4144.3371,N,06959.5900,W,0.03,44.64,290321,,,D*4A 
65.235          GPS_NMEA_FROM_GPS    iGPS            $GPGGA,201144.000,4144.3371,N,06959.5900,W,2,11,1.01,4.1,M,-34.3,M,0000,0000*5F 
66.338          GPS_NMEA_FROM_GPS    iGPS            $GPGGA,201145.000,4144.3371,N,06959.5900,W,2,11,1.02,4.1,M,-34.3,M,0000,0000*5D 
67.341          GPS_NMEA_FROM_GPS    iGPS            $GPRMC,201146.000,A,4144.3371,N,06959.5900,W,0.02,48.30,290321,,,D*43 
68.244          GPS_NMEA_FROM_GPS    iGPS            $GPGGA,201147.000,4144.3371,N,06959.5900,W,2,11,1.02,4.1,M,-34.3,M,0000,0000*5F 
69.347          GPS_NMEA_FROM_GPS    iGPS            $GPGGA,201148.000,4144.3371,N,06959.5900,W,2,11,1.02,4.1,M,-34.3,M,0000,0000*50 
70.350          GPS_NMEA_FROM_GPS    iGPS            $GPRMC,201149.000,A,4144.3371,N,06959.5900,W,0.03,22.25,290321,,,D*45 
71.353          GPS_NMEA_FROM_GPS    iGPS            $GPGGA,201150.000,4144.3371,N,06959.5900,W,2,11,1.02,4.1,M,-34.3,M,0000,0000*59 
72.356          GPS_NMEA_FROM_GPS    iGPS            $GPRMC,201151.000,A,4144.3371,N,06959.5900,W,0.03,48.12,290321,,,D*44 
73.357          GPS_NMEA_FROM_GPS    iGPS            $GPGGA,201152.000,4144.3371,N,06959.5900,W,2,11,1.02,4.1,M,-34.3,M,0000,0000*5B 
74.260          GPS_NMEA_FROM_GPS    iGPS            $GPGGA,201153.000,4144.3371,N,06959.5900,W,2,11,1.02,4.1,M,-34.3,M,0000,0000*5A 
75.263          GPS_NMEA_FROM_GPS    iGPS            $GPGGA,201154.000,4144.3371,N,06959.5900,W,2,11,1.02,4.1,M,-34.3,M,0000,0000*5D 
76.366          GPS_NMEA_FROM_GPS    iGPS            $GPGGA,201155.000,4144.3371,N,06959.5900,W,2,11,1.02,4.1,M,-34.3,M,0000,0000*5C 
77.369          GPS_NMEA_FROM_GPS    iGPS            $GPGGA,201156.000,4144.3371,N,06959.5900,W,2,11,1.02,4.1,M,-34.3,M,0000,0000*5F 
78.371          GPS_NMEA_FROM_GPS    iGPS            $GPGGA,201157.000,4144.3371,N,06959.5900,W,2,11,1.02,4.1,M,-34.3,M,0000,0000*5E 
79.374          GPS_NMEA_FROM_GPS    iGPS            $GPRMC,201158.000,A,4144.3371,N,06959.5900,W,0.02,40.34,290321,,,D*40 
80.377          GPS_NMEA_FROM_GPS    iGPS            $GPRMC,201159.000,A,4144.3371,N,06959.5899,W,0.02,339.91,290321,,,D*72 
81.279          GPS_NMEA_FROM_GPS    iGPS            $GPGGA,201200.000,4144.3371,N,06959.5899,W,2,11,1.02,4.1,M,-34.3,M,0000,0000*5E 
82.382          GPS_NMEA_FROM_GPS    iGPS            $GPRMC,201201.000,A,4144.3371,N,06959.5899,W,0.03,355.80,290321,,,D*77 
83.284          GPS_NMEA_FROM_GPS    iGPS            $GPGGA,201202.000,4144.3371,N,06959.5899,W,2,11,1.02,4.1,M,-34.3,M,0000,0000*5C 
84.387          GPS_NMEA_FROM_GPS    iGPS            $GPRMC,201203.000,A,4144.3371,N,06959.5899,W,0.03,11.85,290321,,,D*43 
85.389          GPS_NMEA_FROM_GPS    iGPS            $GPRMC,201204.000,A,4144.3371,N,06959.5899,W,0.02,33.97,290321,,,D*46 
86.392          GPS_NMEA_FROM_GPS    iGPS            $GPGGA,201205.000,4144.3371,N,06959.5899,W,2,11,1.02,4.1,M,-34.3,M,0000,0000*5B 
87.395          GPS_NMEA_FROM_GPS    iGPS            $GPGGA,201206.000,4144.3371,N,06959.5899,W,2,11,1.02,4.1,M,-34.3,M,0000,0000*58 
88.398          GPS_NMEA_FROM_GPS    iGPS            $GPRMC,201207.000,A,4144.3371,N,06959.5899,W,0.03,51.92,290321,,,D*45 
89.300          GPS_NMEA_FROM_GPS    iGPS            $GPGGA,201208.000,4144.3371,N,06959.5899,W,2,11,1.02,4.1,M,-34.3,M,0000,0000*56 
90.305          GPS_NMEA_FROM_GPS    iGPS            $GPRMC,201209.000,A,4144.3371,N,06959.5899,W,0.02,45.23,290321,,,D*45 
91.307          GPS_NMEA_FROM_GPS    iGPS            $GPGGA,201210.000,4144.3371,N,06959.5899,W,2,11,1.02,4.1,M,-34.3,M,0000,0000*5F 
92.310          GPS_NMEA_FROM_GPS    iGPS            $GPGGA,201211.000,4144.3371,N,06959.5899,W,2,11,1.02,4.1,M,-34.3,M,0000,0000*5E 
93.413          GPS_NMEA_FROM_GPS    iGPS            $GPGGA,201212.000,4144.3371,N,06959.5899,W,2,11,1.02,4.1,M,-34.3,M,0000,0000*5D 
94.415          GPS_NMEA_FROM_GPS    iGPS            $GPGGA,201213.000,4144.3371,N,06959.5899,W,2,11,1.02,4.1,M,-34.3,M,0000,0000*5C 
95.318          GPS_NMEA_FROM_GPS    iGPS            $GPGGA,201214.000,4144.3371,N,06959.5899,W,2,11,1.02,4.1,M,-34.3,M,0000,0000*5B 
96.321          GPS_NMEA_FROM_GPS    iGPS            $GPGGA,201215.000,4144.3371,N,06959.5899,W,2,11,1.02,4.1,M,-34.3,M,0000,0000*5A 
97.323          GPS_NMEA_FROM_GPS    iGPS            $GPGGA,201216.000,4144.3371,N,06959.5899,W,2,11,1.02,4.1,M,-34.3,M,0000,0000*59 
98.426          GPS_NMEA_FROM_GPS    iGPS            $GPGGA,201217.000,4144.3372,N,06959.5899,W,2,11,1.02,4.1,M,-34.3,M,0000,0000*5B 
99.429          GPS_NMEA_FROM_GPS    iGPS            $GPGGA,201218.000,4144.3372,N,06959.5899,W,2,11,1.02,4.1,M,-34.3,M,0000,0000*54 
100.432         GPS_NMEA_FROM_GPS    iGPS            $GPRMC,201219.000,A,4144.3372,N,06959.5899,W,0.02,27.22,290321,,,D*42 
101.434         GPS_NMEA_FROM_GPS    iGPS            $GPRMC,201220.000,A,4144.3372,N,06959.5899,W,0.02,22.19,290321,,,D*45 
102.437         GPS_NMEA_FROM_GPS    iGPS            $GPRMC,201221.000,A,4144.3372,N,06959.5899,W,0.01,24.39,290321,,,D*43 
103.439         GPS_NMEA_FROM_GPS    iGPS            $GPGGA,201222.000,4144.3372,N,06959.5899,W,2,11,1.02,4.1,M,-34.3,M,0000,0000*5D 
104.442         GPS_NMEA_FROM_GPS    iGPS            $GPRMC,201223.000,A,4144.3372,N,06959.5899,W,0.02,14.51,290321,,,D*4F 
105.344         GPS_NMEA_FROM_GPS    iGPS            $GPGGA,201224.000,4144.3372,N,06959.5899,W,2,11,1.02,4.1,M,-34.3,M,0000,0000*5B 
106.347         GPS_NMEA_FROM_GPS    iGPS            $GPGGA,201225.000,4144.3372,N,06959.5899,W,2,11,1.02,4.1,M,-34.3,M,0000,0000*5A 
107.349         GPS_NMEA_FROM_GPS    iGPS            $GPGGA,201226.000,4144.3372,N,06959.5899,W,2,11,1.02,4.1,M,-34.3,M,0000,0000*59 
108.252         GPS_NMEA_FROM_GPS    iGPS            $GPGGA,201227.000,4144.3372,N,06959.5899,W,2,11,1.02,4.1,M,-34.3,M,0000,0000*58 
109.354         GPS_NMEA_FROM_GPS    iGPS            $GPGGA,201228.000,4144.3372,N,06959.5899,W,2,11,1.02,4.1,M,-34.3,M,0000,0000*57 
110.357         GPS_NMEA_FROM_GPS    iGPS            $GPGGA,201229.000,4144.3372,N,06959.5899,W,2,11,1.02,4.1,M,-34.3,M,0000,0000*56 
111.360         GPS_NMEA_FROM_GPS    iGPS            $GPGGA,201230.000,4144.3372,N,06959.5899,W,2,11,1.02,4.1,M,-34.3,M,0000,0000*5E 
112.362         GPS_NMEA_FROM_GPS    iGPS            $GPGGA,201231.000,4144.3372,N,06959.5899,W,2,11,1.02,4.1,M,-34.3,M,0000,0000*5F 
113.365         GPS_NMEA_FROM_GPS    iGPS            $GPGGA,201232.000,4144.3372,N,06959.5899,W,2,11,1.02,4.1,M,-34.3,M,0000,0000*5C 
114.368         GPS_NMEA_FROM_GPS    iGPS            $GPGGA,201233.000,4144.3372,N,06959.5899,W,2,11,1.02,4.0,M,-34.3,M,0000,0000*5C 
115.370         GPS_NMEA_FROM_GPS    iGPS            $GPGGA,201234.000,4144.3372,N,06959.5899,W,2,11,1.02,4.0,M,-34.3,M,0000,0000*5B 
116.373         GPS_NMEA_FROM_GPS    iGPS            $GPGGA,201235.000,4144.3372,N,06959.5899,W,2,11,1.02,4.0,M,-34.3,M,0000,0000*5A 
117.375         GPS_NMEA_FROM_GPS    iGPS            $GPGGA,201236.000,4144.3372,N,06959.5899,W,2,11,1.02,4.0,M,-34.3,M,0000,0000*59 
118.378         GPS_NMEA_FROM_GPS    iGPS            $GPGGA,201237.000,4144.3372,N,06959.5899,W,2,11,1.02,4.0,M,-34.3,M,0000,0000*58 
119.381         GPS_NMEA_FROM_GPS    iGPS            $GPGGA,201238.000,4144.3372,N,06959.5899,W,2,11,1.02,4.0,M,-34.3,M,0000,0000*57 
120.383         GPS_NMEA_FROM_GPS    iGPS            $GPGGA,201239.000,4144.3372,N,06959.5899,W,2,11,1.02,4.0,M,-34.3,M,0000,0000*56 
121.387         GPS_NMEA_FROM_GPS    iGPS            $GPGGA,201240.000,4144.3372,N,06959.5899,W,2,11,1.02,4.0,M,-34.3,M,0000,0000*58 
122.289         GPS_NMEA_FROM_GPS    iGPS            $GPGGA,201241.000,4144.3372,N,06959.5899,W,2,11,1.02,4.0,M,-34.3,M,0000,0000*59 
123.292         GPS_NMEA_FROM_GPS    iGPS            $GPGGA,201242.000,4144.3372,N,06959.5899,W,2,11,1.02,4.0,M,-34.3,M,0000,0000*5A 
124.294         GPS_NMEA_FROM_GPS    iGPS            $GPGGA,201243.000,4144.3372,N,06959.5899,W,2,11,1.02,4.0,M,-34.3,M,0000,0000*5B 
125.297         GPS_NMEA_FROM_GPS    iGPS            $GPGGA,201244.000,4144.3372,N,06959.5898,W,2,11,1.02,4.1,M,-34.3,M,0000,0000*5C 
126.300         GPS_NMEA_FROM_GPS    iGPS            $GPGGA,201245.000,4144.3372,N,06959.5898,W,2,11,1.02,4.1,M,-34.3,M,0000,0000*5D 
127.303         GPS_NMEA_FROM_GPS    iGPS            $GPGGA,201246.000,4144.3372,N,06959.5898,W,2,11,1.02,4.1,M,-34.3,M,0000,0000*5E 
128.305         GPS_NMEA_FROM_GPS    iGPS            $GPGGA,201247.000,4144.3372,N,06959.5898,W,2,11,1.02,4.1,M,-34.3,M,0000,0000*5F 
129.308         GPS_NMEA_FROM_GPS    iGPS            $GPGGA,201248.000,4144.3372,N,06959.5898,W,2,11,1.02,4.1,M,-34.3,M,0000,0000*50 
130.311         GPS_NMEA_FROM_GPS    iGPS            $GPGGA,201249.000,4144.3372,N,06959.5898,W,2,11,1.02,4.1,M,-34.3,M,0000,0000*51 
131.313         GPS_NMEA_FROM_GPS    iGPS            $GPRMC,201250.000,A,4144.3372,N,06959.5898,W,0.02,217.31,290321,,,D*7D 
132.318         GPS_NMEA_FROM_GPS    iGPS            $GPGGA,201251.000,4144.3372,N,06959.5898,W,2,11,1.02,4.1,M,-34.3,M,0000,0000*58 
133.321         GPS_NMEA_FROM_GPS    iGPS            $GPRMC,201252.000,A,4144.3372,N,06959.5898,W,0.01,216.94,290321,,,D*72 
134.424         GPS_NMEA_FROM_GPS    iGPS            $GPRMC,201253.000,A,4144.3372,N,06959.5898,W,0.01,184.41,290321,,,D*73 
135.326         GPS_NMEA_FROM_GPS    iGPS            $GPGGA,201254.000,4144.3372,N,06959.5898,W,2,11,1.02,4.1,M,-34.3,M,0000,0000*5D 
136.429         GPS_NMEA_FROM_GPS    iGPS            $GPGGA,201255.000,4144.3372,N,06959.5898,W,2,11,1.02,4.1,M,-34.3,M,0000,0000*5C 
137.331         GPS_NMEA_FROM_GPS    iGPS            $GPGGA,201256.000,4144.3372,N,06959.5898,W,2,11,1.02,4.1,M,-34.3,M,0000,0000*5F 
138.434         GPS_NMEA_FROM_GPS    iGPS            $GPGGA,201257.000,4144.3372,N,06959.5898,W,2,11,1.02,4.1,M,-34.3,M,0000,0000*5E 
139.336         GPS_NMEA_FROM_GPS    iGPS            $GPGGA,201258.000,4144.3372,N,06959.5898,W,2,11,1.02,4.1,M,-34.3,M,0000,0000*51 
140.439         GPS_NMEA_FROM_GPS    iGPS            $GPRMC,201259.000,A,4144.3372,N,06959.5898,W,0.05,351.62,290321,,,D*76 
141.341         GPS_NMEA_FROM_GPS    iGPS            $GPGGA,201300.000,4144.3372,N,06959.5898,W,2,11,1.02,4.1,M,-34.3,M,0000,0000*5D 
142.344         GPS_NMEA_FROM_GPS    iGPS            $GPGGA,201301.000,4144.3372,N,06959.5898,W,2,11,1.02,4.1,M,-34.3,M,0000,0000*5C 
143.346         GPS_NMEA_FROM_GPS    iGPS            $GPGGA,201302.000,4144.3372,N,06959.5898,W,2,11,1.02,4.1,M,-34.3,M,0000,0000*5F 
144.450         GPS_NMEA_FROM_GPS    iGPS            $GPRMC,201303.000,A,4144.3372,N,06959.5898,W,0.17,13.05,290321,,,D*4F 
145.352         GPS_NMEA_FROM_GPS    iGPS            $GPGGA,201304.000,4144.3373,N,06959.5898,W,2,11,1.02,4.1,M,-34.3,M,0000,0000*58 
146.355         GPS_NMEA_FROM_GPS    iGPS            $GPGGA,201305.000,4144.3373,N,06959.5898,W,2,11,1.02,4.1,M,-34.3,M,0000,0000*59 
147.358         GPS_NMEA_FROM_GPS    iGPS            $GPGGA,201306.000,4144.3373,N,06959.5898,W,2,11,1.02,4.1,M,-34.3,M,0000,0000*5A 
148.461         GPS_NMEA_FROM_GPS    iGPS            $GPRMC,201307.000,A,4144.3373,N,06959.5898,W,0.18,10.65,290321,,,D*40 
149.363         GPS_NMEA_FROM_GPS    iGPS            $GPRMC,201308.000,A,4144.3373,N,06959.5898,W,0.29,10.75,290321,,,D*4C 
150.365         GPS_NMEA_FROM_GPS    iGPS            $GPGGA,201309.000,4144.3374,N,06959.5897,W,2,11,1.02,4.1,M,-34.3,M,0000,0000*5D 
151.369         GPS_NMEA_FROM_GPS    iGPS            $GPRMC,201310.000,A,4144.3375,N,06959.5897,W,0.45,9.52,290321,,,D*7B 
152.271         GPS_NMEA_FROM_GPS    iGPS            $GPGGA,201311.000,4144.3376,N,06959.5897,W,2,11,1.02,4.1,M,-34.3,M,0000,0000*56 
153.274         GPS_NMEA_FROM_GPS    iGPS            $GPGGA,201312.000,4144.3378,N,06959.5897,W,2,11,1.02,4.1,M,-34.3,M,0000,0000*5B 
154.277         GPS_NMEA_FROM_GPS    iGPS            $GPGGA,201313.000,4144.3379,N,06959.5896,W,2,11,1.02,4.1,M,-34.3,M,0000,0000*5A 
155.278         GPS_NMEA_FROM_GPS    iGPS            $GPGGA,201314.000,4144.3381,N,06959.5896,W,2,11,1.02,4.1,M,-34.3,M,0000,0000*5A 
156.281         GPS_NMEA_FROM_GPS    iGPS            $GPGGA,201315.000,4144.3383,N,06959.5894,W,2,11,1.02,4.3,M,-34.3,M,0000,0000*59 
157.384         GPS_NMEA_FROM_GPS    iGPS            $GPGGA,201316.000,4144.3386,N,06959.5893,W,2,11,1.02,4.4,M,-34.3,M,0000,0000*5F 
158.387         GPS_NMEA_FROM_GPS    iGPS            $GPGGA,201317.000,4144.3389,N,06959.5891,W,2,11,1.02,4.4,M,-34.3,M,0000,0000*53 
159.390         GPS_NMEA_FROM_GPS    iGPS            $GPRMC,201318.000,A,4144.3392,N,06959.5891,W,0.77,3.04,290321,,,D*74 
160.392         GPS_NMEA_FROM_GPS    iGPS            $GPGGA,201319.000,4144.3394,N,06959.5890,W,2,11,1.02,4.4,M,-34.3,M,0000,0000*50 
161.395         GPS_NMEA_FROM_GPS    iGPS            $GPGGA,201320.000,4144.3397,N,06959.5889,W,2,11,1.02,4.5,M,-34.3,M,0000,0000*50 
162.398         GPS_NMEA_FROM_GPS    iGPS            $GPRMC,201321.000,A,4144.3399,N,06959.5887,W,0.76,359.73,290321,,,D*7F 
163.401         GPS_NMEA_FROM_GPS    iGPS            $GPGGA,201322.000,4144.3402,N,06959.5885,W,2,11,1.02,4.8,M,-34.3,M,0000,0000*58 
164.403         GPS_NMEA_FROM_GPS    iGPS            $GPGGA,201323.000,4144.3404,N,06959.5884,W,2,11,1.02,5.0,M,-34.3,M,0000,0000*57 
165.406         GPS_NMEA_FROM_GPS    iGPS            $GPGGA,201324.000,4144.3406,N,06959.5882,W,2,11,1.02,5.2,M,-34.3,M,0000,0000*56 
165.406         GPS_NMEA_FROM_GPS    iGPS            $GPGGA,201324.000,4144.3406,N,06959.5882,W,2,11,1.02,5.2,M,-34.3,M,0000,0000*56 
166.408         GPS_NMEA_FROM_GPS    iGPS            $GPRMC,201325.000,A,4144.3408,N,06959.5881,W,0.76,355.29,290321,,,D*71 
166.408         GPS_NMEA_FROM_GPS    iGPS            $GPRMC,201325.000,A,4144.3408,N,06959.5881,W,0.76,355.29,290321,,,D*71 
167.310         GPS_NMEA_FROM_GPS    iGPS            $GPGGA,201326.000,4144.3411,N,06959.5881,W,2,11,1.02,5.3,M,-34.3,M,0000,0000*50 
168.313         GPS_NMEA_FROM_GPS    iGPS            $GPGGA,201327.000,4144.3414,N,06959.5880,W,2,11,1.02,5.3,M,-34.3,M,0000,0000*55 
169.316         GPS_NMEA_FROM_GPS    iGPS            $GPGGA,201328.000,4144.3417,N,06959.5880,W,2,11,1.02,5.4,M,-34.3,M,0000,0000*5E 
170.319         GPS_NMEA_FROM_GPS    iGPS            $GPGGA,201329.000,4144.3419,N,06959.5879,W,2,11,1.02,5.5,M,-34.3,M,0000,0000*56 
171.422         GPS_NMEA_FROM_GPS    iGPS            $GPRMC,201330.000,A,4144.3422,N,06959.5879,W,0.76,354.51,290321,,,D*74 
172.324         GPS_NMEA_FROM_GPS    iGPS            $GPRMC,201331.000,A,4144.3425,N,06959.5878,W,0.78,355.31,290321,,,D*7A 
173.326         GPS_NMEA_FROM_GPS    iGPS            $GPGGA,201332.000,4144.3428,N,06959.5877,W,2,11,1.02,5.9,M,-34.3,M,0000,0000*5C 
174.328         GPS_NMEA_FROM_GPS    iGPS            $GPGGA,201333.000,4144.3431,N,06959.5877,W,2,11,1.02,5.9,M,-34.3,M,0000,0000*55 
175.431         GPS_NMEA_FROM_GPS    iGPS            $GPRMC,201334.000,A,4144.3434,N,06959.5876,W,0.77,357.42,290321,,,D*78 
176.333         GPS_NMEA_FROM_GPS    iGPS            $GPGGA,201335.000,4144.3437,N,06959.5876,W,2,11,1.02,5.9,M,-34.3,M,0000,0000*54 
177.436         GPS_NMEA_FROM_GPS    iGPS            $GPGGA,201336.000,4144.3439,N,06959.5875,W,2,11,1.02,6.0,M,-34.3,M,0000,0000*50 
178.439         GPS_NMEA_FROM_GPS    iGPS            $GPGGA,201337.000,4144.3442,N,06959.5874,W,2,11,1.02,6.2,M,-34.3,M,0000,0000*5E 
179.443         GPS_NMEA_FROM_GPS    iGPS            $GPRMC,201338.000,A,4144.3444,N,06959.5872,W,0.55,357.66,290321,,,D*71 
180.345         GPS_NMEA_FROM_GPS    iGPS            $GPGGA,201339.000,4144.3446,N,06959.5871,W,2,11,1.02,6.7,M,-34.3,M,0000,0000*54 
181.347         GPS_NMEA_FROM_GPS    iGPS            $GPGGA,201340.000,4144.3447,N,06959.5870,W,2,11,1.02,6.8,M,-34.3,M,0000,0000*55 
182.351         GPS_NMEA_FROM_GPS    iGPS            $GPGGA,201341.000,4144.3448,N,06959.5869,W,2,11,1.02,6.8,M,-34.3,M,0000,0000*53 
183.354         GPS_NMEA_FROM_GPS    iGPS            $GPGGA,201342.000,4144.3449,N,06959.5869,W,2,11,1.02,6.8,M,-34.3,M,0000,0000*51 
184.356         GPS_NMEA_FROM_GPS    iGPS            $GPRMC,201343.000,A,4144.3450,N,06959.5869,W,0.27,354.88,290321,,,D*74 
185.359         GPS_NMEA_FROM_GPS    iGPS            $GPGGA,201344.000,4144.3451,N,06959.5869,W,2,11,1.02,6.8,M,-34.3,M,0000,0000*5E 
186.362         GPS_NMEA_FROM_GPS    iGPS            $GPGGA,201345.000,4144.3452,N,06959.5870,W,2,11,0.90,6.8,M,-34.3,M,0000,0000*5E 
187.365         GPS_NMEA_FROM_GPS    iGPS            $GPGGA,201346.000,4144.3452,N,06959.5870,W,2,11,0.90,6.8,M,-34.3,M,0000,0000*5D 
188.368         GPS_NMEA_FROM_GPS    iGPS            $GPGGA,201347.000,4144.3453,N,06959.5871,W,2,11,0.90,6.9,M,-34.3,M,0000,0000*5D 
189.371         GPS_NMEA_FROM_GPS    iGPS            $GPGGA,201348.000,4144.3454,N,06959.5871,W,2,11,0.90,6.8,M,-34.3,M,0000,0000*54 
190.374         GPS_NMEA_FROM_GPS    iGPS            $GPGGA,201349.000,4144.3454,N,06959.5872,W,2,11,0.90,6.8,M,-34.3,M,0000,0000*56 
191.376         GPS_NMEA_FROM_GPS    iGPS            $GPGGA,201350.000,4144.3455,N,06959.5872,W,2,11,0.90,6.8,M,-34.3,M,0000,0000*5F 
192.379         GPS_NMEA_FROM_GPS    iGPS            $GPGGA,201351.000,4144.3455,N,06959.5873,W,2,11,0.90,6.9,M,-34.3,M,0000,0000*5E 
193.381         GPS_NMEA_FROM_GPS    iGPS            $GPGGA,201352.000,4144.3455,N,06959.5874,W,2,11,0.90,6.8,M,-34.3,M,0000,0000*5B 
194.384         GPS_NMEA_FROM_GPS    iGPS            $GPGGA,201353.000,4144.3455,N,06959.5875,W,2,11,0.90,6.8,M,-34.3,M,0000,0000*5B 
195.286         GPS_NMEA_FROM_GPS    iGPS            $GPGGA,201354.000,4144.3455,N,06959.5875,W,2,11,0.90,6.8,M,-34.3,M,0000,0000*5C 
196.389         GPS_NMEA_FROM_GPS    iGPS            $GPGGA,201355.000,4144.3455,N,06959.5876,W,2,11,0.90,6.7,M,-34.3,M,0000,0000*51 
197.292         GPS_NMEA_FROM_GPS    iGPS            $GPGGA,201356.000,4144.3455,N,06959.5877,W,2,11,0.90,6.7,M,-34.3,M,0000,0000*53 
198.294         GPS_NMEA_FROM_GPS    iGPS            $GPGGA,201357.000,4144.3454,N,06959.5877,W,2,11,0.90,6.8,M,-34.3,M,0000,0000*5C 
199.298         GPS_NMEA_FROM_GPS    iGPS            $GPGGA,201358.000,4144.3453,N,06959.5878,W,2,11,0.90,6.8,M,-34.3,M,0000,0000*5B 
200.400         GPS_NMEA_FROM_GPS    iGPS            $GPGGA,201359.000,4144.3452,N,06959.5879,W,2,11,0.90,6.7,M,-34.3,M,0000,0000*55 
201.303         GPS_NMEA_FROM_GPS    iGPS            $GPGGA,201400.000,4144.3451,N,06959.5879,W,2,11,0.90,6.7,M,-34.3,M,0000,0000*5D 
202.406         GPS_NMEA_FROM_GPS    iGPS            $GPRMC,201401.000,A,4144.3450,N,06959.5880,W,0.58,216.67,290321,,,D*7C 
203.308         GPS_NMEA_FROM_GPS    iGPS            $GPGGA,201402.000,4144.3448,N,06959.5882,W,2,11,0.90,6.8,M,-34.3,M,0000,0000*5C 
204.411         GPS_NMEA_FROM_GPS    iGPS            $GPRMC,201403.000,A,4144.3448,N,06959.5883,W,0.57,221.11,290321,,,D*7E 
205.414         GPS_NMEA_FROM_GPS    iGPS            $GPGGA,201404.000,4144.3447,N,06959.5885,W,2,11,0.90,6.8,M,-34.3,M,0000,0000*52 
206.418         GPS_NMEA_FROM_GPS    iGPS            $GPGGA,201405.000,4144.3446,N,06959.5887,W,2,11,0.90,6.6,M,-34.3,M,0000,0000*5E 
207.421         GPS_NMEA_FROM_GPS    iGPS            $GPRMC,201406.000,A,4144.3445,N,06959.5889,W,0.62,226.42,290321,,,D*7B 
208.223         GPS_NMEA_FROM_GPS    iGPS            $GPGGA,201407.000,4144.3445,N,06959.5891,W,2,11,0.90,6.7,M,-34.3,M,0000,0000*59 
209.325         GPS_NMEA_FROM_GPS    iGPS            $GPGGA,201408.000,4144.3444,N,06959.5892,W,2,11,0.90,6.7,M,-34.3,M,0000,0000*54 
210.428         GPS_NMEA_FROM_GPS    iGPS            $GPRMC,201409.000,A,4144.3443,N,06959.5894,W,0.59,223.00,290321,,,D*75 
211.330         GPS_NMEA_FROM_GPS    iGPS            $GPGGA,201410.000,4144.3442,N,06959.5896,W,2,11,0.90,6.7,M,-34.3,M,0000,0000*5F 
212.334         GPS_NMEA_FROM_GPS    iGPS            $GPRMC,201411.000,A,4144.3440,N,06959.5897,W,0.72,214.92,290321,,,D*7A 
213.236         GPS_NMEA_FROM_GPS    iGPS            $GPGGA,201412.000,4144.3439,N,06959.5898,W,2,11,0.90,6.8,M,-34.3,M,0000,0000*50 
214.239         GPS_NMEA_FROM_GPS    iGPS            $GPGGA,201413.000,4144.3437,N,06959.5899,W,2,11,0.90,6.9,M,-34.3,M,0000,0000*5F 
215.342         GPS_NMEA_FROM_GPS    iGPS            $GPRMC,201414.000,A,4144.3436,N,06959.5900,W,0.69,203.71,290321,,,D*70 
216.244         GPS_NMEA_FROM_GPS    iGPS            $GPGGA,201415.000,4144.3434,N,06959.5900,W,2,11,0.90,6.9,M,-34.3,M,0000,0000*5B 
217.347         GPS_NMEA_FROM_GPS    iGPS            $GPRMC,201416.000,A,4144.3431,N,06959.5901,W,0.76,195.86,290321,,,D*7E 
218.351         GPS_NMEA_FROM_GPS    iGPS            $GPGGA,201417.000,4144.3430,N,06959.5902,W,2,11,0.90,7.0,M,-34.3,M,0000,0000*57 
219.254         GPS_NMEA_FROM_GPS    iGPS            $GPGGA,201418.000,4144.3427,N,06959.5902,W,2,11,0.90,7.0,M,-34.3,M,0000,0000*5E 
220.357         GPS_NMEA_FROM_GPS    iGPS            $GPGGA,201419.000,4144.3426,N,06959.5903,W,2,11,0.90,6.9,M,-34.3,M,0000,0000*57 
221.360         GPS_NMEA_FROM_GPS    iGPS            $GPRMC,201420.000,A,4144.3424,N,06959.5903,W,0.80,188.55,290321,,,D*76 
222.262         GPS_NMEA_FROM_GPS    iGPS            $GPGGA,201421.000,4144.3421,N,06959.5903,W,2,11,0.90,6.9,M,-34.3,M,0000,0000*5B 
223.365         GPS_NMEA_FROM_GPS    iGPS            $GPGGA,201422.000,4144.3419,N,06959.5904,W,2,11,0.90,6.9,M,-34.3,M,0000,0000*54 
224.367         GPS_NMEA_FROM_GPS    iGPS            $GPGGA,201423.000,4144.3417,N,06959.5904,W,2,11,0.90,6.9,M,-34.3,M,0000,0000*5B 
225.370         GPS_NMEA_FROM_GPS    iGPS            $GPRMC,201424.000,A,4144.3415,N,06959.5905,W,0.81,185.54,290321,,,D*7B 
226.372         GPS_NMEA_FROM_GPS    iGPS            $GPGGA,201425.000,4144.3413,N,06959.5905,W,2,11,0.90,6.9,M,-34.3,M,0000,0000*58 
227.374         GPS_NMEA_FROM_GPS    iGPS            $GPGGA,201426.000,4144.3410,N,06959.5906,W,2,11,0.90,6.9,M,-34.3,M,0000,0000*5B 
228.377         GPS_NMEA_FROM_GPS    iGPS            $GPGGA,201427.000,4144.3408,N,06959.5906,W,2,11,0.90,6.9,M,-34.3,M,0000,0000*53 
229.380         GPS_NMEA_FROM_GPS    iGPS            $GPGGA,201428.000,4144.3406,N,06959.5907,W,2,11,0.90,6.8,M,-34.3,M,0000,0000*52 
230.383         GPS_NMEA_FROM_GPS    iGPS            $GPGGA,201429.000,4144.3403,N,06959.5907,W,2,11,0.90,6.7,M,-34.3,M,0000,0000*59 
231.285         GPS_NMEA_FROM_GPS    iGPS            $GPGGA,201430.000,4144.3401,N,06959.5907,W,2,11,0.90,6.8,M,-34.3,M,0000,0000*5C 
232.390         GPS_NMEA_FROM_GPS    iGPS            $GPRMC,201431.000,A,4144.3399,N,06959.5908,W,0.75,183.74,290321,,,D*7E 
233.293         GPS_NMEA_FROM_GPS    iGPS            $GPGGA,201432.000,4144.3398,N,06959.5908,W,2,11,0.90,6.7,M,-34.3,M,0000,0000*59 
234.396         GPS_NMEA_FROM_GPS    iGPS            $GPGGA,201433.000,4144.3396,N,06959.5909,W,2,11,0.90,6.6,M,-34.3,M,0000,0000*56 
235.297         GPS_NMEA_FROM_GPS    iGPS            $GPGGA,201434.000,4144.3394,N,06959.5910,W,2,11,0.90,6.6,M,-34.3,M,0000,0000*5B 
236.402         GPS_NMEA_FROM_GPS    iGPS            $GPGGA,201435.000,4144.3393,N,06959.5910,W,2,11,0.90,6.6,M,-34.3,M,0000,0000*5D 
237.304         GPS_NMEA_FROM_GPS    iGPS            $GPGGA,201436.000,4144.3392,N,06959.5911,W,2,11,0.90,6.5,M,-34.3,M,0000,0000*5D 
238.308         GPS_NMEA_FROM_GPS    iGPS            $GPGGA,201437.000,4144.3391,N,06959.5911,W,2,11,0.90,6.5,M,-34.3,M,0000,0000*5F 
239.310         GPS_NMEA_FROM_GPS    iGPS            $GPGGA,201438.000,4144.3390,N,06959.5911,W,2,11,0.90,6.6,M,-34.3,M,0000,0000*52 
240.313         GPS_NMEA_FROM_GPS    iGPS            $GPGGA,201439.000,4144.3389,N,06959.5912,W,2,11,0.90,6.6,M,-34.3,M,0000,0000*58 
241.316         GPS_NMEA_FROM_GPS    iGPS            $GPRMC,201440.000,A,4144.3388,N,06959.5912,W,0.29,190.55,290321,,,D*7B 
242.318         GPS_NMEA_FROM_GPS    iGPS            $GPRMC,201441.000,A,4144.3388,N,06959.5912,W,0.32,192.70,290321,,,D*75 
243.321         GPS_NMEA_FROM_GPS    iGPS            $GPGGA,201442.000,4144.3387,N,06959.5913,W,2,11,0.90,6.6,M,-34.3,M,0000,0000*5B 
244.324         GPS_NMEA_FROM_GPS    iGPS            $GPGGA,201443.000,4144.3386,N,06959.5913,W,2,11,0.90,6.6,M,-34.3,M,0000,0000*5B 
245.427         GPS_NMEA_FROM_GPS    iGPS            $GPRMC,201444.000,A,4144.3386,N,06959.5914,W,0.25,199.67,290321,,,D*73 
246.330         GPS_NMEA_FROM_GPS    iGPS            $GPRMC,201445.000,A,4144.3385,N,06959.5914,W,0.22,201.51,290321,,,D*71 
247.333         GPS_NMEA_FROM_GPS    iGPS            $GPRMC,201446.000,A,4144.3384,N,06959.5915,W,0.22,202.86,290321,,,D*7B 
248.435         GPS_NMEA_FROM_GPS    iGPS            $GPGGA,201447.000,4144.3384,N,06959.5915,W,2,11,0.90,6.6,M,-34.3,M,0000,0000*5B 
249.438         GPS_NMEA_FROM_GPS    iGPS            $GPRMC,201448.000,A,4144.3383,N,06959.5915,W,0.20,203.41,290321,,,D*7A 
250.339         GPS_NMEA_FROM_GPS    iGPS            $GPGGA,201449.000,4144.3383,N,06959.5916,W,2,11,0.90,6.5,M,-34.3,M,0000,0000*52 
251.342         GPS_NMEA_FROM_GPS    iGPS            $GPGGA,201450.000,4144.3382,N,06959.5916,W,2,11,0.90,6.6,M,-34.3,M,0000,0000*58 
252.344         GPS_NMEA_FROM_GPS    iGPS            $GPGGA,201451.000,4144.3382,N,06959.5916,W,2,11,0.90,6.6,M,-34.3,M,0000,0000*59 
253.347         GPS_NMEA_FROM_GPS    iGPS            $GPGGA,201452.000,4144.3381,N,06959.5916,W,2,11,0.90,6.6,M,-34.3,M,0000,0000*59 
254.250         GPS_NMEA_FROM_GPS    iGPS            $GPGGA,201453.000,4144.3381,N,06959.5916,W,2,11,0.90,6.6,M,-34.3,M,0000,0000*58 
255.253         GPS_NMEA_FROM_GPS    iGPS            $GPGGA,201454.000,4144.3381,N,06959.5916,W,2,11,0.90,6.6,M,-34.3,M,0000,0000*5F 
256.356         GPS_NMEA_FROM_GPS    iGPS            $GPRMC,201455.000,A,4144.3380,N,06959.5917,W,0.17,194.46,290321,,,D*79 
257.259         GPS_NMEA_FROM_GPS    iGPS            $GPGGA,201456.000,4144.3380,N,06959.5917,W,2,11,0.90,6.6,M,-34.3,M,0000,0000*5D 
258.260         GPS_NMEA_FROM_GPS    iGPS            $GPGGA,201457.000,4144.3379,N,06959.5917,W,2,11,0.90,6.6,M,-34.3,M,0000,0000*5A 
259.262         GPS_NMEA_FROM_GPS    iGPS            $GPGGA,201458.000,4144.3379,N,06959.5917,W,2,11,0.90,6.6,M,-34.3,M,0000,0000*55 
260.367         GPS_NMEA_FROM_GPS    iGPS            $GPRMC,201459.000,A,4144.3379,N,06959.5917,W,0.14,174.69,290321,,,D*73 
261.269         GPS_NMEA_FROM_GPS    iGPS            $GPGGA,201500.000,4144.3378,N,06959.5917,W,2,11,0.90,6.6,M,-34.3,M,0000,0000*58 
262.271         GPS_NMEA_FROM_GPS    iGPS            $GPGGA,201501.000,4144.3378,N,06959.5917,W,2,11,0.90,6.6,M,-34.3,M,0000,0000*59 
263.274         GPS_NMEA_FROM_GPS    iGPS            $GPGGA,201502.000,4144.3378,N,06959.5917,W,2,11,0.90,6.6,M,-34.3,M,0000,0000*5A 
264.377         GPS_NMEA_FROM_GPS    iGPS            $GPGGA,201503.000,4144.3377,N,06959.5917,W,2,11,0.90,6.6,M,-34.3,M,0000,0000*54 
265.279         GPS_NMEA_FROM_GPS    iGPS            $GPGGA,201504.000,4144.3377,N,06959.5917,W,2,10,0.94,6.6,M,-34.3,M,0000,0000*56 
266.383         GPS_NMEA_FROM_GPS    iGPS            $GPGGA,201505.000,4144.3377,N,06959.5917,W,2,11,0.90,6.6,M,-34.3,M,0000,0000*52 
267.385         GPS_NMEA_FROM_GPS    iGPS            $GPRMC,201506.000,A,4144.3377,N,06959.5917,W,0.13,181.50,290321,,,D*71 
268.388         GPS_NMEA_FROM_GPS    iGPS            $GPGGA,201507.000,4144.3376,N,06959.5917,W,2,11,0.90,6.6,M,-34.3,M,0000,0000*51 
269.390         GPS_NMEA_FROM_GPS    iGPS            $GPGGA,201508.000,4144.3376,N,06959.5917,W,2,11,0.90,6.6,M,-34.3,M,0000,0000*5E 
270.393         GPS_NMEA_FROM_GPS    iGPS            $GPGGA,201509.000,4144.3376,N,06959.5917,W,2,11,0.90,6.7,M,-34.3,M,0000,0000*5E 
271.395         GPS_NMEA_FROM_GPS    iGPS            $GPGGA,201510.000,4144.3376,N,06959.5917,W,2,11,1.02,6.7,M,-34.3,M,0000,0000*5C 
272.299         GPS_NMEA_FROM_GPS    iGPS            $GPGGA,201511.000,4144.3376,N,06959.5917,W,2,11,1.02,6.7,M,-34.3,M,0000,0000*5D 
273.302         GPS_NMEA_FROM_GPS    iGPS            $GPGGA,201512.000,4144.3376,N,06959.5917,W,2,11,1.02,6.7,M,-34.3,M,0000,0000*5E 
274.405         GPS_NMEA_FROM_GPS    iGPS            $GPGGA,201513.000,4144.3376,N,06959.5917,W,2,11,1.02,6.7,M,-34.3,M,0000,0000*5F 
275.409         GPS_NMEA_FROM_GPS    iGPS            $GPRMC,201514.000,A,4144.3376,N,06959.5917,W,0.08,186.74,290321,,,D*78 
276.311         GPS_NMEA_FROM_GPS    iGPS            $GPGGA,201515.000,4144.3376,N,06959.5917,W,2,11,1.02,6.7,M,-34.3,M,0000,0000*59 
277.415         GPS_NMEA_FROM_GPS    iGPS            $GPGGA,201516.000,4144.3376,N,06959.5917,W,2,11,1.02,6.7,M,-34.3,M,0000,0000*5A 
278.418         GPS_NMEA_FROM_GPS    iGPS            $GPGGA,201517.000,4144.3376,N,06959.5917,W,2,11,1.02,6.7,M,-34.3,M,0000,0000*5B 
279.321         GPS_NMEA_FROM_GPS    iGPS            $GPGGA,201518.000,4144.3376,N,06959.5917,W,2,11,1.02,6.7,M,-34.3,M,0000,0000*54 
280.324         GPS_NMEA_FROM_GPS    iGPS            $GPGGA,201519.000,4144.3376,N,06959.5917,W,2,11,1.02,6.6,M,-34.3,M,0000,0000*54 
281.327         GPS_NMEA_FROM_GPS    iGPS            $GPGGA,201520.000,4144.3376,N,06959.5917,W,2,11,1.02,6.6,M,-34.3,M,0000,0000*5E 
282.329         GPS_NMEA_FROM_GPS    iGPS            $GPGGA,201521.000,4144.3376,N,06959.5917,W,2,11,1.02,6.6,M,-34.3,M,0000,0000*5F 
283.332         GPS_NMEA_FROM_GPS    iGPS            $GPGGA,201522.000,4144.3375,N,06959.5917,W,2,11,1.02,6.6,M,-34.3,M,0000,0000*5F 
284.334         GPS_NMEA_FROM_GPS    iGPS            $GPGGA,201523.000,4144.3375,N,06959.5917,W,2,11,1.02,6.6,M,-34.3,M,0000,0000*5E 
285.337         GPS_NMEA_FROM_GPS    iGPS            $GPGGA,201524.000,4144.3375,N,06959.5917,W,2,11,1.02,6.6,M,-34.3,M,0000,0000*59 
286.240         GPS_NMEA_FROM_GPS    iGPS            $GPGGA,201525.000,4144.3375,N,06959.5917,W,2,11,1.02,6.6,M,-34.3,M,0000,0000*58 
287.444         GPS_NMEA_FROM_GPS    iGPS            $GPRMC,201526.000,A,4144.3375,N,06959.5917,W,0.05,186.81,290321,,,D*7D 
288.346         GPS_NMEA_FROM_GPS    iGPS            $GPGGA,201527.000,4144.3375,N,06959.5917,W,2,11,1.02,6.6,M,-34.3,M,0000,0000*5A 
289.349         GPS_NMEA_FROM_GPS    iGPS            $GPGGA,201528.000,4144.3375,N,06959.5917,W,2,11,1.02,6.6,M,-34.3,M,0000,0000*55 
290.352         GPS_NMEA_FROM_GPS    iGPS            $GPGGA,201529.000,4144.3375,N,06959.5917,W,2,11,1.02,6.6,M,-34.3,M,0000,0000*54 
291.355         GPS_NMEA_FROM_GPS    iGPS            $GPGGA,201530.000,4144.3375,N,06959.5917,W,2,11,1.02,6.6,M,-34.3,M,0000,0000*5C 
292.459         GPS_NMEA_FROM_GPS    iGPS            $GPRMC,201531.000,A,4144.3375,N,06959.5917,W,0.09,171.51,290321,,,D*72 
293.360         GPS_NMEA_FROM_GPS    iGPS            $GPGGA,201532.000,4144.3375,N,06959.5917,W,2,11,1.02,6.6,M,-34.3,M,0000,0000*5E 
294.362         GPS_NMEA_FROM_GPS    iGPS            $GPGGA,201533.000,4144.3375,N,06959.5917,W,2,11,1.02,6.6,M,-34.3,M,0000,0000*5F 
295.365         GPS_NMEA_FROM_GPS    iGPS            $GPGGA,201534.000,4144.3375,N,06959.5917,W,2,11,1.02,6.6,M,-34.3,M,0000,0000*58 
296.267         GPS_NMEA_FROM_GPS    iGPS            $GPGGA,201535.000,4144.3375,N,06959.5917,W,2,11,1.02,6.6,M,-34.3,M,0000,0000*59 
297.370         GPS_NMEA_FROM_GPS    iGPS            $GPGGA,201536.000,4144.3375,N,06959.5917,W,2,11,1.02,6.6,M,-34.3,M,0000,0000*5A 
298.372         GPS_NMEA_FROM_GPS    iGPS            $GPGGA,201537.000,4144.3375,N,06959.5917,W,2,11,1.02,6.6,M,-34.3,M,0000,0000*5B 
299.375         GPS_NMEA_FROM_GPS    iGPS            $GPGGA,201538.000,4144.3375,N,06959.5917,W,2,11,1.02,6.6,M,-34.3,M,0000,0000*54 
300.277         GPS_NMEA_FROM_GPS    iGPS            $GPGGA,201539.000,4144.3375,N,06959.5917,W,2,11,1.02,6.6,M,-34.3,M,0000,0000*55 
301.280         GPS_NMEA_FROM_GPS    iGPS            $GPGGA,201540.000,4144.3375,N,06959.5917,W,2,11,1.02,6.6,M,-34.3,M,0000,0000*5B 
302.383         GPS_NMEA_FROM_GPS    iGPS            $GPRMC,201541.000,A,4144.3375,N,06959.5917,W,0.07,206.31,290321,,,D*7E 
303.385         GPS_NMEA_FROM_GPS    iGPS            $GPGGA,201542.000,4144.3375,N,06959.5917,W,2,11,1.02,6.6,M,-34.3,M,0000,0000*59 
304.388         GPS_NMEA_FROM_GPS    iGPS            $GPRMC,201543.000,A,4144.3375,N,06959.5917,W,0.05,205.32,290321,,,D*7E 
305.392         GPS_NMEA_FROM_GPS    iGPS            $GPRMC,201544.000,A,4144.3375,N,06959.5917,W,0.08,219.84,290321,,,D*74 
306.400         GPS_NMEA_FROM_GPS    iGPS            $GPGGA,201545.000,4144.3375,N,06959.5917,W,2,11,1.02,6.6,M,-34.3,M,0000,0000*5E 
307.302         GPS_NMEA_FROM_GPS    iGPS            $GPGGA,201546.000,4144.3375,N,06959.5917,W,2,11,1.02,6.6,M,-34.3,M,0000,0000*5D 
