2.166           GPS_NMEA_FROM_GPS    iGPS            $GPRMC,191836.000,A,4144.3358,N,06959.5948,W,0.05,207.82,300321,,,D*7F 
3.168           GPS_NMEA_FROM_GPS    iGPS            $GPRMC,191837.000,A,4144.3358,N,06959.5948,W,0.04,194.35,300321,,,D*7A 
3.168           GPS_NMEA_FROM_GPS    iGPS            $GPRMC,191837.000,A,4144.3358,N,06959.5948,W,0.04,194.35,300321,,,D*7A 
4.171           GPS_NMEA_FROM_GPS    iGPS            $GPRMC,191838.000,A,4144.3358,N,06959.5948,W,0.06,199.06,300321,,,D*7A 
5.173           GPS_NMEA_FROM_GPS    iGPS            $GPGGA,191839.000,4144.3358,N,06959.5948,W,2,09,1.02,9.5,M,-34.3,M,0000,0000*52 
6.175           GPS_NMEA_FROM_GPS    iGPS            $GPGGA,191840.000,4144.3358,N,06959.5948,W,2,09,1.02,9.5,M,-34.3,M,0000,0000*5C 
7.178           GPS_NMEA_FROM_GPS    iGPS            $GPGGA,191841.000,4144.3357,N,06959.5948,W,2,08,1.14,9.5,M,-34.3,M,0000,0000*54 
8.180           GPS_NMEA_FROM_GPS    iGPS            $GPGGA,191842.000,4144.3357,N,06959.5948,W,2,09,1.02,9.5,M,-34.3,M,0000,0000*51 
9.182           GPS_NMEA_FROM_GPS    iGPS            $GPGGA,191843.000,4144.3357,N,06959.5948,W,2,09,1.02,9.5,M,-34.3,M,0000,0000*50 
10.185          GPS_NMEA_FROM_GPS    iGPS            $GPGGA,191844.000,4144.3357,N,06959.5948,W,2,09,1.02,9.5,M,-34.3,M,0000,0000*57 
11.187          GPS_NMEA_FROM_GPS    iGPS            $GPGGA,191845.000,4144.3357,N,06959.5948,W,2,09,1.02,9.5,M,-34.3,M,0000,0000*56 
12.190          GPS_NMEA_FROM_GPS    iGPS            $GPGGA,191846.000,4144.3357,N,06959.5948,W,2,09,1.03,9.5,M,-34.3,M,0000,0000*54 
12.190          GPS_NMEA_FROM_GPS    iGPS            $GPGGA,191846.000,4144.3357,N,06959.5948,W,2,09,1.03,9.5,M,-34.3,M,0000,0000*54 
13.193          GPS_NMEA_FROM_GPS    iGPS            $GPGGA,191847.000,4144.3357,N,06959.5948,W,2,09,1.03,9.5,M,-34.3,M,0000,0000*55 
13.193          GPS_NMEA_FROM_GPS    iGPS            $GPGGA,191847.000,4144.3357,N,06959.5948,W,2,09,1.03,9.5,M,-34.3,M,0000,0000*55 
14.096          GPS_NMEA_FROM_GPS    iGPS            $GPGGA,191848.000,4144.3357,N,06959.5948,W,2,09,1.02,9.5,M,-34.3,M,0000,0000*5B 
15.099          GPS_NMEA_FROM_GPS    iGPS            $GPGGA,191849.000,4144.3357,N,06959.5948,W,2,09,1.02,9.5,M,-34.3,M,0000,0000*5A 
16.102          GPS_NMEA_FROM_GPS    iGPS            $GPGGA,191850.000,4144.3356,N,06959.5948,W,2,09,1.02,9.5,M,-34.3,M,0000,0000*53 
17.105          GPS_NMEA_FROM_GPS    iGPS            $GPGGA,191851.000,4144.3356,N,06959.5948,W,2,09,1.02,9.6,M,-34.3,M,0000,0000*51 
18.208          GPS_NMEA_FROM_GPS    iGPS            $GPGGA,191852.000,4144.3356,N,06959.5948,W,2,09,1.02,9.6,M,-34.3,M,0000,0000*52 
19.110          GPS_NMEA_FROM_GPS    iGPS            $GPGGA,191853.000,4144.3356,N,06959.5948,W,2,09,1.02,9.6,M,-34.3,M,0000,0000*53 
20.113          GPS_NMEA_FROM_GPS    iGPS            $GPGGA,191854.000,4144.3355,N,06959.5949,W,2,09,1.02,9.6,M,-34.3,M,0000,0000*56 
21.216          GPS_NMEA_FROM_GPS    iGPS            $GPRMC,191855.000,A,4144.3355,N,06959.5949,W,0.04,218.85,300321,,,D*7E 
22.118          GPS_NMEA_FROM_GPS    iGPS            $GPGGA,191856.000,4144.3354,N,06959.5949,W,2,08,1.14,9.7,M,-34.3,M,0000,0000*52 
23.121          GPS_NMEA_FROM_GPS    iGPS            $GPGGA,191857.000,4144.3354,N,06959.5948,W,2,09,1.03,9.7,M,-34.3,M,0000,0000*55 
24.223          GPS_NMEA_FROM_GPS    iGPS            $GPGGA,191858.000,4144.3353,N,06959.5948,W,2,09,1.02,9.7,M,-34.3,M,0000,0000*5C 
25.226          GPS_NMEA_FROM_GPS    iGPS            $GPRMC,191859.000,A,4144.3353,N,06959.5948,W,0.04,238.90,300321,,,D*73 
26.228          GPS_NMEA_FROM_GPS    iGPS            $GPGGA,191900.000,4144.3353,N,06959.5948,W,2,09,1.02,9.7,M,-34.3,M,0000,0000*50 
27.230          GPS_NMEA_FROM_GPS    iGPS            $GPGGA,191901.000,4144.3353,N,06959.5948,W,2,08,1.14,9.7,M,-34.3,M,0000,0000*57 
27.230          GPS_NMEA_FROM_GPS    iGPS            $GPGGA,191901.000,4144.3353,N,06959.5948,W,2,08,1.14,9.7,M,-34.3,M,0000,0000*57 
28.133          GPS_NMEA_FROM_GPS    iGPS            $GPRMC,191902.000,A,4144.3353,N,06959.5948,W,0.04,235.66,300321,,,D*78 
28.133          GPS_NMEA_FROM_GPS    iGPS            $GPRMC,191902.000,A,4144.3353,N,06959.5948,W,0.04,235.66,300321,,,D*78 
29.135          GPS_NMEA_FROM_GPS    iGPS            $GPGGA,191903.000,4144.3353,N,06959.5948,W,2,08,1.14,9.7,M,-34.3,M,0000,0000*55 
30.339          GPS_NMEA_FROM_GPS    iGPS            $GPGGA,191904.000,4144.3353,N,06959.5949,W,2,09,1.04,9.7,M,-34.3,M,0000,0000*53 
31.241          GPS_NMEA_FROM_GPS    iGPS            $GPRMC,191905.000,A,4144.3353,N,06959.5949,W,0.04,251.94,300321,,,D*71 
32.245          GPS_NMEA_FROM_GPS    iGPS            $GPGGA,191906.000,4144.3353,N,06959.5949,W,2,09,1.04,9.7,M,-34.3,M,0000,0000*51 
33.247          GPS_NMEA_FROM_GPS    iGPS            $GPGGA,191907.000,4144.3353,N,06959.5949,W,2,09,1.04,9.7,M,-34.3,M,0000,0000*50 
34.049          GPS_NMEA_FROM_GPS    iGPS            $GPGGA,191908.000,4144.3353,N,06959.5949,W,2,08,1.14,9.7,M,-34.3,M,0000,0000*5F 
35.152          GPS_NMEA_FROM_GPS    iGPS            $GPGGA,191909.000,4144.3353,N,06959.5949,W,2,08,1.14,9.7,M,-34.3,M,0000,0000*5E 
36.155          GPS_NMEA_FROM_GPS    iGPS            $GPGGA,191910.000,4144.3353,N,06959.5949,W,2,08,1.14,9.7,M,-34.3,M,0000,0000*56 
37.258          GPS_NMEA_FROM_GPS    iGPS            $GPGGA,191911.000,4144.3353,N,06959.5949,W,2,09,1.04,9.7,M,-34.3,M,0000,0000*57 
38.261          GPS_NMEA_FROM_GPS    iGPS            $GPRMC,191912.000,A,4144.3353,N,06959.5949,W,0.05,248.95,300321,,,D*7F 
39.263          GPS_NMEA_FROM_GPS    iGPS            $GPRMC,191913.000,A,4144.3353,N,06959.5949,W,0.04,234.86,300321,,,D*76 
40.165          GPS_NMEA_FROM_GPS    iGPS            $GPGGA,191914.000,4144.3353,N,06959.5949,W,2,08,1.14,9.7,M,-34.3,M,0000,0000*52 
41.168          GPS_NMEA_FROM_GPS    iGPS            $GPGGA,191915.000,4144.3353,N,06959.5949,W,2,09,1.04,9.7,M,-34.3,M,0000,0000*53 
42.170          GPS_NMEA_FROM_GPS    iGPS            $GPGGA,191916.000,4144.3353,N,06959.5949,W,2,09,1.04,9.7,M,-34.3,M,0000,0000*50 
43.273          GPS_NMEA_FROM_GPS    iGPS            $GPRMC,191917.000,A,4144.3353,N,06959.5949,W,0.03,242.52,300321,,,D*7D 
44.275          GPS_NMEA_FROM_GPS    iGPS            $GPGGA,191918.000,4144.3353,N,06959.5949,W,2,09,1.04,9.7,M,-34.3,M,0000,0000*5E 
45.278          GPS_NMEA_FROM_GPS    iGPS            $GPGGA,191919.000,4144.3353,N,06959.5949,W,2,09,1.04,9.7,M,-34.3,M,0000,0000*5F 
46.180          GPS_NMEA_FROM_GPS    iGPS            $GPGGA,191920.000,4144.3353,N,06959.5949,W,2,08,1.14,9.7,M,-34.3,M,0000,0000*55 
47.183          GPS_NMEA_FROM_GPS    iGPS            $GPGGA,191921.000,4144.3353,N,06959.5949,W,2,09,1.02,9.7,M,-34.3,M,0000,0000*52 
48.085          GPS_NMEA_FROM_GPS    iGPS            $GPGGA,191922.000,4144.3353,N,06959.5949,W,2,09,1.02,9.7,M,-34.3,M,0000,0000*51 
49.087          GPS_NMEA_FROM_GPS    iGPS            $GPGGA,191923.000,4144.3353,N,06959.5949,W,2,09,1.02,9.7,M,-34.3,M,0000,0000*50 
50.090          GPS_NMEA_FROM_GPS    iGPS            $GPGGA,191924.000,4144.3353,N,06959.5949,W,2,09,1.02,9.7,M,-34.3,M,0000,0000*57 
50.090          GPS_NMEA_FROM_GPS    iGPS            $GPGGA,191924.000,4144.3353,N,06959.5949,W,2,09,1.02,9.7,M,-34.3,M,0000,0000*57 
51.193          GPS_NMEA_FROM_GPS    iGPS            $GPRMC,191925.000,A,4144.3353,N,06959.5949,W,0.04,259.52,300321,,,D*71 
52.195          GPS_NMEA_FROM_GPS    iGPS            $GPGGA,191926.000,4144.3353,N,06959.5949,W,2,08,1.14,9.7,M,-34.3,M,0000,0000*53 
53.298          GPS_NMEA_FROM_GPS    iGPS            $GPRMC,191927.000,A,4144.3353,N,06959.5949,W,0.10,170.42,300321,,,D*7F 
54.200          GPS_NMEA_FROM_GPS    iGPS            $GPGGA,191928.000,4144.3353,N,06959.5949,W,2,10,0.95,9.7,M,-34.3,M,0000,0000*5C 
55.103          GPS_NMEA_FROM_GPS    iGPS            $GPRMC,191929.000,A,4144.3352,N,06959.5949,W,0.20,153.83,300321,,,D*7F 
56.106          GPS_NMEA_FROM_GPS    iGPS            $GPGGA,191930.000,4144.3352,N,06959.5948,W,2,09,1.01,9.7,M,-34.3,M,0000,0000*51 
57.108          GPS_NMEA_FROM_GPS    iGPS            $GPGGA,191931.000,4144.3351,N,06959.5948,W,2,09,1.01,9.7,M,-34.3,M,0000,0000*53 
58.111          GPS_NMEA_FROM_GPS    iGPS            $GPGGA,191932.000,4144.3351,N,06959.5947,W,2,09,1.01,9.8,M,-34.3,M,0000,0000*50 
59.114          GPS_NMEA_FROM_GPS    iGPS            $GPGGA,191933.000,4144.3350,N,06959.5946,W,2,09,1.01,9.8,M,-34.3,M,0000,0000*51 
60.216          GPS_NMEA_FROM_GPS    iGPS            $GPGGA,191934.000,4144.3349,N,06959.5946,W,2,10,0.95,9.7,M,-34.3,M,0000,0000*55 
61.219          GPS_NMEA_FROM_GPS    iGPS            $GPGGA,191935.000,4144.3349,N,06959.5945,W,2,10,0.95,9.7,M,-34.3,M,0000,0000*57 
62.322          GPS_NMEA_FROM_GPS    iGPS            $GPGGA,191936.000,4144.3348,N,06959.5944,W,2,10,0.95,9.8,M,-34.3,M,0000,0000*5B 
63.224          GPS_NMEA_FROM_GPS    iGPS            $GPGGA,191937.000,4144.3347,N,06959.5943,W,2,10,0.95,9.8,M,-34.3,M,0000,0000*52 
64.026          GPS_NMEA_FROM_GPS    iGPS            $GPGGA,191938.000,4144.3347,N,06959.5942,W,2,09,1.01,9.8,M,-34.3,M,0000,0000*58 
65.129          GPS_NMEA_FROM_GPS    iGPS            $GPGGA,191939.000,4144.3346,N,06959.5940,W,2,08,1.10,9.8,M,-34.3,M,0000,0000*5B 
66.232          GPS_NMEA_FROM_GPS    iGPS            $GPRMC,191940.000,A,4144.3346,N,06959.5939,W,0.36,116.54,300321,,,D*7E 
67.334          GPS_NMEA_FROM_GPS    iGPS            $GPGGA,191941.000,4144.3346,N,06959.5938,W,2,09,1.04,9.7,M,-34.3,M,0000,0000*50 
68.236          GPS_NMEA_FROM_GPS    iGPS            $GPGGA,191942.000,4144.3346,N,06959.5936,W,2,09,1.04,9.7,M,-34.3,M,0000,0000*5D 
69.239          GPS_NMEA_FROM_GPS    iGPS            $GPRMC,191943.000,A,4144.3346,N,06959.5934,W,0.46,92.09,300321,,,D*42 
70.141          GPS_NMEA_FROM_GPS    iGPS            $GPGGA,191944.000,4144.3347,N,06959.5931,W,2,08,1.10,9.8,M,-34.3,M,0000,0000*56 
71.244          GPS_NMEA_FROM_GPS    iGPS            $GPRMC,191945.000,A,4144.3347,N,06959.5930,W,0.54,78.99,300321,,,D*4F 
72.046          GPS_NMEA_FROM_GPS    iGPS            $GPGGA,191946.000,4144.3348,N,06959.5928,W,2,08,1.10,9.8,M,-34.3,M,0000,0000*53 
73.148          GPS_NMEA_FROM_GPS    iGPS            $GPGGA,191947.000,4144.3348,N,06959.5926,W,2,08,1.10,9.8,M,-34.3,M,0000,0000*5C 
74.151          GPS_NMEA_FROM_GPS    iGPS            $GPGGA,191948.000,4144.3349,N,06959.5923,W,2,08,1.10,9.8,M,-34.3,M,0000,0000*57 
75.154          GPS_NMEA_FROM_GPS    iGPS            $GPGGA,191949.000,4144.3350,N,06959.5921,W,2,09,1.01,9.8,M,-34.3,M,0000,0000*5D 
76.156          GPS_NMEA_FROM_GPS    iGPS            $GPGGA,191950.000,4144.3351,N,06959.5919,W,2,08,1.10,9.8,M,-34.3,M,0000,0000*5E 
77.159          GPS_NMEA_FROM_GPS    iGPS            $GPGGA,191951.000,4144.3352,N,06959.5916,W,2,09,1.04,9.8,M,-34.3,M,0000,0000*57 
78.161          GPS_NMEA_FROM_GPS    iGPS            $GPGGA,191952.000,4144.3353,N,06959.5913,W,2,08,1.10,9.8,M,-34.3,M,0000,0000*54 
79.164          GPS_NMEA_FROM_GPS    iGPS            $GPGGA,191953.000,4144.3354,N,06959.5910,W,2,09,1.04,9.7,M,-34.3,M,0000,0000*5A 
80.267          GPS_NMEA_FROM_GPS    iGPS            $GPGGA,191954.000,4144.3355,N,06959.5907,W,2,10,0.95,9.7,M,-34.3,M,0000,0000*5B 
81.269          GPS_NMEA_FROM_GPS    iGPS            $GPGGA,191955.000,4144.3356,N,06959.5904,W,2,09,1.04,9.7,M,-34.3,M,0000,0000*5B 
82.272          GPS_NMEA_FROM_GPS    iGPS            $GPGGA,191956.000,4144.3357,N,06959.5901,W,2,09,1.04,9.7,M,-34.3,M,0000,0000*5C 
83.275          GPS_NMEA_FROM_GPS    iGPS            $GPGGA,191957.000,4144.3358,N,06959.5897,W,2,09,1.04,9.7,M,-34.3,M,0000,0000*5C 
84.177          GPS_NMEA_FROM_GPS    iGPS            $GPGGA,191958.000,4144.3359,N,06959.5894,W,2,09,1.01,9.7,M,-34.3,M,0000,0000*54 
85.079          GPS_NMEA_FROM_GPS    iGPS            $GPGGA,191959.000,4144.3361,N,06959.5891,W,2,09,1.01,9.7,M,-34.3,M,0000,0000*5B 
86.082          GPS_NMEA_FROM_GPS    iGPS            $GPGGA,192000.000,4144.3362,N,06959.5888,W,2,10,0.95,9.7,M,-34.3,M,0000,0000*52 
87.085          GPS_NMEA_FROM_GPS    iGPS            $GPGGA,192001.000,4144.3364,N,06959.5885,W,2,08,1.10,9.7,M,-34.3,M,0000,0000*5D 
88.288          GPS_NMEA_FROM_GPS    iGPS            $GPRMC,192002.000,A,4144.3365,N,06959.5882,W,0.81,54.33,300321,,,D*48 
89.290          GPS_NMEA_FROM_GPS    iGPS            $GPRMC,192003.000,A,4144.3367,N,06959.5879,W,0.81,53.04,300321,,,D*4C 
90.192          GPS_NMEA_FROM_GPS    iGPS            $GPGGA,192004.000,4144.3369,N,06959.5877,W,2,09,1.04,9.7,M,-34.3,M,0000,0000*5C 
91.295          GPS_NMEA_FROM_GPS    iGPS            $GPRMC,192005.000,A,4144.3370,N,06959.5874,W,0.82,50.31,300321,,,D*47 
92.197          GPS_NMEA_FROM_GPS    iGPS            $GPGGA,192006.000,4144.3372,N,06959.5871,W,2,09,1.04,9.7,M,-34.3,M,0000,0000*52 
93.200          GPS_NMEA_FROM_GPS    iGPS            $GPRMC,192007.000,A,4144.3374,N,06959.5868,W,0.82,48.87,300321,,,D*48 
94.202          GPS_NMEA_FROM_GPS    iGPS            $GPGGA,192008.000,4144.3375,N,06959.5866,W,2,10,0.95,9.6,M,-34.3,M,0000,0000*5D 
95.205          GPS_NMEA_FROM_GPS    iGPS            $GPGGA,192009.000,4144.3377,N,06959.5863,W,2,09,1.03,9.6,M,-34.3,M,0000,0000*5D 
96.208          GPS_NMEA_FROM_GPS    iGPS            $GPRMC,192010.000,A,4144.3378,N,06959.5861,W,0.85,47.71,300321,,,D*4A 
97.110          GPS_NMEA_FROM_GPS    iGPS            $GPRMC,192011.000,A,4144.3380,N,06959.5858,W,0.80,47.64,300321,,,D*47 
98.113          GPS_NMEA_FROM_GPS    iGPS            $GPGGA,192012.000,4144.3382,N,06959.5855,W,2,09,1.03,9.5,M,-34.3,M,0000,0000*5B 
99.215          GPS_NMEA_FROM_GPS    iGPS            $GPRMC,192013.000,A,4144.3384,N,06959.5853,W,0.82,47.56,300321,,,D*49 
100.218         GPS_NMEA_FROM_GPS    iGPS            $GPGGA,192014.000,4144.3385,N,06959.5850,W,2,09,1.01,9.5,M,-34.3,M,0000,0000*5D 
101.120         GPS_NMEA_FROM_GPS    iGPS            $GPGGA,192015.000,4144.3387,N,06959.5847,W,2,08,1.10,9.5,M,-34.3,M,0000,0000*59 
102.123         GPS_NMEA_FROM_GPS    iGPS            $GPGGA,192016.000,4144.3389,N,06959.5844,W,2,09,1.01,9.4,M,-34.3,M,0000,0000*57 
103.226         GPS_NMEA_FROM_GPS    iGPS            $GPGGA,192017.000,4144.3391,N,06959.5841,W,2,09,1.01,9.4,M,-34.3,M,0000,0000*5A 
104.228         GPS_NMEA_FROM_GPS    iGPS            $GPGGA,192018.000,4144.3393,N,06959.5838,W,2,10,0.95,9.4,M,-34.3,M,0000,0000*5D 
105.131         GPS_NMEA_FROM_GPS    iGPS            $GPGGA,192019.000,4144.3395,N,06959.5836,W,2,09,1.01,9.4,M,-34.3,M,0000,0000*50 
106.134         GPS_NMEA_FROM_GPS    iGPS            $GPGGA,192020.000,4144.3397,N,06959.5834,W,2,09,1.03,9.3,M,-34.3,M,0000,0000*5F 
107.137         GPS_NMEA_FROM_GPS    iGPS            $GPGGA,192021.000,4144.3399,N,06959.5831,W,2,09,1.03,9.3,M,-34.3,M,0000,0000*55 
108.239         GPS_NMEA_FROM_GPS    iGPS            $GPGGA,192022.000,4144.3402,N,06959.5829,W,2,10,0.95,9.3,M,-34.3,M,0000,0000*5C 
109.242         GPS_NMEA_FROM_GPS    iGPS            $GPRMC,192023.000,A,4144.3404,N,06959.5827,W,0.84,41.05,300321,,,D*40 
110.144         GPS_NMEA_FROM_GPS    iGPS            $GPGGA,192024.000,4144.3406,N,06959.5825,W,2,09,1.01,9.2,M,-34.3,M,0000,0000*57 
111.247         GPS_NMEA_FROM_GPS    iGPS            $GPRMC,192025.000,A,4144.3408,N,06959.5823,W,0.84,40.16,300321,,,D*4D 
112.149         GPS_NMEA_FROM_GPS    iGPS            $GPGGA,192026.000,4144.3410,N,06959.5821,W,2,09,1.01,9.1,M,-34.3,M,0000,0000*55 
113.252         GPS_NMEA_FROM_GPS    iGPS            $GPRMC,192027.000,A,4144.3413,N,06959.5818,W,0.89,39.25,300321,,,D*4E 
114.255         GPS_NMEA_FROM_GPS    iGPS            $GPRMC,192028.000,A,4144.3415,N,06959.5815,W,0.88,38.98,300321,,,D*4C 
115.157         GPS_NMEA_FROM_GPS    iGPS            $GPRMC,192029.000,A,4144.3417,N,06959.5813,W,0.89,38.87,300321,,,D*46 
116.260         GPS_NMEA_FROM_GPS    iGPS            $GPRMC,192030.000,A,4144.3419,N,06959.5811,W,0.88,38.54,300321,,,D*4D 
117.062         GPS_NMEA_FROM_GPS    iGPS            $GPGGA,192031.000,4144.3421,N,06959.5809,W,2,09,1.01,8.9,M,-34.3,M,0000,0000*52 
118.165         GPS_NMEA_FROM_GPS    iGPS            $GPGGA,192032.000,4144.3423,N,06959.5806,W,2,09,1.01,8.8,M,-34.3,M,0000,0000*5D 
119.068         GPS_NMEA_FROM_GPS    iGPS            $GPGGA,192033.000,4144.3425,N,06959.5804,W,2,09,1.01,8.8,M,-34.3,M,0000,0000*58 
120.171         GPS_NMEA_FROM_GPS    iGPS            $GPGGA,192034.000,4144.3427,N,06959.5802,W,2,09,1.01,8.8,M,-34.3,M,0000,0000*5B 
121.173         GPS_NMEA_FROM_GPS    iGPS            $GPRMC,192035.000,A,4144.3429,N,06959.5799,W,0.91,39.11,300321,,,D*4C 
122.176         GPS_NMEA_FROM_GPS    iGPS            $GPGGA,192036.000,4144.3431,N,06959.5797,W,2,10,0.95,8.7,M,-34.3,M,0000,0000*56 
123.178         GPS_NMEA_FROM_GPS    iGPS            $GPGGA,192037.000,4144.3434,N,06959.5795,W,2,10,0.95,8.7,M,-34.3,M,0000,0000*50 
124.181         GPS_NMEA_FROM_GPS    iGPS            $GPRMC,192038.000,A,4144.3436,N,06959.5793,W,0.90,39.73,300321,,,D*40 
125.183         GPS_NMEA_FROM_GPS    iGPS            $GPGGA,192039.000,4144.3438,N,06959.5790,W,2,09,1.01,8.6,M,-34.3,M,0000,0000*52 
126.186         GPS_NMEA_FROM_GPS    iGPS            $GPGGA,192040.000,4144.3440,N,06959.5788,W,2,10,0.95,8.5,M,-34.3,M,0000,0000*5D 
127.189         GPS_NMEA_FROM_GPS    iGPS            $GPRMC,192041.000,A,4144.3442,N,06959.5786,W,0.91,39.06,300321,,,D*4A 
128.191         GPS_NMEA_FROM_GPS    iGPS            $GPRMC,192042.000,A,4144.3444,N,06959.5784,W,0.91,38.65,300321,,,D*49 
129.193         GPS_NMEA_FROM_GPS    iGPS            $GPRMC,192043.000,A,4144.3447,N,06959.5782,W,0.90,38.40,300321,,,D*4B 
130.196         GPS_NMEA_FROM_GPS    iGPS            $GPRMC,192044.000,A,4144.3449,N,06959.5780,W,0.88,38.05,300321,,,D*48 
131.198         GPS_NMEA_FROM_GPS    iGPS            $GPGGA,192045.000,4144.3451,N,06959.5778,W,2,09,1.00,8.3,M,-34.3,M,0000,0000*54 
132.201         GPS_NMEA_FROM_GPS    iGPS            $GPGGA,192046.000,4144.3453,N,06959.5776,W,2,10,0.95,8.2,M,-34.3,M,0000,0000*5F 
133.203         GPS_NMEA_FROM_GPS    iGPS            $GPGGA,192047.000,4144.3455,N,06959.5774,W,2,09,1.00,8.2,M,-34.3,M,0000,0000*5F 
134.206         GPS_NMEA_FROM_GPS    iGPS            $GPRMC,192048.000,A,4144.3457,N,06959.5771,W,0.90,36.72,300321,,,D*42 
135.208         GPS_NMEA_FROM_GPS    iGPS            $GPGGA,192049.000,4144.3460,N,06959.5769,W,2,09,1.00,8.1,M,-34.3,M,0000,0000*58 
136.211         GPS_NMEA_FROM_GPS    iGPS            $GPGGA,192050.000,4144.3462,N,06959.5768,W,2,09,1.01,8.0,M,-34.3,M,0000,0000*53 
137.113         GPS_NMEA_FROM_GPS    iGPS            $GPGGA,192051.000,4144.3464,N,06959.5766,W,2,09,1.00,8.0,M,-34.3,M,0000,0000*5B 
138.216         GPS_NMEA_FROM_GPS    iGPS            $GPGGA,192052.000,4144.3466,N,06959.5764,W,2,09,1.00,7.9,M,-34.3,M,0000,0000*5E 
139.219         GPS_NMEA_FROM_GPS    iGPS            $GPRMC,192053.000,A,4144.3468,N,06959.5762,W,0.87,35.35,300321,,,D*40 
140.121         GPS_NMEA_FROM_GPS    iGPS            $GPGGA,192054.000,4144.3470,N,06959.5760,W,2,09,1.00,7.9,M,-34.3,M,0000,0000*5B 
141.224         GPS_NMEA_FROM_GPS    iGPS            $GPGGA,192055.000,4144.3472,N,06959.5758,W,2,09,1.00,7.8,M,-34.3,M,0000,0000*52 
142.227         GPS_NMEA_FROM_GPS    iGPS            $GPRMC,192056.000,A,4144.3474,N,06959.5756,W,0.87,35.82,300321,,,D*43 
143.129         GPS_NMEA_FROM_GPS    iGPS            $GPGGA,192057.000,4144.3477,N,06959.5754,W,2,09,1.01,7.7,M,-34.3,M,0000,0000*57 
144.131         GPS_NMEA_FROM_GPS    iGPS            $GPGGA,192058.000,4144.3479,N,06959.5752,W,2,09,1.01,7.7,M,-34.3,M,0000,0000*50 
145.133         GPS_NMEA_FROM_GPS    iGPS            $GPGGA,192059.000,4144.3481,N,06959.5750,W,2,09,1.01,7.6,M,-34.3,M,0000,0000*55 
146.136         GPS_NMEA_FROM_GPS    iGPS            $GPGGA,192100.000,4144.3483,N,06959.5748,W,2,09,1.01,7.5,M,-34.3,M,0000,0000*50 
147.238         GPS_NMEA_FROM_GPS    iGPS            $GPRMC,192101.000,A,4144.3485,N,06959.5745,W,0.88,37.90,300321,,,D*42 
148.140         GPS_NMEA_FROM_GPS    iGPS            $GPGGA,192102.000,4144.3487,N,06959.5743,W,2,09,1.01,7.4,M,-34.3,M,0000,0000*5C 
149.243         GPS_NMEA_FROM_GPS    iGPS            $GPRMC,192103.000,A,4144.3489,N,06959.5741,W,0.88,38.23,300321,,,D*4F 
150.145         GPS_NMEA_FROM_GPS    iGPS            $GPGGA,192104.000,4144.3491,N,06959.5739,W,2,09,1.00,7.3,M,-34.3,M,0000,0000*56 
151.148         GPS_NMEA_FROM_GPS    iGPS            $GPGGA,192105.000,4144.3493,N,06959.5737,W,2,09,1.00,7.3,M,-34.3,M,0000,0000*5B 
152.150         GPS_NMEA_FROM_GPS    iGPS            $GPGGA,192106.000,4144.3495,N,06959.5735,W,2,09,1.00,7.2,M,-34.3,M,0000,0000*5D 
153.253         GPS_NMEA_FROM_GPS    iGPS            $GPRMC,192107.000,A,4144.3497,N,06959.5732,W,0.88,39.70,300321,,,D*47 
154.256         GPS_NMEA_FROM_GPS    iGPS            $GPRMC,192108.000,A,4144.3499,N,06959.5730,W,0.90,39.84,300321,,,D*46 
155.158         GPS_NMEA_FROM_GPS    iGPS            $GPGGA,192109.000,4144.3502,N,06959.5728,W,2,09,1.01,7.0,M,-34.3,M,0000,0000*52 
156.160         GPS_NMEA_FROM_GPS    iGPS            $GPGGA,192110.000,4144.3504,N,06959.5725,W,2,09,1.01,7.0,M,-34.3,M,0000,0000*51 
157.163         GPS_NMEA_FROM_GPS    iGPS            $GPGGA,192111.000,4144.3505,N,06959.5723,W,2,09,1.01,7.0,M,-34.3,M,0000,0000*57 
158.266         GPS_NMEA_FROM_GPS    iGPS            $GPGGA,192112.000,4144.3507,N,06959.5721,W,2,10,0.95,6.9,M,-34.3,M,0000,0000*58 
159.168         GPS_NMEA_FROM_GPS    iGPS            $GPGGA,192113.000,4144.3509,N,06959.5718,W,2,09,1.01,6.9,M,-34.3,M,0000,0000*59 
160.171         GPS_NMEA_FROM_GPS    iGPS            $GPGGA,192114.000,4144.3511,N,06959.5716,W,2,09,1.00,6.9,M,-34.3,M,0000,0000*58 
161.173         GPS_NMEA_FROM_GPS    iGPS            $GPRMC,192115.000,A,4144.3513,N,06959.5714,W,0.86,41.68,300321,,,D*45 
162.176         GPS_NMEA_FROM_GPS    iGPS            $GPGGA,192116.000,4144.3515,N,06959.5712,W,2,09,1.01,6.8,M,-34.3,M,0000,0000*5A 
163.178         GPS_NMEA_FROM_GPS    iGPS            $GPGGA,192117.000,4144.3517,N,06959.5709,W,2,09,1.00,6.7,M,-34.3,M,0000,0000*5D 
164.181         GPS_NMEA_FROM_GPS    iGPS            $GPGGA,192118.000,4144.3519,N,06959.5707,W,2,09,1.00,6.7,M,-34.3,M,0000,0000*52 
165.183         GPS_NMEA_FROM_GPS    iGPS            $GPGGA,192119.000,4144.3521,N,06959.5705,W,2,09,1.01,6.7,M,-34.3,M,0000,0000*5B 
166.186         GPS_NMEA_FROM_GPS    iGPS            $GPGGA,192120.000,4144.3523,N,06959.5703,W,2,09,1.00,6.6,M,-34.3,M,0000,0000*55 
167.189         GPS_NMEA_FROM_GPS    iGPS            $GPRMC,192121.000,A,4144.3525,N,06959.5701,W,0.87,41.78,300321,,,D*43 
168.192         GPS_NMEA_FROM_GPS    iGPS            $GPGGA,192122.000,4144.3527,N,06959.5698,W,2,09,1.00,6.6,M,-34.3,M,0000,0000*50 
169.194         GPS_NMEA_FROM_GPS    iGPS            $GPRMC,192123.000,A,4144.3529,N,06959.5696,W,0.86,41.30,300321,,,D*4F 
170.096         GPS_NMEA_FROM_GPS    iGPS            $GPGGA,192124.000,4144.3531,N,06959.5694,W,2,09,1.01,6.5,M,-34.3,M,0000,0000*5F 
171.099         GPS_NMEA_FROM_GPS    iGPS            $GPGGA,192125.000,4144.3532,N,06959.5691,W,2,09,1.00,6.5,M,-34.3,M,0000,0000*59 
172.102         GPS_NMEA_FROM_GPS    iGPS            $GPGGA,192126.000,4144.3534,N,06959.5689,W,2,09,1.00,6.4,M,-34.3,M,0000,0000*54 
173.104         GPS_NMEA_FROM_GPS    iGPS            $GPGGA,192127.000,4144.3536,N,06959.5687,W,2,10,0.95,6.3,M,-34.3,M,0000,0000*5B 
174.107         GPS_NMEA_FROM_GPS    iGPS            $GPGGA,192128.000,4144.3538,N,06959.5684,W,2,10,0.95,6.2,M,-34.3,M,0000,0000*58 
175.010         GPS_NMEA_FROM_GPS    iGPS            $GPGGA,192129.000,4144.3539,N,06959.5682,W,2,09,1.00,6.2,M,-34.3,M,0000,0000*5B 
176.113         GPS_NMEA_FROM_GPS    iGPS            $GPRMC,192130.000,A,4144.3541,N,06959.5680,W,0.85,37.57,300321,,,D*47 
177.116         GPS_NMEA_FROM_GPS    iGPS            $GPRMC,192131.000,A,4144.3543,N,06959.5679,W,0.85,36.79,300321,,,D*4F 
178.118         GPS_NMEA_FROM_GPS    iGPS            $GPGGA,192132.000,4144.3544,N,06959.5677,W,2,09,1.01,6.0,M,-34.3,M,0000,0000*52 
179.121         GPS_NMEA_FROM_GPS    iGPS            $GPGGA,192133.000,4144.3546,N,06959.5675,W,2,10,0.95,5.9,M,-34.3,M,0000,0000*5D 
180.123         GPS_NMEA_FROM_GPS    iGPS            $GPGGA,192134.000,4144.3547,N,06959.5673,W,2,10,0.95,5.8,M,-34.3,M,0000,0000*5C 
181.126         GPS_NMEA_FROM_GPS    iGPS            $GPRMC,192135.000,A,4144.3549,N,06959.5672,W,0.71,36.86,300321,,,D*41 
182.128         GPS_NMEA_FROM_GPS    iGPS            $GPGGA,192136.000,4144.3550,N,06959.5671,W,2,10,0.95,5.8,M,-34.3,M,0000,0000*5A 
183.131         GPS_NMEA_FROM_GPS    iGPS            $GPGGA,192137.000,4144.3551,N,06959.5669,W,2,10,0.95,5.7,M,-34.3,M,0000,0000*5C 
184.133         GPS_NMEA_FROM_GPS    iGPS            $GPGGA,192138.000,4144.3551,N,06959.5668,W,2,10,0.95,5.7,M,-34.3,M,0000,0000*52 
185.036         GPS_NMEA_FROM_GPS    iGPS            $GPGGA,192139.000,4144.3551,N,06959.5666,W,2,09,1.00,5.7,M,-34.3,M,0000,0000*58 
186.038         GPS_NMEA_FROM_GPS    iGPS            $GPGGA,192140.000,4144.3551,N,06959.5664,W,2,10,0.95,5.7,M,-34.3,M,0000,0000*51 
187.141         GPS_NMEA_FROM_GPS    iGPS            $GPGGA,192141.000,4144.3550,N,06959.5663,W,2,10,0.95,5.7,M,-34.3,M,0000,0000*56 
188.144         GPS_NMEA_FROM_GPS    iGPS            $GPGGA,192142.000,4144.3549,N,06959.5662,W,2,10,0.94,5.7,M,-34.3,M,0000,0000*5D 
189.146         GPS_NMEA_FROM_GPS    iGPS            $GPGGA,192143.000,4144.3549,N,06959.5660,W,2,10,0.95,5.7,M,-34.3,M,0000,0000*5F 
190.049         GPS_NMEA_FROM_GPS    iGPS            $GPGGA,192144.000,4144.3548,N,06959.5659,W,2,09,1.00,5.7,M,-34.3,M,0000,0000*56 
191.051         GPS_NMEA_FROM_GPS    iGPS            $GPGGA,192145.000,4144.3547,N,06959.5659,W,2,09,1.00,5.7,M,-34.3,M,0000,0000*58 
192.054         GPS_NMEA_FROM_GPS    iGPS            $GPGGA,192146.000,4144.3546,N,06959.5659,W,2,09,1.00,5.7,M,-34.3,M,0000,0000*5A 
193.157         GPS_NMEA_FROM_GPS    iGPS            $GPGGA,192147.000,4144.3544,N,06959.5659,W,2,10,0.94,5.7,M,-34.3,M,0000,0000*5D 
194.159         GPS_NMEA_FROM_GPS    iGPS            $GPGGA,192148.000,4144.3543,N,06959.5659,W,2,10,0.94,5.7,M,-34.3,M,0000,0000*55 
195.162         GPS_NMEA_FROM_GPS    iGPS            $GPGGA,192149.000,4144.3541,N,06959.5660,W,2,10,0.94,5.7,M,-34.3,M,0000,0000*5C 
196.064         GPS_NMEA_FROM_GPS    iGPS            $GPGGA,192150.000,4144.3540,N,06959.5661,W,2,09,1.00,5.7,M,-34.3,M,0000,0000*50 
197.068         GPS_NMEA_FROM_GPS    iGPS            $GPGGA,192151.000,4144.3539,N,06959.5661,W,2,09,1.00,5.7,M,-34.3,M,0000,0000*5F 
198.070         GPS_NMEA_FROM_GPS    iGPS            $GPGGA,192152.000,4144.3537,N,06959.5662,W,2,09,1.00,5.7,M,-34.3,M,0000,0000*51 
199.073         GPS_NMEA_FROM_GPS    iGPS            $GPGGA,192153.000,4144.3536,N,06959.5662,W,2,09,1.01,5.7,M,-34.3,M,0000,0000*50 
200.075         GPS_NMEA_FROM_GPS    iGPS            $GPGGA,192154.000,4144.3533,N,06959.5664,W,2,09,1.00,5.7,M,-34.3,M,0000,0000*55 
201.078         GPS_NMEA_FROM_GPS    iGPS            $GPGGA,192155.000,4144.3531,N,06959.5666,W,2,09,1.00,5.7,M,-34.3,M,0000,0000*54 
202.081         GPS_NMEA_FROM_GPS    iGPS            $GPGGA,192156.000,4144.3528,N,06959.5667,W,2,09,1.00,5.6,M,-34.3,M,0000,0000*5F 
203.084         GPS_NMEA_FROM_GPS    iGPS            $GPGGA,192157.000,4144.3525,N,06959.5668,W,2,09,1.00,5.6,M,-34.3,M,0000,0000*5C 
204.086         GPS_NMEA_FROM_GPS    iGPS            $GPRMC,192158.000,A,4144.3523,N,06959.5670,W,0.73,185.77,300321,,,D*71 
205.088         GPS_NMEA_FROM_GPS    iGPS            $GPGGA,192159.000,4144.3520,N,06959.5671,W,2,09,1.00,5.6,M,-34.3,M,0000,0000*5F 
206.090         GPS_NMEA_FROM_GPS    iGPS            $GPGGA,192200.000,4144.3518,N,06959.5673,W,2,09,1.00,5.6,M,-34.3,M,0000,0000*59 
207.193         GPS_NMEA_FROM_GPS    iGPS            $GPGGA,192201.000,4144.3515,N,06959.5675,W,2,10,0.94,5.5,M,-34.3,M,0000,0000*54 
208.196         GPS_NMEA_FROM_GPS    iGPS            $GPGGA,192202.000,4144.3513,N,06959.5677,W,2,10,0.94,5.5,M,-34.3,M,0000,0000*53 
208.998         GPS_NMEA_FROM_GPS    iGPS            $GPGGA,192203.000,4144.3511,N,06959.5678,W,2,09,1.00,5.4,M,-34.3,M,0000,0000*5A 
210.101         GPS_NMEA_FROM_GPS    iGPS            $GPGGA,192204.000,4144.3508,N,06959.5680,W,2,09,1.00,5.4,M,-34.3,M,0000,0000*52 
211.004         GPS_NMEA_FROM_GPS    iGPS            $GPGGA,192205.000,4144.3506,N,06959.5682,W,2,08,1.20,5.3,M,-34.3,M,0000,0000*5B 
212.006         GPS_NMEA_FROM_GPS    iGPS            $GPGGA,192206.000,4144.3505,N,06959.5685,W,2,09,1.01,5.3,M,-34.3,M,0000,0000*5E 
213.109         GPS_NMEA_FROM_GPS    iGPS            $GPGGA,192207.000,4144.3503,N,06959.5687,W,2,09,1.00,5.2,M,-34.3,M,0000,0000*5B 
214.111         GPS_NMEA_FROM_GPS    iGPS            $GPGGA,192208.000,4144.3501,N,06959.5689,W,2,09,1.00,5.1,M,-34.3,M,0000,0000*5B 
215.114         GPS_NMEA_FROM_GPS    iGPS            $GPGGA,192209.000,4144.3499,N,06959.5692,W,2,09,1.00,5.1,M,-34.3,M,0000,0000*50 
216.017         GPS_NMEA_FROM_GPS    iGPS            $GPGGA,192210.000,4144.3497,N,06959.5694,W,2,09,1.00,5.0,M,-34.3,M,0000,0000*51 
217.019         GPS_NMEA_FROM_GPS    iGPS            $GPGGA,192211.000,4144.3495,N,06959.5697,W,2,08,1.11,5.0,M,-34.3,M,0000,0000*50 
218.022         GPS_NMEA_FROM_GPS    iGPS            $GPGGA,192212.000,4144.3493,N,06959.5699,W,2,09,1.00,5.0,M,-34.3,M,0000,0000*5A 
219.125         GPS_NMEA_FROM_GPS    iGPS            $GPRMC,192213.000,A,4144.3491,N,06959.5701,W,0.75,209.08,300321,,,D*7B 
220.027         GPS_NMEA_FROM_GPS    iGPS            $GPGGA,192214.000,4144.3489,N,06959.5703,W,2,08,1.11,5.0,M,-34.3,M,0000,0000*54 
221.130         GPS_NMEA_FROM_GPS    iGPS            $GPRMC,192215.000,A,4144.3486,N,06959.5704,W,0.78,206.05,300321,,,D*71 
222.132         GPS_NMEA_FROM_GPS    iGPS            $GPRMC,192216.000,A,4144.3484,N,06959.5706,W,0.77,204.29,300321,,,D*71 
223.034         GPS_NMEA_FROM_GPS    iGPS            $GPGGA,192217.000,4144.3482,N,06959.5707,W,2,08,1.11,5.0,M,-34.3,M,0000,0000*58 
224.137         GPS_NMEA_FROM_GPS    iGPS            $GPRMC,192218.000,A,4144.3479,N,06959.5709,W,0.77,202.72,300321,,,D*7A 
225.140         GPS_NMEA_FROM_GPS    iGPS            $GPGGA,192219.000,4144.3477,N,06959.5711,W,2,09,1.00,5.0,M,-34.3,M,0000,0000*5A 
226.043         GPS_NMEA_FROM_GPS    iGPS            $GPGGA,192220.000,4144.3474,N,06959.5712,W,2,09,1.00,5.0,M,-34.3,M,0000,0000*50 
227.044         GPS_NMEA_FROM_GPS    iGPS            $GPGGA,192221.000,4144.3472,N,06959.5714,W,2,08,1.11,5.0,M,-34.3,M,0000,0000*50 
228.047         GPS_NMEA_FROM_GPS    iGPS            $GPGGA,192222.000,4144.3469,N,06959.5716,W,2,08,1.11,5.0,M,-34.3,M,0000,0000*5B 
229.049         GPS_NMEA_FROM_GPS    iGPS            $GPGGA,192223.000,4144.3467,N,06959.5718,W,2,08,1.11,5.0,M,-34.3,M,0000,0000*5A 
230.052         GPS_NMEA_FROM_GPS    iGPS            $GPGGA,192224.000,4144.3465,N,06959.5719,W,2,08,1.11,4.9,M,-34.3,M,0000,0000*56 
231.055         GPS_NMEA_FROM_GPS    iGPS            $GPGGA,192225.000,4144.3462,N,06959.5721,W,2,09,1.00,4.8,M,-34.3,M,0000,0000*5B 
232.158         GPS_NMEA_FROM_GPS    iGPS            $GPRMC,192226.000,A,4144.3460,N,06959.5722,W,0.77,200.83,300321,,,D*7A 
233.060         GPS_NMEA_FROM_GPS    iGPS            $GPRMC,192227.000,A,4144.3458,N,06959.5724,W,0.79,201.29,300321,,,D*79 
234.062         GPS_NMEA_FROM_GPS    iGPS            $GPGGA,192228.000,4144.3455,N,06959.5725,W,2,08,1.11,4.9,M,-34.3,M,0000,0000*56 
235.065         GPS_NMEA_FROM_GPS    iGPS            $GPGGA,192229.000,4144.3453,N,06959.5727,W,2,09,1.00,4.9,M,-34.3,M,0000,0000*52 
236.067         GPS_NMEA_FROM_GPS    iGPS            $GPGGA,192230.000,4144.3450,N,06959.5728,W,2,09,1.00,4.9,M,-34.3,M,0000,0000*56 
237.070         GPS_NMEA_FROM_GPS    iGPS            $GPGGA,192231.000,4144.3449,N,06959.5730,W,2,09,1.00,5.0,M,-34.3,M,0000,0000*5E 
238.073         GPS_NMEA_FROM_GPS    iGPS            $GPGGA,192232.000,4144.3447,N,06959.5732,W,2,09,1.00,5.1,M,-34.3,M,0000,0000*50 
238.975         GPS_NMEA_FROM_GPS    iGPS            $GPGGA,192233.000,4144.3445,N,06959.5733,W,2,09,1.01,5.1,M,-34.3,M,0000,0000*53 
240.078         GPS_NMEA_FROM_GPS    iGPS            $GPGGA,192234.000,4144.3443,N,06959.5733,W,2,10,0.94,5.1,M,-34.3,M,0000,0000*57 
241.182         GPS_NMEA_FROM_GPS    iGPS            $GPGGA,192235.000,4144.3442,N,06959.5733,W,2,10,0.94,5.0,M,-34.3,M,0000,0000*56 
242.084         GPS_NMEA_FROM_GPS    iGPS            $GPGGA,192236.000,4144.3440,N,06959.5733,W,2,10,0.94,4.9,M,-34.3,M,0000,0000*5F 
243.187         GPS_NMEA_FROM_GPS    iGPS            $GPGGA,192237.000,4144.3438,N,06959.5731,W,2,10,0.95,4.8,M,-34.3,M,0000,0000*53 
244.189         GPS_NMEA_FROM_GPS    iGPS            $GPGGA,192238.000,4144.3436,N,06959.5730,W,2,10,0.94,4.7,M,-34.3,M,0000,0000*5D 
245.192         GPS_NMEA_FROM_GPS    iGPS            $GPGGA,192239.000,4144.3434,N,06959.5728,W,2,10,0.94,4.6,M,-34.3,M,0000,0000*56 
246.095         GPS_NMEA_FROM_GPS    iGPS            $GPGGA,192240.000,4144.3432,N,06959.5725,W,2,10,0.95,4.6,M,-34.3,M,0000,0000*52 
247.197         GPS_NMEA_FROM_GPS    iGPS            $GPGGA,192241.000,4144.3431,N,06959.5723,W,2,10,0.94,4.4,M,-34.3,M,0000,0000*55 
248.200         GPS_NMEA_FROM_GPS    iGPS            $GPGGA,192242.000,4144.3430,N,06959.5721,W,2,10,0.94,4.2,M,-34.3,M,0000,0000*53 
249.202         GPS_NMEA_FROM_GPS    iGPS            $GPGGA,192243.000,4144.3429,N,06959.5719,W,2,10,0.94,4.2,M,-34.3,M,0000,0000*51 
250.205         GPS_NMEA_FROM_GPS    iGPS            $GPGGA,192244.000,4144.3427,N,06959.5717,W,2,10,0.94,4.2,M,-34.3,M,0000,0000*56 
251.107         GPS_NMEA_FROM_GPS    iGPS            $GPGGA,192245.000,4144.3426,N,06959.5715,W,2,10,0.95,4.2,M,-34.3,M,0000,0000*55 
252.210         GPS_NMEA_FROM_GPS    iGPS            $GPRMC,192246.000,A,4144.3424,N,06959.5713,W,0.72,125.96,300321,,,D*7B 
253.213         GPS_NMEA_FROM_GPS    iGPS            $GPRMC,192247.000,A,4144.3423,N,06959.5711,W,0.79,126.81,300321,,,D*71 
254.215         GPS_NMEA_FROM_GPS    iGPS            $GPRMC,192248.000,A,4144.3421,N,06959.5708,W,0.82,127.43,300321,,,D*7F 
255.217         GPS_NMEA_FROM_GPS    iGPS            $GPGGA,192249.000,4144.3420,N,06959.5705,W,2,10,0.94,3.9,M,-34.3,M,0000,0000*53 
256.219         GPS_NMEA_FROM_GPS    iGPS            $GPGGA,192250.000,4144.3418,N,06959.5703,W,2,10,0.94,3.8,M,-34.3,M,0000,0000*57 
257.122         GPS_NMEA_FROM_GPS    iGPS            $GPGGA,192251.000,4144.3416,N,06959.5701,W,2,10,0.94,3.7,M,-34.3,M,0000,0000*55 
258.125         GPS_NMEA_FROM_GPS    iGPS            $GPGGA,192252.000,4144.3415,N,06959.5698,W,2,09,1.00,3.6,M,-34.3,M,0000,0000*51 
259.028         GPS_NMEA_FROM_GPS    iGPS            $GPGGA,192253.000,4144.3413,N,06959.5696,W,2,10,0.94,3.6,M,-34.3,M,0000,0000*5C 
260.030         GPS_NMEA_FROM_GPS    iGPS            $GPGGA,192254.000,4144.3412,N,06959.5695,W,2,10,0.94,3.6,M,-34.3,M,0000,0000*59 
261.033         GPS_NMEA_FROM_GPS    iGPS            $GPGGA,192255.000,4144.3410,N,06959.5693,W,2,09,1.00,3.6,M,-34.3,M,0000,0000*58 
262.236         GPS_NMEA_FROM_GPS    iGPS            $GPRMC,192256.000,A,4144.3408,N,06959.5692,W,0.66,133.82,300321,,,D*7B 
263.138         GPS_NMEA_FROM_GPS    iGPS            $GPGGA,192257.000,4144.3406,N,06959.5689,W,2,10,0.94,3.4,M,-34.3,M,0000,0000*50 
264.040         GPS_NMEA_FROM_GPS    iGPS            $GPGGA,192258.000,4144.3405,N,06959.5686,W,2,09,1.00,3.3,M,-34.3,M,0000,0000*50 
265.143         GPS_NMEA_FROM_GPS    iGPS            $GPRMC,192259.000,A,4144.3404,N,06959.5684,W,0.70,122.05,300321,,,D*77 
266.145         GPS_NMEA_FROM_GPS    iGPS            $GPRMC,192300.000,A,4144.3403,N,06959.5681,W,0.79,117.22,300321,,,D*72 
267.047         GPS_NMEA_FROM_GPS    iGPS            $GPGGA,192301.000,4144.3402,N,06959.5678,W,2,09,1.00,3.1,M,-34.3,M,0000,0000*59 
268.050         GPS_NMEA_FROM_GPS    iGPS            $GPGGA,192302.000,4144.3402,N,06959.5675,W,2,09,1.00,3.1,M,-34.3,M,0000,0000*57 
269.053         GPS_NMEA_FROM_GPS    iGPS            $GPGGA,192303.000,4144.3401,N,06959.5671,W,2,09,1.00,3.0,M,-34.3,M,0000,0000*50 
270.156         GPS_NMEA_FROM_GPS    iGPS            $GPRMC,192304.000,A,4144.3400,N,06959.5668,W,0.80,106.69,300321,,,D*7B 
271.259         GPS_NMEA_FROM_GPS    iGPS            $GPRMC,192305.000,A,4144.3399,N,06959.5665,W,0.79,106.86,300321,,,D*77 
272.161         GPS_NMEA_FROM_GPS    iGPS            $GPGGA,192306.000,4144.3399,N,06959.5662,W,2,10,0.94,2.9,M,-34.3,M,0000,0000*5D 
273.264         GPS_NMEA_FROM_GPS    iGPS            $GPRMC,192307.000,A,4144.3398,N,06959.5659,W,0.82,108.21,300321,,,D*7C 
274.166         GPS_NMEA_FROM_GPS    iGPS            $GPGGA,192308.000,4144.3396,N,06959.5657,W,2,10,0.94,3.0,M,-34.3,M,0000,0000*52 
275.168         GPS_NMEA_FROM_GPS    iGPS            $GPGGA,192309.000,4144.3395,N,06959.5655,W,2,10,0.94,2.9,M,-34.3,M,0000,0000*5A 
276.071         GPS_NMEA_FROM_GPS    iGPS            $GPGGA,192310.000,4144.3393,N,06959.5652,W,2,10,0.94,2.9,M,-34.3,M,0000,0000*53 
277.174         GPS_NMEA_FROM_GPS    iGPS            $GPRMC,192311.000,A,4144.3392,N,06959.5650,W,0.78,118.56,300321,,,D*7C 
278.176         GPS_NMEA_FROM_GPS    iGPS            $GPGGA,192312.000,4144.3390,N,06959.5648,W,2,10,0.94,2.9,M,-34.3,M,0000,0000*59 
279.279         GPS_NMEA_FROM_GPS    iGPS            $GPRMC,192313.000,A,4144.3389,N,06959.5646,W,0.70,121.27,300321,,,D*77 
280.181         GPS_NMEA_FROM_GPS    iGPS            $GPGGA,192314.000,4144.3387,N,06959.5644,W,2,10,0.94,2.9,M,-34.3,M,0000,0000*55 
281.184         GPS_NMEA_FROM_GPS    iGPS            $GPGGA,192315.000,4144.3386,N,06959.5641,W,2,10,0.94,2.8,M,-34.3,M,0000,0000*51 
282.186         GPS_NMEA_FROM_GPS    iGPS            $GPRMC,192316.000,A,4144.3384,N,06959.5639,W,0.70,121.40,300321,,,D*76 
283.189         GPS_NMEA_FROM_GPS    iGPS            $GPGGA,192317.000,4144.3383,N,06959.5637,W,2,10,0.94,2.8,M,-34.3,M,0000,0000*57 
284.091         GPS_NMEA_FROM_GPS    iGPS            $GPGGA,192318.000,4144.3382,N,06959.5634,W,2,10,0.94,2.9,M,-34.3,M,0000,0000*5B 
285.094         GPS_NMEA_FROM_GPS    iGPS            $GPGGA,192319.000,4144.3381,N,06959.5632,W,2,10,0.94,3.0,M,-34.3,M,0000,0000*57 
285.695         GPS_NMEA_FROM_GPS    iGPS            $GPGGA,192320.000,4144.3380,N,06959.5630,W,2,10,0.94,3.1,M,-34.3,M,0000,0000*5F 
286.698         GPS_NMEA_FROM_GPS    iGPS            $GPGGA,192321.000,4144.3379,N,06959.5628,W,2,10,0.94,3.2,M,-34.3,M,0000,0000*52 
287.701         GPS_NMEA_FROM_GPS    iGPS            $GPGGA,192322.000,4144.3379,N,06959.5625,W,2,10,0.94,3.2,M,-34.3,M,0000,0000*5C 
288.703         GPS_NMEA_FROM_GPS    iGPS            $GPGGA,192323.000,4144.3379,N,06959.5622,W,2,10,0.94,3.4,M,-34.3,M,0000,0000*5C 
289.706         GPS_NMEA_FROM_GPS    iGPS            $GPGGA,192324.000,4144.3378,N,06959.5619,W,2,10,0.94,3.5,M,-34.3,M,0000,0000*53 
290.709         GPS_NMEA_FROM_GPS    iGPS            $GPGGA,192325.000,4144.3378,N,06959.5616,W,2,10,0.94,3.6,M,-34.3,M,0000,0000*5E 
291.711         GPS_NMEA_FROM_GPS    iGPS            $GPGGA,192326.000,4144.3379,N,06959.5613,W,2,10,0.94,3.7,M,-34.3,M,0000,0000*58 
292.714         GPS_NMEA_FROM_GPS    iGPS            $GPGGA,192327.000,4144.3379,N,06959.5610,W,2,10,0.94,3.8,M,-34.3,M,0000,0000*55 
293.716         GPS_NMEA_FROM_GPS    iGPS            $GPGGA,192328.000,4144.3380,N,06959.5607,W,2,10,0.94,3.9,M,-34.3,M,0000,0000*5B 
294.719         GPS_NMEA_FROM_GPS    iGPS            $GPGGA,192329.000,4144.3380,N,06959.5604,W,2,09,1.00,4.0,M,-34.3,M,0000,0000*53 
295.722         GPS_NMEA_FROM_GPS    iGPS            $GPGGA,192330.000,4144.3381,N,06959.5602,W,2,10,0.94,4.1,M,-34.3,M,0000,0000*59 
296.725         GPS_NMEA_FROM_GPS    iGPS            $GPGGA,192331.000,4144.3381,N,06959.5599,W,2,09,1.00,4.2,M,-34.3,M,0000,0000*5E 
297.728         GPS_NMEA_FROM_GPS    iGPS            $GPGGA,192332.000,4144.3381,N,06959.5596,W,2,09,1.00,4.3,M,-34.3,M,0000,0000*53 
298.730         GPS_NMEA_FROM_GPS    iGPS            $GPRMC,192333.000,A,4144.3381,N,06959.5593,W,0.75,93.69,300321,,,D*41 
299.733         GPS_NMEA_FROM_GPS    iGPS            $GPGGA,192334.000,4144.3381,N,06959.5591,W,2,10,0.94,4.4,M,-34.3,M,0000,0000*51 
300.736         GPS_NMEA_FROM_GPS    iGPS            $GPGGA,192335.000,4144.3381,N,06959.5588,W,2,10,0.94,4.4,M,-34.3,M,0000,0000*58 
301.738         GPS_NMEA_FROM_GPS    iGPS            $GPGGA,192336.000,4144.3380,N,06959.5585,W,2,10,0.94,4.4,M,-34.3,M,0000,0000*57 
302.741         GPS_NMEA_FROM_GPS    iGPS            $GPGGA,192337.000,4144.3380,N,06959.5583,W,2,10,0.94,4.3,M,-34.3,M,0000,0000*57 
303.744         GPS_NMEA_FROM_GPS    iGPS            $GPRMC,192338.000,A,4144.3380,N,06959.5580,W,0.72,102.20,300321,,,D*7A 
304.746         GPS_NMEA_FROM_GPS    iGPS            $GPGGA,192339.000,4144.3379,N,06959.5578,W,2,10,0.94,4.3,M,-34.3,M,0000,0000*5B 
305.749         GPS_NMEA_FROM_GPS    iGPS            $GPRMC,192340.000,A,4144.3379,N,06959.5576,W,0.70,103.47,300321,,,D*78 
306.752         GPS_NMEA_FROM_GPS    iGPS            $GPRMC,192341.000,A,4144.3379,N,06959.5573,W,0.70,102.85,300321,,,D*73 
307.754         GPS_NMEA_FROM_GPS    iGPS            $GPRMC,192342.000,A,4144.3378,N,06959.5571,W,0.71,102.03,300321,,,D*7C 
308.656         GPS_NMEA_FROM_GPS    iGPS            $GPGGA,192343.000,4144.3378,N,06959.5569,W,2,09,1.00,4.4,M,-34.3,M,0000,0000*54 
309.659         GPS_NMEA_FROM_GPS    iGPS            $GPGGA,192344.000,4144.3378,N,06959.5566,W,2,09,1.00,4.5,M,-34.3,M,0000,0000*5D 
310.762         GPS_NMEA_FROM_GPS    iGPS            $GPRMC,192345.000,A,4144.3378,N,06959.5564,W,0.75,98.00,300321,,,D*4A 
311.764         GPS_NMEA_FROM_GPS    iGPS            $GPRMC,192346.000,A,4144.3378,N,06959.5561,W,0.76,97.44,300321,,,D*40 
312.666         GPS_NMEA_FROM_GPS    iGPS            $GPGGA,192347.000,4144.3378,N,06959.5559,W,2,09,1.00,4.7,M,-34.3,M,0000,0000*50 
314.069         GPS_NMEA_FROM_GPS    iGPS            $GPGGA,192348.000,4144.3377,N,06959.5556,W,2,09,1.00,4.8,M,-34.3,M,0000,0000*50 
315.072         GPS_NMEA_FROM_GPS    iGPS            $GPGGA,192349.000,4144.3377,N,06959.5554,W,2,09,1.00,4.9,M,-34.3,M,0000,0000*52 
315.974         GPS_NMEA_FROM_GPS    iGPS            $GPGGA,192350.000,4144.3377,N,06959.5551,W,2,09,1.00,5.0,M,-34.3,M,0000,0000*57 
317.077         GPS_NMEA_FROM_GPS    iGPS            $GPGGA,192351.000,4144.3376,N,06959.5548,W,2,09,1.00,5.1,M,-34.3,M,0000,0000*5E 
317.980         GPS_NMEA_FROM_GPS    iGPS            $GPGGA,192352.000,4144.3376,N,06959.5545,W,2,09,1.00,5.2,M,-34.3,M,0000,0000*53 
319.083         GPS_NMEA_FROM_GPS    iGPS            $GPGGA,192353.000,4144.3376,N,06959.5543,W,2,09,1.00,5.2,M,-34.3,M,0000,0000*54 
320.085         GPS_NMEA_FROM_GPS    iGPS            $GPGGA,192354.000,4144.3376,N,06959.5540,W,2,09,1.00,5.3,M,-34.3,M,0000,0000*51 
321.088         GPS_NMEA_FROM_GPS    iGPS            $GPGGA,192355.000,4144.3375,N,06959.5537,W,2,09,1.00,5.4,M,-34.3,M,0000,0000*54 
322.091         GPS_NMEA_FROM_GPS    iGPS            $GPGGA,192356.000,4144.3375,N,06959.5534,W,2,09,1.00,5.5,M,-34.3,M,0000,0000*55 
323.094         GPS_NMEA_FROM_GPS    iGPS            $GPRMC,192357.000,A,4144.3375,N,06959.5532,W,0.75,96.16,300321,,,D*4E 
323.995         GPS_NMEA_FROM_GPS    iGPS            $GPGGA,192358.000,4144.3375,N,06959.5529,W,2,09,1.00,5.7,M,-34.3,M,0000,0000*55 
324.998         GPS_NMEA_FROM_GPS    iGPS            $GPGGA,192359.000,4144.3375,N,06959.5526,W,2,09,1.00,5.8,M,-34.3,M,0000,0000*54 
326.000         GPS_NMEA_FROM_GPS    iGPS            $GPGGA,192400.000,4144.3375,N,06959.5523,W,2,09,1.00,5.8,M,-34.3,M,0000,0000*5A 
327.103         GPS_NMEA_FROM_GPS    iGPS            $GPGGA,192401.000,4144.3375,N,06959.5520,W,2,10,0.94,5.9,M,-34.3,M,0000,0000*5D 
328.106         GPS_NMEA_FROM_GPS    iGPS            $GPRMC,192402.000,A,4144.3375,N,06959.5517,W,0.80,95.46,300321,,,D*42 
329.108         GPS_NMEA_FROM_GPS    iGPS            $GPGGA,192403.000,4144.3375,N,06959.5515,W,2,09,1.00,5.9,M,-34.3,M,0000,0000*5D 
330.111         GPS_NMEA_FROM_GPS    iGPS            $GPRMC,192404.000,A,4144.3375,N,06959.5512,W,0.80,95.33,300321,,,D*43 
331.013         GPS_NMEA_FROM_GPS    iGPS            $GPGGA,192405.000,4144.3375,N,06959.5509,W,2,09,1.00,6.0,M,-34.3,M,0000,0000*5C 
332.116         GPS_NMEA_FROM_GPS    iGPS            $GPRMC,192406.000,A,4144.3375,N,06959.5507,W,0.81,94.60,300321,,,D*43 
333.018         GPS_NMEA_FROM_GPS    iGPS            $GPGGA,192407.000,4144.3375,N,06959.5504,W,2,09,1.00,6.1,M,-34.3,M,0000,0000*52 
334.121         GPS_NMEA_FROM_GPS    iGPS            $GPRMC,192408.000,A,4144.3374,N,06959.5501,W,0.79,94.65,300321,,,D*48 
335.023         GPS_NMEA_FROM_GPS    iGPS            $GPGGA,192409.000,4144.3374,N,06959.5498,W,2,08,1.11,6.3,M,-34.3,M,0000,0000*5A 
336.126         GPS_NMEA_FROM_GPS    iGPS            $GPRMC,192410.000,A,4144.3374,N,06959.5495,W,0.76,95.10,300321,,,D*41 
337.028         GPS_NMEA_FROM_GPS    iGPS            $GPGGA,192411.000,4144.3374,N,06959.5493,W,2,08,1.11,6.4,M,-34.3,M,0000,0000*5F 
338.031         GPS_NMEA_FROM_GPS    iGPS            $GPRMC,192412.000,A,4144.3374,N,06959.5490,W,0.77,95.39,300321,,,D*4C 
339.033         GPS_NMEA_FROM_GPS    iGPS            $GPGGA,192413.000,4144.3374,N,06959.5487,W,2,08,1.11,6.5,M,-34.3,M,0000,0000*59 
340.036         GPS_NMEA_FROM_GPS    iGPS            $GPGGA,192414.000,4144.3374,N,06959.5484,W,2,08,1.11,6.5,M,-34.3,M,0000,0000*5D 
341.038         GPS_NMEA_FROM_GPS    iGPS            $GPRMC,192415.000,A,4144.3374,N,06959.5481,W,0.77,94.63,300321,,,D*45 
342.041         GPS_NMEA_FROM_GPS    iGPS            $GPGGA,192416.000,4144.3374,N,06959.5478,W,2,08,1.11,6.6,M,-34.3,M,0000,0000*5F 
343.144         GPS_NMEA_FROM_GPS    iGPS            $GPRMC,192417.000,A,4144.3374,N,06959.5474,W,0.79,93.88,300321,,,D*41 
344.046         GPS_NMEA_FROM_GPS    iGPS            $GPGGA,192418.000,4144.3374,N,06959.5471,W,2,09,1.04,6.7,M,-34.3,M,0000,0000*5C 
345.049         GPS_NMEA_FROM_GPS    iGPS            $GPGGA,192419.000,4144.3374,N,06959.5468,W,2,09,1.04,6.8,M,-34.3,M,0000,0000*5A 
346.051         GPS_NMEA_FROM_GPS    iGPS            $GPRMC,192420.000,A,4144.3374,N,06959.5465,W,0.78,93.88,300321,,,D*44 
346.953         GPS_NMEA_FROM_GPS    iGPS            $GPGGA,192421.000,4144.3374,N,06959.5462,W,2,08,1.11,6.9,M,-34.3,M,0000,0000*5F 
348.056         GPS_NMEA_FROM_GPS    iGPS            $GPGGA,192422.000,4144.3374,N,06959.5459,W,2,08,1.11,6.9,M,-34.3,M,0000,0000*54 
349.059         GPS_NMEA_FROM_GPS    iGPS            $GPRMC,192423.000,A,4144.3374,N,06959.5456,W,0.78,93.41,300321,,,D*42 
350.061         GPS_NMEA_FROM_GPS    iGPS            $GPGGA,192424.000,4144.3374,N,06959.5454,W,2,08,1.11,7.0,M,-34.3,M,0000,0000*57 
351.064         GPS_NMEA_FROM_GPS    iGPS            $GPGGA,192425.000,4144.3374,N,06959.5451,W,2,08,1.11,7.1,M,-34.3,M,0000,0000*52 
352.066         GPS_NMEA_FROM_GPS    iGPS            $GPGGA,192426.000,4144.3374,N,06959.5448,W,2,09,1.04,7.1,M,-34.3,M,0000,0000*5C 
353.169         GPS_NMEA_FROM_GPS    iGPS            $GPRMC,192427.000,A,4144.3374,N,06959.5445,W,0.78,92.56,300321,,,D*43 
354.172         GPS_NMEA_FROM_GPS    iGPS            $GPRMC,192428.000,A,4144.3374,N,06959.5442,W,0.79,92.51,300321,,,D*4D 
354.974         GPS_NMEA_FROM_GPS    iGPS            $GPGGA,192429.000,4144.3374,N,06959.5439,W,2,09,1.00,7.2,M,-34.3,M,0000,0000*52 
356.077         GPS_NMEA_FROM_GPS    iGPS            $GPGGA,192430.000,4144.3374,N,06959.5436,W,2,09,1.00,7.2,M,-34.3,M,0000,0000*55 
357.079         GPS_NMEA_FROM_GPS    iGPS            $GPGGA,192431.000,4144.3374,N,06959.5433,W,2,10,0.94,7.3,M,-34.3,M,0000,0000*54 
358.082         GPS_NMEA_FROM_GPS    iGPS            $GPGGA,192432.000,4144.3374,N,06959.5430,W,2,10,0.94,7.3,M,-34.3,M,0000,0000*54 
359.085         GPS_NMEA_FROM_GPS    iGPS            $GPRMC,192433.000,A,4144.3374,N,06959.5427,W,0.78,92.71,300321,,,D*47 
359.987         GPS_NMEA_FROM_GPS    iGPS            $GPGGA,192434.000,4144.3374,N,06959.5424,W,2,08,1.11,7.5,M,-34.3,M,0000,0000*54 
361.090         GPS_NMEA_FROM_GPS    iGPS            $GPRMC,192435.000,A,4144.3374,N,06959.5421,W,0.79,92.67,300321,,,D*41 
361.992         GPS_NMEA_FROM_GPS    iGPS            $GPGGA,192436.000,4144.3374,N,06959.5418,W,2,08,1.11,7.6,M,-34.3,M,0000,0000*5A 
362.995         GPS_NMEA_FROM_GPS    iGPS            $GPGGA,192437.000,4144.3374,N,06959.5415,W,2,08,1.11,7.6,M,-34.3,M,0000,0000*56 
363.997         GPS_NMEA_FROM_GPS    iGPS            $GPGGA,192438.000,4144.3374,N,06959.5412,W,2,08,1.11,7.6,M,-34.3,M,0000,0000*5E 
365.100         GPS_NMEA_FROM_GPS    iGPS            $GPGGA,192439.000,4144.3374,N,06959.5409,W,2,08,1.11,7.7,M,-34.3,M,0000,0000*54 
366.003         GPS_NMEA_FROM_GPS    iGPS            $GPGGA,192440.000,4144.3374,N,06959.5406,W,2,08,1.11,7.7,M,-34.3,M,0000,0000*55 
367.006         GPS_NMEA_FROM_GPS    iGPS            $GPGGA,192441.000,4144.3374,N,06959.5403,W,2,08,1.11,7.7,M,-34.3,M,0000,0000*51 
368.009         GPS_NMEA_FROM_GPS    iGPS            $GPGGA,192442.000,4144.3374,N,06959.5400,W,2,08,1.11,7.8,M,-34.3,M,0000,0000*5E 
369.011         GPS_NMEA_FROM_GPS    iGPS            $GPGGA,192443.000,4144.3374,N,06959.5397,W,2,08,1.11,7.8,M,-34.3,M,0000,0000*56 
370.014         GPS_NMEA_FROM_GPS    iGPS            $GPGGA,192444.000,4144.3374,N,06959.5394,W,2,08,1.11,7.9,M,-34.3,M,0000,0000*53 
371.117         GPS_NMEA_FROM_GPS    iGPS            $GPRMC,192445.000,A,4144.3374,N,06959.5391,W,0.77,92.58,300321,,,D*48 
372.019         GPS_NMEA_FROM_GPS    iGPS            $GPGGA,192446.000,4144.3374,N,06959.5389,W,2,08,1.11,7.9,M,-34.3,M,0000,0000*5D 
373.022         GPS_NMEA_FROM_GPS    iGPS            $GPRMC,192447.000,A,4144.3374,N,06959.5386,W,0.77,93.10,300321,,,D*41 
374.025         GPS_NMEA_FROM_GPS    iGPS            $GPGGA,192448.000,4144.3374,N,06959.5383,W,2,08,1.11,8.1,M,-34.3,M,0000,0000*5E 
375.027         GPS_NMEA_FROM_GPS    iGPS            $GPGGA,192449.000,4144.3374,N,06959.5381,W,2,08,1.11,8.1,M,-34.3,M,0000,0000*5D 
376.030         GPS_NMEA_FROM_GPS    iGPS            $GPGGA,192450.000,4144.3373,N,06959.5378,W,2,08,1.11,8.2,M,-34.3,M,0000,0000*57 
377.033         GPS_NMEA_FROM_GPS    iGPS            $GPGGA,192451.000,4144.3374,N,06959.5375,W,2,08,1.11,8.2,M,-34.3,M,0000,0000*5C 
378.236         GPS_NMEA_FROM_GPS    iGPS            $GPRMC,192452.000,A,4144.3374,N,06959.5372,W,0.74,92.31,300321,,,D*4F 
379.138         GPS_NMEA_FROM_GPS    iGPS            $GPGGA,192453.000,4144.3374,N,06959.5369,W,2,09,1.04,8.3,M,-34.3,M,0000,0000*57 
380.241         GPS_NMEA_FROM_GPS    iGPS            $GPRMC,192454.000,A,4144.3374,N,06959.5366,W,0.78,90.47,300321,,,D*43 
381.143         GPS_NMEA_FROM_GPS    iGPS            $GPGGA,192455.000,4144.3374,N,06959.5363,W,2,09,1.04,8.3,M,-34.3,M,0000,0000*5B 
382.146         GPS_NMEA_FROM_GPS    iGPS            $GPGGA,192456.000,4144.3375,N,06959.5360,W,2,09,1.04,8.3,M,-34.3,M,0000,0000*5A 
383.148         GPS_NMEA_FROM_GPS    iGPS            $GPGGA,192457.000,4144.3375,N,06959.5357,W,2,10,0.94,8.2,M,-34.3,M,0000,0000*5E 
384.251         GPS_NMEA_FROM_GPS    iGPS            $GPRMC,192458.000,A,4144.3376,N,06959.5354,W,0.75,84.55,300321,,,D*47 
385.153         GPS_NMEA_FROM_GPS    iGPS            $GPGGA,192459.000,4144.3377,N,06959.5351,W,2,10,0.94,8.0,M,-34.3,M,0000,0000*56 
386.155         GPS_NMEA_FROM_GPS    iGPS            $GPGGA,192500.000,4144.3377,N,06959.5348,W,2,10,0.94,7.8,M,-34.3,M,0000,0000*54 
387.259         GPS_NMEA_FROM_GPS    iGPS            $GPRMC,192501.000,A,4144.3378,N,06959.5345,W,0.76,79.13,300321,,,D*47 
388.262         GPS_NMEA_FROM_GPS    iGPS            $GPRMC,192502.000,A,4144.3379,N,06959.5342,W,0.79,77.85,300321,,,D*4C 
389.163         GPS_NMEA_FROM_GPS    iGPS            $GPGGA,192503.000,4144.3379,N,06959.5338,W,2,09,1.04,7.5,M,-34.3,M,0000,0000*53 
390.166         GPS_NMEA_FROM_GPS    iGPS            $GPGGA,192504.000,4144.3380,N,06959.5335,W,2,09,1.04,7.5,M,-34.3,M,0000,0000*5F 
391.169         GPS_NMEA_FROM_GPS    iGPS            $GPGGA,192505.000,4144.3381,N,06959.5332,W,2,09,1.04,7.4,M,-34.3,M,0000,0000*59 
392.171         GPS_NMEA_FROM_GPS    iGPS            $GPGGA,192506.000,4144.3382,N,06959.5329,W,2,09,1.04,7.4,M,-34.3,M,0000,0000*53 
393.174         GPS_NMEA_FROM_GPS    iGPS            $GPGGA,192507.000,4144.3382,N,06959.5326,W,2,09,1.04,7.3,M,-34.3,M,0000,0000*5A 
394.177         GPS_NMEA_FROM_GPS    iGPS            $GPRMC,192508.000,A,4144.3383,N,06959.5323,W,0.78,76.69,300321,,,D*46 
395.179         GPS_NMEA_FROM_GPS    iGPS            $GPGGA,192509.000,4144.3383,N,06959.5320,W,2,10,0.94,7.3,M,-34.3,M,0000,0000*53 
396.181         GPS_NMEA_FROM_GPS    iGPS            $GPGGA,192510.000,4144.3384,N,06959.5317,W,2,10,0.94,7.2,M,-34.3,M,0000,0000*59 
397.184         GPS_NMEA_FROM_GPS    iGPS            $GPGGA,192511.000,4144.3384,N,06959.5314,W,2,09,1.04,7.2,M,-34.3,M,0000,0000*5B 
398.187         GPS_NMEA_FROM_GPS    iGPS            $GPGGA,192512.000,4144.3385,N,06959.5311,W,2,10,0.94,7.1,M,-34.3,M,0000,0000*5F 
399.190         GPS_NMEA_FROM_GPS    iGPS            $GPGGA,192513.000,4144.3385,N,06959.5308,W,2,10,0.94,7.1,M,-34.3,M,0000,0000*56 
400.192         GPS_NMEA_FROM_GPS    iGPS            $GPGGA,192514.000,4144.3386,N,06959.5305,W,2,10,0.94,7.0,M,-34.3,M,0000,0000*5E 
401.195         GPS_NMEA_FROM_GPS    iGPS            $GPGGA,192515.000,4144.3386,N,06959.5302,W,2,10,0.94,7.0,M,-34.3,M,0000,0000*58 
402.197         GPS_NMEA_FROM_GPS    iGPS            $GPGGA,192516.000,4144.3387,N,06959.5300,W,2,09,1.04,7.0,M,-34.3,M,0000,0000*58 
403.200         GPS_NMEA_FROM_GPS    iGPS            $GPGGA,192517.000,4144.3388,N,06959.5297,W,2,09,1.04,7.0,M,-34.3,M,0000,0000*59 
404.203         GPS_NMEA_FROM_GPS    iGPS            $GPGGA,192518.000,4144.3388,N,06959.5294,W,2,10,0.99,7.0,M,-34.3,M,0000,0000*58 
405.205         GPS_NMEA_FROM_GPS    iGPS            $GPGGA,192519.000,4144.3389,N,06959.5291,W,2,10,0.99,7.0,M,-34.3,M,0000,0000*5D 
406.208         GPS_NMEA_FROM_GPS    iGPS            $GPRMC,192520.000,A,4144.3389,N,06959.5288,W,0.76,74.83,300321,,,D*4E 
407.210         GPS_NMEA_FROM_GPS    iGPS            $GPGGA,192521.000,4144.3390,N,06959.5285,W,2,10,0.94,7.0,M,-34.3,M,0000,0000*56 
408.212         GPS_NMEA_FROM_GPS    iGPS            $GPGGA,192522.000,4144.3391,N,06959.5281,W,2,11,0.89,7.0,M,-34.3,M,0000,0000*5D 
409.215         GPS_NMEA_FROM_GPS    iGPS            $GPGGA,192523.000,4144.3391,N,06959.5278,W,2,11,0.89,6.9,M,-34.3,M,0000,0000*52 
410.217         GPS_NMEA_FROM_GPS    iGPS            $GPGGA,192524.000,4144.3392,N,06959.5275,W,2,11,0.89,6.8,M,-34.3,M,0000,0000*5A 
411.120         GPS_NMEA_FROM_GPS    iGPS            $GPGGA,192525.000,4144.3393,N,06959.5272,W,2,10,0.94,6.8,M,-34.3,M,0000,0000*50 
412.223         GPS_NMEA_FROM_GPS    iGPS            $GPRMC,192526.000,A,4144.3393,N,06959.5269,W,0.77,69.92,300321,,,D*41 
413.225         GPS_NMEA_FROM_GPS    iGPS            $GPRMC,192527.000,A,4144.3394,N,06959.5266,W,0.78,68.82,300321,,,D*47 
414.228         GPS_NMEA_FROM_GPS    iGPS            $GPRMC,192528.000,A,4144.3395,N,06959.5263,W,0.78,67.99,300321,,,D*49 
415.230         GPS_NMEA_FROM_GPS    iGPS            $GPGGA,192529.000,4144.3396,N,06959.5260,W,2,10,0.94,6.7,M,-34.3,M,0000,0000*55 
416.132         GPS_NMEA_FROM_GPS    iGPS            $GPGGA,192530.000,4144.3398,N,06959.5257,W,2,10,0.94,6.6,M,-34.3,M,0000,0000*56 
417.135         GPS_NMEA_FROM_GPS    iGPS            $GPGGA,192531.000,4144.3399,N,06959.5254,W,2,10,0.94,6.5,M,-34.3,M,0000,0000*56 
418.038         GPS_NMEA_FROM_GPS    iGPS            $GPGGA,192532.000,4144.3400,N,06959.5251,W,2,09,1.04,6.5,M,-34.3,M,0000,0000*57 
419.040         GPS_NMEA_FROM_GPS    iGPS            $GPGGA,192533.000,4144.3401,N,06959.5248,W,2,09,1.04,6.5,M,-34.3,M,0000,0000*5F 
420.043         GPS_NMEA_FROM_GPS    iGPS            $GPGGA,192534.000,4144.3402,N,06959.5245,W,2,09,1.04,6.4,M,-34.3,M,0000,0000*57 
421.045         GPS_NMEA_FROM_GPS    iGPS            $GPGGA,192535.000,4144.3403,N,06959.5242,W,2,09,1.04,6.4,M,-34.3,M,0000,0000*50 
422.048         GPS_NMEA_FROM_GPS    iGPS            $GPGGA,192536.000,4144.3404,N,06959.5239,W,2,09,1.04,6.3,M,-34.3,M,0000,0000*5F 
423.151         GPS_NMEA_FROM_GPS    iGPS            $GPRMC,192537.000,A,4144.3405,N,06959.5236,W,0.81,67.12,300321,,,D*4C 
424.054         GPS_NMEA_FROM_GPS    iGPS            $GPGGA,192538.000,4144.3406,N,06959.5233,W,2,09,1.04,6.3,M,-34.3,M,0000,0000*59 
425.056         GPS_NMEA_FROM_GPS    iGPS            $GPGGA,192539.000,4144.3407,N,06959.5230,W,2,10,0.99,6.3,M,-34.3,M,0000,0000*57 
426.159         GPS_NMEA_FROM_GPS    iGPS            $GPRMC,192540.000,A,4144.3408,N,06959.5227,W,0.80,70.06,300321,,,D*43 
427.061         GPS_NMEA_FROM_GPS    iGPS            $GPGGA,192541.000,4144.3408,N,06959.5224,W,2,10,0.99,6.2,M,-34.3,M,0000,0000*53 
428.164         GPS_NMEA_FROM_GPS    iGPS            $GPRMC,192542.000,A,4144.3409,N,06959.5221,W,0.79,71.59,300321,,,D*4B 
429.167         GPS_NMEA_FROM_GPS    iGPS            $GPRMC,192543.000,A,4144.3409,N,06959.5218,W,0.72,72.05,300321,,,D*41 
430.069         GPS_NMEA_FROM_GPS    iGPS            $GPRMC,192544.000,A,4144.3410,N,06959.5215,W,0.75,72.05,300321,,,D*44 
431.071         GPS_NMEA_FROM_GPS    iGPS            $GPGGA,192545.000,4144.3411,N,06959.5212,W,2,09,1.04,6.3,M,-34.3,M,0000,0000*56 
432.074         GPS_NMEA_FROM_GPS    iGPS            $GPRMC,192546.000,A,4144.3411,N,06959.5209,W,0.76,71.27,300321,,,D*4A 
433.077         GPS_NMEA_FROM_GPS    iGPS            $GPRMC,192547.000,A,4144.3412,N,06959.5207,W,0.78,70.42,300321,,,D*4A 
434.179         GPS_NMEA_FROM_GPS    iGPS            $GPRMC,192548.000,A,4144.3413,N,06959.5204,W,0.76,69.72,300321,,,D*42 
435.182         GPS_NMEA_FROM_GPS    iGPS            $GPRMC,192549.000,A,4144.3414,N,06959.5201,W,0.78,68.96,300321,,,D*44 
436.084         GPS_NMEA_FROM_GPS    iGPS            $GPGGA,192550.000,4144.3415,N,06959.5199,W,2,09,1.04,6.2,M,-34.3,M,0000,0000*57 
437.087         GPS_NMEA_FROM_GPS    iGPS            $GPGGA,192551.000,4144.3416,N,06959.5196,W,2,10,0.99,6.2,M,-34.3,M,0000,0000*57 
438.089         GPS_NMEA_FROM_GPS    iGPS            $GPGGA,192552.000,4144.3417,N,06959.5194,W,2,10,0.99,6.1,M,-34.3,M,0000,0000*54 
439.092         GPS_NMEA_FROM_GPS    iGPS            $GPGGA,192553.000,4144.3418,N,06959.5191,W,2,10,0.99,6.1,M,-34.3,M,0000,0000*5F 
440.095         GPS_NMEA_FROM_GPS    iGPS            $GPGGA,192554.000,4144.3419,N,06959.5189,W,2,09,1.04,6.1,M,-34.3,M,0000,0000*5D 
441.097         GPS_NMEA_FROM_GPS    iGPS            $GPGGA,192555.000,4144.3420,N,06959.5186,W,2,10,0.99,6.1,M,-34.3,M,0000,0000*54 
442.100         GPS_NMEA_FROM_GPS    iGPS            $GPGGA,192556.000,4144.3421,N,06959.5183,W,2,10,0.99,6.0,M,-34.3,M,0000,0000*52 
443.103         GPS_NMEA_FROM_GPS    iGPS            $GPGGA,192557.000,4144.3422,N,06959.5180,W,2,09,1.04,6.0,M,-34.3,M,0000,0000*5E 
444.105         GPS_NMEA_FROM_GPS    iGPS            $GPGGA,192558.000,4144.3423,N,06959.5177,W,2,10,0.99,6.0,M,-34.3,M,0000,0000*55 
445.107         GPS_NMEA_FROM_GPS    iGPS            $GPGGA,192559.000,4144.3424,N,06959.5175,W,2,10,0.99,6.0,M,-34.3,M,0000,0000*51 
446.110         GPS_NMEA_FROM_GPS    iGPS            $GPRMC,192600.000,A,4144.3425,N,06959.5173,W,0.70,63.75,300321,,,D*40 
447.113         GPS_NMEA_FROM_GPS    iGPS            $GPRMC,192601.000,A,4144.3426,N,06959.5170,W,0.72,61.42,300321,,,D*45 
448.115         GPS_NMEA_FROM_GPS    iGPS            $GPRMC,192602.000,A,4144.3428,N,06959.5168,W,0.74,59.12,300321,,,D*49 
449.117         GPS_NMEA_FROM_GPS    iGPS            $GPGGA,192603.000,4144.3430,N,06959.5165,W,2,09,1.07,5.9,M,-34.3,M,0000,0000*5D 
450.119         GPS_NMEA_FROM_GPS    iGPS            $GPGGA,192604.000,4144.3431,N,06959.5163,W,2,09,1.07,5.9,M,-34.3,M,0000,0000*5D 
451.122         GPS_NMEA_FROM_GPS    iGPS            $GPRMC,192605.000,A,4144.3433,N,06959.5161,W,0.72,51.65,300321,,,D*43 
