2.771           GPS_NMEA_FROM_GPS    iGPS            $GPRMC,181310.000,A,4144.3481,N,06959.5814,W,0.05,240.71,220321,,,D*76 
3.773           GPS_NMEA_FROM_GPS    iGPS            $GPRMC,181311.000,A,4144.3481,N,06959.5814,W,0.03,286.38,220321,,,D*76 
4.776           GPS_NMEA_FROM_GPS    iGPS            $GPGGA,181312.000,4144.3481,N,06959.5814,W,2,08,1.02,11.4,M,-34.3,M,0000,0000*63 
5.779           GPS_NMEA_FROM_GPS    iGPS            $GPGGA,181313.000,4144.3481,N,06959.5814,W,2,08,1.02,11.4,M,-34.3,M,0000,0000*62 
6.781           GPS_NMEA_FROM_GPS    iGPS            $GPRMC,181314.000,A,4144.3481,N,06959.5814,W,0.03,290.06,220321,,,D*79 
7.784           GPS_NMEA_FROM_GPS    iGPS            $GPRMC,181315.000,A,4144.3481,N,06959.5814,W,0.03,299.45,220321,,,D*76 
8.786           GPS_NMEA_FROM_GPS    iGPS            $GPRMC,181316.000,A,4144.3481,N,06959.5814,W,0.02,280.93,220321,,,D*77 
9.788           GPS_NMEA_FROM_GPS    iGPS            $GPGGA,181317.000,4144.3481,N,06959.5814,W,2,08,1.02,11.4,M,-34.3,M,0000,0000*66 
10.791          GPS_NMEA_FROM_GPS    iGPS            $GPGGA,181318.000,4144.3481,N,06959.5814,W,2,08,1.02,11.4,M,-34.3,M,0000,0000*69 
11.793          GPS_NMEA_FROM_GPS    iGPS            $GPGGA,181319.000,4144.3481,N,06959.5814,W,2,08,1.02,11.4,M,-34.3,M,0000,0000*68 
11.793          GPS_NMEA_FROM_GPS    iGPS            $GPGGA,181319.000,4144.3481,N,06959.5814,W,2,08,1.02,11.4,M,-34.3,M,0000,0000*68 
12.797          GPS_NMEA_FROM_GPS    iGPS            $GPRMC,181320.000,A,4144.3480,N,06959.5816,W,0.08,236.28,220321,,,D*76 
12.797          GPS_NMEA_FROM_GPS    iGPS            $GPRMC,181320.000,A,4144.3480,N,06959.5816,W,0.08,236.28,220321,,,D*76 
13.799          GPS_NMEA_FROM_GPS    iGPS            $GPGGA,181321.000,4144.3478,N,06959.5816,W,2,08,1.02,11.4,M,-34.3,M,0000,0000*67 
14.802          GPS_NMEA_FROM_GPS    iGPS            $GPGGA,181322.000,4144.3477,N,06959.5817,W,2,08,1.02,11.5,M,-34.3,M,0000,0000*6B 
15.805          GPS_NMEA_FROM_GPS    iGPS            $GPGGA,181323.000,4144.3477,N,06959.5818,W,2,08,1.02,11.6,M,-34.3,M,0000,0000*66 
16.808          GPS_NMEA_FROM_GPS    iGPS            $GPGGA,181324.000,4144.3477,N,06959.5818,W,2,08,1.02,11.6,M,-34.3,M,0000,0000*61 
17.811          GPS_NMEA_FROM_GPS    iGPS            $GPGGA,181325.000,4144.3477,N,06959.5818,W,2,08,1.02,11.6,M,-34.3,M,0000,0000*60 
18.813          GPS_NMEA_FROM_GPS    iGPS            $GPGGA,181326.000,4144.3477,N,06959.5818,W,2,08,1.02,11.6,M,-34.3,M,0000,0000*63 
19.817          GPS_NMEA_FROM_GPS    iGPS            $GPGGA,181327.000,4144.3477,N,06959.5818,W,2,08,1.02,11.6,M,-34.3,M,0000,0000*62 
20.819          GPS_NMEA_FROM_GPS    iGPS            $GPGGA,181328.000,4144.3477,N,06959.5818,W,2,08,1.02,11.6,M,-34.3,M,0000,0000*6D 
21.822          GPS_NMEA_FROM_GPS    iGPS            $GPRMC,181329.000,A,4144.3477,N,06959.5818,W,0.06,248.41,220321,,,D*71 
22.724          GPS_NMEA_FROM_GPS    iGPS            $GPGGA,181330.000,4144.3477,N,06959.5818,W,2,08,1.02,11.6,M,-34.3,M,0000,0000*64 
23.827          GPS_NMEA_FROM_GPS    iGPS            $GPGGA,181331.000,4144.3477,N,06959.5818,W,2,08,1.02,11.6,M,-34.3,M,0000,0000*65 
23.827          GPS_NMEA_FROM_GPS    iGPS            $GPGGA,181331.000,4144.3477,N,06959.5818,W,2,08,1.02,11.6,M,-34.3,M,0000,0000*65 
24.830          GPS_NMEA_FROM_GPS    iGPS            $GPGGA,181332.000,4144.3477,N,06959.5818,W,2,08,1.02,11.6,M,-34.3,M,0000,0000*66 
25.733          GPS_NMEA_FROM_GPS    iGPS            $GPGGA,181333.000,4144.3477,N,06959.5818,W,2,08,1.02,11.6,M,-34.3,M,0000,0000*67 
26.836          GPS_NMEA_FROM_GPS    iGPS            $GPGGA,181334.000,4144.3477,N,06959.5818,W,2,08,1.02,11.6,M,-34.3,M,0000,0000*60 
27.738          GPS_NMEA_FROM_GPS    iGPS            $GPGGA,181335.000,4144.3477,N,06959.5818,W,2,08,1.02,11.6,M,-34.3,M,0000,0000*61 
28.841          GPS_NMEA_FROM_GPS    iGPS            $GPGGA,181336.000,4144.3477,N,06959.5818,W,2,08,1.02,11.6,M,-34.3,M,0000,0000*62 
29.743          GPS_NMEA_FROM_GPS    iGPS            $GPGGA,181337.000,4144.3477,N,06959.5818,W,2,08,1.02,11.6,M,-34.3,M,0000,0000*63 
30.746          GPS_NMEA_FROM_GPS    iGPS            $GPGGA,181338.000,4144.3477,N,06959.5818,W,2,08,1.02,11.6,M,-34.3,M,0000,0000*6C 
31.849          GPS_NMEA_FROM_GPS    iGPS            $GPGGA,181339.000,4144.3477,N,06959.5818,W,2,08,1.02,11.6,M,-34.3,M,0000,0000*6D 
32.852          GPS_NMEA_FROM_GPS    iGPS            $GPGGA,181340.000,4144.3477,N,06959.5818,W,2,08,1.02,11.6,M,-34.3,M,0000,0000*63 
33.754          GPS_NMEA_FROM_GPS    iGPS            $GPGGA,181341.000,4144.3477,N,06959.5818,W,2,08,1.02,11.6,M,-34.3,M,0000,0000*62 
34.857          GPS_NMEA_FROM_GPS    iGPS            $GPRMC,181342.000,A,4144.3477,N,06959.5818,W,0.06,251.75,220321,,,D*73 
35.859          GPS_NMEA_FROM_GPS    iGPS            $GPGGA,181343.000,4144.3477,N,06959.5819,W,2,08,1.02,11.6,M,-34.3,M,0000,0000*61 
36.761          GPS_NMEA_FROM_GPS    iGPS            $GPGGA,181344.000,4144.3477,N,06959.5819,W,2,08,1.02,11.6,M,-34.3,M,0000,0000*66 
37.764          GPS_NMEA_FROM_GPS    iGPS            $GPGGA,181345.000,4144.3477,N,06959.5819,W,2,08,1.02,11.6,M,-34.3,M,0000,0000*67 
38.866          GPS_NMEA_FROM_GPS    iGPS            $GPRMC,181346.000,A,4144.3477,N,06959.5819,W,0.04,218.20,220321,,,D*79 
39.768          GPS_NMEA_FROM_GPS    iGPS            $GPGGA,181347.000,4144.3477,N,06959.5819,W,2,08,1.02,11.6,M,-34.3,M,0000,0000*65 
40.771          GPS_NMEA_FROM_GPS    iGPS            $GPGGA,181348.000,4144.3477,N,06959.5819,W,2,08,1.02,11.6,M,-34.3,M,0000,0000*6A 
41.874          GPS_NMEA_FROM_GPS    iGPS            $GPRMC,181349.000,A,4144.3477,N,06959.5819,W,0.03,228.03,220321,,,D*73 
42.876          GPS_NMEA_FROM_GPS    iGPS            $GPRMC,181350.000,A,4144.3477,N,06959.5819,W,0.03,217.98,220321,,,D*75 
43.779          GPS_NMEA_FROM_GPS    iGPS            $GPGGA,181351.000,4144.3477,N,06959.5821,W,2,09,0.89,11.2,M,-34.3,M,0000,0000*6E 
44.781          GPS_NMEA_FROM_GPS    iGPS            $GPGGA,181352.000,4144.3477,N,06959.5822,W,2,09,0.89,11.1,M,-34.3,M,0000,0000*6D 
45.784          GPS_NMEA_FROM_GPS    iGPS            $GPGGA,181353.000,4144.3477,N,06959.5824,W,2,09,0.89,11.0,M,-34.3,M,0000,0000*6B 
46.786          GPS_NMEA_FROM_GPS    iGPS            $GPGGA,181354.000,4144.3477,N,06959.5825,W,2,08,1.02,11.0,M,-34.3,M,0000,0000*6E 
47.789          GPS_NMEA_FROM_GPS    iGPS            $GPGGA,181355.000,4144.3477,N,06959.5825,W,2,08,1.02,11.0,M,-34.3,M,0000,0000*6F 
48.792          GPS_NMEA_FROM_GPS    iGPS            $GPGGA,181356.000,4144.3477,N,06959.5825,W,2,08,1.02,11.0,M,-34.3,M,0000,0000*6C 
49.795          GPS_NMEA_FROM_GPS    iGPS            $GPRMC,181357.000,A,4144.3477,N,06959.5825,W,0.05,260.80,220321,,,D*72 
50.797          GPS_NMEA_FROM_GPS    iGPS            $GPGGA,181358.000,4144.3477,N,06959.5825,W,2,08,1.02,11.0,M,-34.3,M,0000,0000*62 
51.801          GPS_NMEA_FROM_GPS    iGPS            $GPRMC,181359.000,A,4144.3477,N,06959.5825,W,0.02,258.40,220321,,,D*7C 
52.803          GPS_NMEA_FROM_GPS    iGPS            $GPGGA,181400.000,4144.3477,N,06959.5825,W,2,08,1.02,11.0,M,-34.3,M,0000,0000*68 
53.805          GPS_NMEA_FROM_GPS    iGPS            $GPGGA,181401.000,4144.3477,N,06959.5825,W,2,08,1.02,11.0,M,-34.3,M,0000,0000*69 
54.808          GPS_NMEA_FROM_GPS    iGPS            $GPGGA,181402.000,4144.3477,N,06959.5825,W,2,08,1.02,11.0,M,-34.3,M,0000,0000*6A 
55.811          GPS_NMEA_FROM_GPS    iGPS            $GPRMC,181403.000,A,4144.3477,N,06959.5825,W,0.04,257.04,220321,,,D*7D 
56.813          GPS_NMEA_FROM_GPS    iGPS            $GPGGA,181404.000,4144.3477,N,06959.5825,W,2,08,1.02,11.0,M,-34.3,M,0000,0000*6C 
57.816          GPS_NMEA_FROM_GPS    iGPS            $GPGGA,181405.000,4144.3477,N,06959.5825,W,2,08,1.02,11.0,M,-34.3,M,0000,0000*6D 
58.819          GPS_NMEA_FROM_GPS    iGPS            $GPGGA,181406.000,4144.3477,N,06959.5826,W,2,08,1.02,11.0,M,-34.3,M,0000,0000*6D 
59.821          GPS_NMEA_FROM_GPS    iGPS            $GPGGA,181407.000,4144.3477,N,06959.5826,W,2,08,1.02,10.9,M,-34.3,M,0000,0000*64 
60.724          GPS_NMEA_FROM_GPS    iGPS            $GPGGA,181408.000,4144.3477,N,06959.5826,W,2,08,1.02,10.9,M,-34.3,M,0000,0000*6B 
61.827          GPS_NMEA_FROM_GPS    iGPS            $GPRMC,181409.000,A,4144.3477,N,06959.5826,W,0.05,245.27,220321,,,D*77 
62.829          GPS_NMEA_FROM_GPS    iGPS            $GPGGA,181410.000,4144.3477,N,06959.5827,W,2,09,0.89,10.9,M,-34.3,M,0000,0000*60 
63.832          GPS_NMEA_FROM_GPS    iGPS            $GPGGA,181411.000,4144.3477,N,06959.5828,W,2,09,0.89,10.8,M,-34.3,M,0000,0000*6F 
64.734          GPS_NMEA_FROM_GPS    iGPS            $GPGGA,181412.000,4144.3477,N,06959.5830,W,2,08,1.02,10.6,M,-34.3,M,0000,0000*68 
65.837          GPS_NMEA_FROM_GPS    iGPS            $GPGGA,181413.000,4144.3478,N,06959.5833,W,2,08,1.02,10.2,M,-34.3,M,0000,0000*61 
66.739          GPS_NMEA_FROM_GPS    iGPS            $GPGGA,181414.000,4144.3478,N,06959.5835,W,2,08,1.02,9.9,M,-34.3,M,0000,0000*53 
67.842          GPS_NMEA_FROM_GPS    iGPS            $GPRMC,181415.000,A,4144.3479,N,06959.5837,W,0.05,263.87,220321,,,D*7A 
68.844          GPS_NMEA_FROM_GPS    iGPS            $GPGGA,181416.000,4144.3479,N,06959.5840,W,2,08,1.02,9.4,M,-34.3,M,0000,0000*5F 
69.746          GPS_NMEA_FROM_GPS    iGPS            $GPGGA,181417.000,4144.3479,N,06959.5842,W,2,08,1.02,9.3,M,-34.3,M,0000,0000*5B 
70.749          GPS_NMEA_FROM_GPS    iGPS            $GPGGA,181418.000,4144.3479,N,06959.5842,W,2,08,1.02,9.3,M,-34.3,M,0000,0000*54 
71.752          GPS_NMEA_FROM_GPS    iGPS            $GPGGA,181419.000,4144.3479,N,06959.5842,W,2,08,1.02,9.3,M,-34.3,M,0000,0000*55 
72.754          GPS_NMEA_FROM_GPS    iGPS            $GPGGA,181420.000,4144.3479,N,06959.5842,W,2,08,1.02,9.3,M,-34.3,M,0000,0000*5F 
73.857          GPS_NMEA_FROM_GPS    iGPS            $GPRMC,181421.000,A,4144.3479,N,06959.5844,W,0.05,266.36,220321,,,D*76 
74.860          GPS_NMEA_FROM_GPS    iGPS            $GPRMC,181422.000,A,4144.3479,N,06959.5844,W,0.05,267.64,220321,,,D*73 
75.762          GPS_NMEA_FROM_GPS    iGPS            $GPGGA,181423.000,4144.3479,N,06959.5846,W,2,09,0.89,9.3,M,-34.3,M,0000,0000*5B 
76.765          GPS_NMEA_FROM_GPS    iGPS            $GPGGA,181424.000,4144.3479,N,06959.5847,W,2,09,0.89,9.4,M,-34.3,M,0000,0000*5A 
77.767          GPS_NMEA_FROM_GPS    iGPS            $GPGGA,181425.000,4144.3479,N,06959.5848,W,2,09,0.89,9.4,M,-34.3,M,0000,0000*54 
78.870          GPS_NMEA_FROM_GPS    iGPS            $GPRMC,181426.000,A,4144.3479,N,06959.5849,W,0.04,284.46,220321,,,D*76 
79.872          GPS_NMEA_FROM_GPS    iGPS            $GPRMC,181427.000,A,4144.3478,N,06959.5850,W,0.04,271.47,220321,,,D*75 
80.874          GPS_NMEA_FROM_GPS    iGPS            $GPGGA,181428.000,4144.3478,N,06959.5851,W,2,09,0.89,9.3,M,-34.3,M,0000,0000*57 
81.877          GPS_NMEA_FROM_GPS    iGPS            $GPRMC,181429.000,A,4144.3478,N,06959.5851,W,0.04,243.06,220321,,,D*7E 
82.780          GPS_NMEA_FROM_GPS    iGPS            $GPGGA,181430.000,4144.3477,N,06959.5852,W,2,09,0.89,9.6,M,-34.3,M,0000,0000*57 
83.883          GPS_NMEA_FROM_GPS    iGPS            $GPRMC,181431.000,A,4144.3476,N,06959.5853,W,0.05,234.69,220321,,,D*73 
84.785          GPS_NMEA_FROM_GPS    iGPS            $GPGGA,181432.000,4144.3476,N,06959.5854,W,2,08,1.02,9.7,M,-34.3,M,0000,0000*50 
85.788          GPS_NMEA_FROM_GPS    iGPS            $GPGGA,181433.000,4144.3476,N,06959.5855,W,2,09,0.89,9.7,M,-34.3,M,0000,0000*53 
86.891          GPS_NMEA_FROM_GPS    iGPS            $GPRMC,181434.000,A,4144.3475,N,06959.5856,W,0.04,238.50,220321,,,D*77 
87.793          GPS_NMEA_FROM_GPS    iGPS            $GPGGA,181435.000,4144.3475,N,06959.5856,W,2,09,0.89,9.9,M,-34.3,M,0000,0000*5B 
88.896          GPS_NMEA_FROM_GPS    iGPS            $GPGGA,181436.000,4144.3475,N,06959.5857,W,2,09,0.89,10.0,M,-34.3,M,0000,0000*68 
89.798          GPS_NMEA_FROM_GPS    iGPS            $GPGGA,181437.000,4144.3474,N,06959.5858,W,2,08,1.02,10.1,M,-34.3,M,0000,0000*65 
90.801          GPS_NMEA_FROM_GPS    iGPS            $GPGGA,181438.000,4144.3474,N,06959.5859,W,2,08,1.02,10.1,M,-34.3,M,0000,0000*6B 
91.803          GPS_NMEA_FROM_GPS    iGPS            $GPRMC,181439.000,A,4144.3474,N,06959.5860,W,0.04,248.81,220321,,,D*75 
92.806          GPS_NMEA_FROM_GPS    iGPS            $GPGGA,181440.000,4144.3474,N,06959.5860,W,2,08,1.02,10.1,M,-34.3,M,0000,0000*6E 
93.809          GPS_NMEA_FROM_GPS    iGPS            $GPRMC,181441.000,A,4144.3474,N,06959.5860,W,0.05,233.13,220321,,,D*7C 
94.811          GPS_NMEA_FROM_GPS    iGPS            $GPGGA,181442.000,4144.3474,N,06959.5860,W,2,08,1.02,10.1,M,-34.3,M,0000,0000*6C 
95.813          GPS_NMEA_FROM_GPS    iGPS            $GPGGA,181443.000,4144.3474,N,06959.5860,W,2,08,1.02,10.1,M,-34.3,M,0000,0000*6D 
96.716          GPS_NMEA_FROM_GPS    iGPS            $GPGGA,181444.000,4144.3474,N,06959.5860,W,2,08,1.02,10.1,M,-34.3,M,0000,0000*6A 
97.718          GPS_NMEA_FROM_GPS    iGPS            $GPGGA,181445.000,4144.3474,N,06959.5860,W,2,08,1.02,10.1,M,-34.3,M,0000,0000*6B 
98.821          GPS_NMEA_FROM_GPS    iGPS            $GPRMC,181446.000,A,4144.3474,N,06959.5860,W,0.06,234.13,220321,,,D*7F 
99.824          GPS_NMEA_FROM_GPS    iGPS            $GPRMC,181447.000,A,4144.3474,N,06959.5860,W,0.07,246.35,220321,,,D*7E 
100.726         GPS_NMEA_FROM_GPS    iGPS            $GPGGA,181448.000,4144.3474,N,06959.5860,W,2,08,1.02,10.1,M,-34.3,M,0000,0000*66 
101.828         GPS_NMEA_FROM_GPS    iGPS            $GPGGA,181449.000,4144.3474,N,06959.5860,W,2,08,1.02,10.1,M,-34.3,M,0000,0000*67 
102.831         GPS_NMEA_FROM_GPS    iGPS            $GPGGA,181450.000,4144.3474,N,06959.5860,W,2,08,1.02,10.1,M,-34.3,M,0000,0000*6F 
103.833         GPS_NMEA_FROM_GPS    iGPS            $GPGGA,181451.000,4144.3473,N,06959.5861,W,2,09,0.89,10.3,M,-34.3,M,0000,0000*69 
104.836         GPS_NMEA_FROM_GPS    iGPS            $GPGGA,181452.000,4144.3473,N,06959.5862,W,2,08,1.02,10.4,M,-34.3,M,0000,0000*6D 
105.838         GPS_NMEA_FROM_GPS    iGPS            $GPGGA,181453.000,4144.3473,N,06959.5863,W,2,08,1.02,10.4,M,-34.3,M,0000,0000*6D 
106.941         GPS_NMEA_FROM_GPS    iGPS            $GPRMC,181454.000,A,4144.3473,N,06959.5864,W,0.08,240.95,220321,,,D*7C 
107.944         GPS_NMEA_FROM_GPS    iGPS            $GPGGA,181455.000,4144.3473,N,06959.5864,W,2,08,1.02,10.4,M,-34.3,M,0000,0000*6C 
108.847         GPS_NMEA_FROM_GPS    iGPS            $GPGGA,181456.000,4144.3473,N,06959.5864,W,2,08,1.02,10.4,M,-34.3,M,0000,0000*6F 
109.849         GPS_NMEA_FROM_GPS    iGPS            $GPGGA,181457.000,4144.3473,N,06959.5864,W,2,08,1.02,10.4,M,-34.3,M,0000,0000*6E 
110.851         GPS_NMEA_FROM_GPS    iGPS            $GPGGA,181458.000,4144.3473,N,06959.5864,W,2,08,1.02,10.4,M,-34.3,M,0000,0000*61 
111.854         GPS_NMEA_FROM_GPS    iGPS            $GPGGA,181459.000,4144.3473,N,06959.5864,W,2,08,1.02,10.4,M,-34.3,M,0000,0000*60 
112.856         GPS_NMEA_FROM_GPS    iGPS            $GPGGA,181500.000,4144.3473,N,06959.5864,W,2,08,1.02,10.4,M,-34.3,M,0000,0000*6D 
113.858         GPS_NMEA_FROM_GPS    iGPS            $GPGGA,181501.000,4144.3473,N,06959.5864,W,2,08,1.02,10.4,M,-34.3,M,0000,0000*6C 
114.961         GPS_NMEA_FROM_GPS    iGPS            $GPRMC,181502.000,A,4144.3473,N,06959.5864,W,0.07,234.77,220321,,,D*7E 
115.863         GPS_NMEA_FROM_GPS    iGPS            $GPGGA,181503.000,4144.3473,N,06959.5864,W,2,08,1.02,10.4,M,-34.3,M,0000,0000*6E 
116.866         GPS_NMEA_FROM_GPS    iGPS            $GPRMC,181504.000,A,4144.3473,N,06959.5864,W,0.07,233.92,220321,,,D*74 
117.768         GPS_NMEA_FROM_GPS    iGPS            $GPGGA,181505.000,4144.3473,N,06959.5864,W,2,08,1.02,10.4,M,-34.3,M,0000,0000*68 
118.771         GPS_NMEA_FROM_GPS    iGPS            $GPGGA,181506.000,4144.3473,N,06959.5864,W,2,08,1.02,10.4,M,-34.3,M,0000,0000*6B 
119.873         GPS_NMEA_FROM_GPS    iGPS            $GPGGA,181507.000,4144.3473,N,06959.5865,W,2,08,1.02,10.4,M,-34.3,M,0000,0000*6B 
120.876         GPS_NMEA_FROM_GPS    iGPS            $GPGGA,181508.000,4144.3473,N,06959.5865,W,2,07,1.14,10.4,M,-34.3,M,0000,0000*6C 
121.879         GPS_NMEA_FROM_GPS    iGPS            $GPRMC,181509.000,A,4144.3473,N,06959.5865,W,0.07,232.53,220321,,,D*74 
122.881         GPS_NMEA_FROM_GPS    iGPS            $GPGGA,181510.000,4144.3473,N,06959.5865,W,2,08,1.02,10.4,M,-34.3,M,0000,0000*6D 
123.884         GPS_NMEA_FROM_GPS    iGPS            $GPGGA,181511.000,4144.3473,N,06959.5865,W,2,08,1.02,10.4,M,-34.3,M,0000,0000*6C 
124.886         GPS_NMEA_FROM_GPS    iGPS            $GPGGA,181512.000,4144.3473,N,06959.5865,W,2,08,1.02,10.4,M,-34.3,M,0000,0000*6F 
125.889         GPS_NMEA_FROM_GPS    iGPS            $GPRMC,181513.000,A,4144.3473,N,06959.5865,W,0.07,241.97,220321,,,D*73 
126.891         GPS_NMEA_FROM_GPS    iGPS            $GPGGA,181514.000,4144.3473,N,06959.5865,W,2,08,1.02,10.4,M,-34.3,M,0000,0000*69 
127.894         GPS_NMEA_FROM_GPS    iGPS            $GPRMC,181515.000,A,4144.3473,N,06959.5865,W,0.13,245.59,220321,,,D*76 
128.896         GPS_NMEA_FROM_GPS    iGPS            $GPRMC,181516.000,A,4144.3473,N,06959.5865,W,0.11,258.48,220321,,,D*7B 
129.899         GPS_NMEA_FROM_GPS    iGPS            $GPGGA,181517.000,4144.3473,N,06959.5865,W,2,08,1.02,10.4,M,-34.3,M,0000,0000*6A 
130.903         GPS_NMEA_FROM_GPS    iGPS            $GPGGA,181518.000,4144.3473,N,06959.5865,W,2,08,0.96,10.4,M,-34.3,M,0000,0000*69 
131.805         GPS_NMEA_FROM_GPS    iGPS            $GPGGA,181519.000,4144.3473,N,06959.5866,W,2,08,0.96,10.4,M,-34.3,M,0000,0000*6B 
132.807         GPS_NMEA_FROM_GPS    iGPS            $GPGGA,181520.000,4144.3473,N,06959.5866,W,2,08,0.96,10.4,M,-34.3,M,0000,0000*61 
133.911         GPS_NMEA_FROM_GPS    iGPS            $GPGGA,181521.000,4144.3473,N,06959.5867,W,2,08,0.96,10.4,M,-34.3,M,0000,0000*61 
134.914         GPS_NMEA_FROM_GPS    iGPS            $GPGGA,181522.000,4144.3473,N,06959.5867,W,2,08,0.96,10.4,M,-34.3,M,0000,0000*62 
135.816         GPS_NMEA_FROM_GPS    iGPS            $GPGGA,181523.000,4144.3473,N,06959.5867,W,2,08,1.02,10.4,M,-34.3,M,0000,0000*6F 
136.819         GPS_NMEA_FROM_GPS    iGPS            $GPGGA,181524.000,4144.3473,N,06959.5867,W,2,08,1.02,10.4,M,-34.3,M,0000,0000*68 
137.821         GPS_NMEA_FROM_GPS    iGPS            $GPGGA,181525.000,4144.3473,N,06959.5867,W,2,09,0.89,10.4,M,-34.3,M,0000,0000*6A 
138.824         GPS_NMEA_FROM_GPS    iGPS            $GPGGA,181526.000,4144.3473,N,06959.5867,W,2,09,0.89,10.4,M,-34.3,M,0000,0000*69 
139.827         GPS_NMEA_FROM_GPS    iGPS            $GPGGA,181527.000,4144.3473,N,06959.5867,W,2,08,0.96,10.4,M,-34.3,M,0000,0000*67 
140.729         GPS_NMEA_FROM_GPS    iGPS            $GPGGA,181528.000,4144.3473,N,06959.5868,W,2,09,0.89,10.4,M,-34.3,M,0000,0000*68 
141.832         GPS_NMEA_FROM_GPS    iGPS            $GPRMC,181529.000,A,4144.3473,N,06959.5869,W,0.09,304.22,220321,,,D*76 
142.734         GPS_NMEA_FROM_GPS    iGPS            $GPGGA,181530.000,4144.3473,N,06959.5869,W,2,08,1.02,10.3,M,-34.3,M,0000,0000*64 
143.736         GPS_NMEA_FROM_GPS    iGPS            $GPGGA,181531.000,4144.3473,N,06959.5870,W,2,08,1.02,10.3,M,-34.3,M,0000,0000*6D 
144.839         GPS_NMEA_FROM_GPS    iGPS            $GPRMC,181532.000,A,4144.3473,N,06959.5870,W,0.11,299.75,220321,,,D*7A 
145.741         GPS_NMEA_FROM_GPS    iGPS            $GPGGA,181533.000,4144.3473,N,06959.5870,W,2,07,1.10,10.3,M,-34.3,M,0000,0000*63 
146.744         GPS_NMEA_FROM_GPS    iGPS            $GPGGA,181534.000,4144.3473,N,06959.5870,W,2,07,1.10,10.3,M,-34.3,M,0000,0000*64 
147.747         GPS_NMEA_FROM_GPS    iGPS            $GPGGA,181535.000,4144.3473,N,06959.5870,W,2,08,1.02,10.3,M,-34.3,M,0000,0000*69 
148.850         GPS_NMEA_FROM_GPS    iGPS            $GPRMC,181536.000,A,4144.3473,N,06959.5870,W,0.09,291.24,220321,,,D*7B 
149.752         GPS_NMEA_FROM_GPS    iGPS            $GPGGA,181537.000,4144.3473,N,06959.5870,W,2,07,1.10,10.3,M,-34.3,M,0000,0000*67 
150.754         GPS_NMEA_FROM_GPS    iGPS            $GPGGA,181538.000,4144.3473,N,06959.5870,W,2,08,1.02,10.3,M,-34.3,M,0000,0000*64 
151.757         GPS_NMEA_FROM_GPS    iGPS            $GPGGA,181539.000,4144.3473,N,06959.5871,W,2,08,1.02,10.3,M,-34.3,M,0000,0000*64 
152.760         GPS_NMEA_FROM_GPS    iGPS            $GPGGA,181540.000,4144.3473,N,06959.5871,W,2,08,1.02,10.3,M,-34.3,M,0000,0000*6A 
153.762         GPS_NMEA_FROM_GPS    iGPS            $GPGGA,181541.000,4144.3473,N,06959.5871,W,2,08,1.02,10.3,M,-34.3,M,0000,0000*6B 
154.765         GPS_NMEA_FROM_GPS    iGPS            $GPGGA,181542.000,4144.3473,N,06959.5871,W,2,07,1.10,10.4,M,-34.3,M,0000,0000*63 
155.767         GPS_NMEA_FROM_GPS    iGPS            $GPRMC,181543.000,A,4144.3473,N,06959.5872,W,0.01,267.43,220321,,,D*7B 
156.770         GPS_NMEA_FROM_GPS    iGPS            $GPRMC,181544.000,A,4144.3472,N,06959.5872,W,0.01,175.20,220321,,,D*78 
157.672         GPS_NMEA_FROM_GPS    iGPS            $GPGGA,181545.000,4144.3472,N,06959.5872,W,2,07,1.10,10.4,M,-34.3,M,0000,0000*66 
158.775         GPS_NMEA_FROM_GPS    iGPS            $GPGGA,181546.000,4144.3472,N,06959.5872,W,2,06,1.27,10.4,M,-34.3,M,0000,0000*60 
159.778         GPS_NMEA_FROM_GPS    iGPS            $GPGGA,181547.000,4144.3472,N,06959.5872,W,2,07,1.10,10.4,M,-34.3,M,0000,0000*64 
160.780         GPS_NMEA_FROM_GPS    iGPS            $GPGGA,181548.000,4144.3472,N,06959.5872,W,2,06,1.27,10.4,M,-34.3,M,0000,0000*6E 
161.783         GPS_NMEA_FROM_GPS    iGPS            $GPGGA,181549.000,4144.3472,N,06959.5872,W,2,07,1.10,10.4,M,-34.3,M,0000,0000*6A 
162.685         GPS_NMEA_FROM_GPS    iGPS            $GPGGA,181550.000,4144.3472,N,06959.5872,W,2,06,1.27,10.4,M,-34.3,M,0000,0000*67 
163.688         GPS_NMEA_FROM_GPS    iGPS            $GPGGA,181551.000,4144.3472,N,06959.5872,W,2,06,1.27,10.4,M,-34.3,M,0000,0000*66 
164.791         GPS_NMEA_FROM_GPS    iGPS            $GPRMC,181552.000,A,4144.3472,N,06959.5872,W,0.03,311.08,220321,,,D*77 
165.794         GPS_NMEA_FROM_GPS    iGPS            $GPRMC,181553.000,A,4144.3472,N,06959.5872,W,0.01,97.67,220321,,,D*40 
166.696         GPS_NMEA_FROM_GPS    iGPS            $GPGGA,181554.000,4144.3472,N,06959.5872,W,2,07,1.10,10.4,M,-34.3,M,0000,0000*66 
167.799         GPS_NMEA_FROM_GPS    iGPS            $GPGGA,181555.000,4144.3473,N,06959.5873,W,2,07,1.10,10.4,M,-34.3,M,0000,0000*67 
168.702         GPS_NMEA_FROM_GPS    iGPS            $GPGGA,181556.000,4144.3471,N,06959.5874,W,2,06,1.27,10.2,M,-34.3,M,0000,0000*62 
169.804         GPS_NMEA_FROM_GPS    iGPS            $GPGGA,181557.000,4144.3470,N,06959.5874,W,2,07,1.10,10.1,M,-34.3,M,0000,0000*64 
170.707         GPS_NMEA_FROM_GPS    iGPS            $GPGGA,181558.000,4144.3470,N,06959.5874,W,2,06,1.27,10.1,M,-34.3,M,0000,0000*6E 
171.809         GPS_NMEA_FROM_GPS    iGPS            $GPRMC,181559.000,A,4144.3469,N,06959.5874,W,0.02,190.61,220321,,,D*75 
172.711         GPS_NMEA_FROM_GPS    iGPS            $GPGGA,181600.000,4144.3469,N,06959.5874,W,2,07,1.21,10.2,M,-34.3,M,0000,0000*6C 
173.814         GPS_NMEA_FROM_GPS    iGPS            $GPGGA,181601.000,4144.3469,N,06959.5874,W,2,06,1.27,10.2,M,-34.3,M,0000,0000*6A 
174.717         GPS_NMEA_FROM_GPS    iGPS            $GPGGA,181602.000,4144.3469,N,06959.5876,W,2,07,1.10,10.1,M,-34.3,M,0000,0000*6D 
175.719         GPS_NMEA_FROM_GPS    iGPS            $GPGGA,181603.000,4144.3467,N,06959.5877,W,2,06,1.40,9.8,M,-34.3,M,0000,0000*56 
176.722         GPS_NMEA_FROM_GPS    iGPS            $GPGGA,181604.000,4144.3466,N,06959.5878,W,2,06,1.27,9.6,M,-34.3,M,0000,0000*50 
177.725         GPS_NMEA_FROM_GPS    iGPS            $GPGGA,181605.000,4144.3465,N,06959.5878,W,2,06,1.27,9.5,M,-34.3,M,0000,0000*51 
178.727         GPS_NMEA_FROM_GPS    iGPS            $GPGGA,181606.000,4144.3465,N,06959.5878,W,2,06,1.40,9.5,M,-34.3,M,0000,0000*53 
179.830         GPS_NMEA_FROM_GPS    iGPS            $GPRMC,181607.000,A,4144.3465,N,06959.5878,W,0.08,255.90,220321,,,D*73 
180.732         GPS_NMEA_FROM_GPS    iGPS            $GPGGA,181608.000,4144.3465,N,06959.5878,W,2,06,1.40,9.5,M,-34.3,M,0000,0000*5D 
181.735         GPS_NMEA_FROM_GPS    iGPS            $GPRMC,181609.000,A,4144.3465,N,06959.5878,W,0.07,253.96,220321,,,D*72 
182.738         GPS_NMEA_FROM_GPS    iGPS            $GPGGA,181610.000,4144.3465,N,06959.5878,W,2,06,1.40,9.5,M,-34.3,M,0000,0000*54 
183.740         GPS_NMEA_FROM_GPS    iGPS            $GPGGA,181611.000,4144.3465,N,06959.5878,W,2,06,1.40,9.5,M,-34.3,M,0000,0000*55 
184.743         GPS_NMEA_FROM_GPS    iGPS            $GPGGA,181612.000,4144.3465,N,06959.5878,W,2,06,1.46,9.5,M,-34.3,M,0000,0000*50 
185.746         GPS_NMEA_FROM_GPS    iGPS            $GPGGA,181613.000,4144.3465,N,06959.5878,W,2,06,1.40,9.5,M,-34.3,M,0000,0000*57 
186.748         GPS_NMEA_FROM_GPS    iGPS            $GPGGA,181614.000,4144.3465,N,06959.5878,W,2,06,1.46,9.5,M,-34.3,M,0000,0000*56 
187.751         GPS_NMEA_FROM_GPS    iGPS            $GPGGA,181615.000,4144.3465,N,06959.5879,W,2,06,1.37,9.5,M,-34.3,M,0000,0000*50 
188.754         GPS_NMEA_FROM_GPS    iGPS            $GPGGA,181616.000,4144.3465,N,06959.5879,W,2,06,1.37,9.5,M,-34.3,M,0000,0000*53 
189.756         GPS_NMEA_FROM_GPS    iGPS            $GPGGA,181617.000,4144.3465,N,06959.5879,W,2,07,1.16,9.5,M,-34.3,M,0000,0000*50 
190.759         GPS_NMEA_FROM_GPS    iGPS            $GPGGA,181618.000,4144.3465,N,06959.5879,W,2,08,1.02,9.5,M,-34.3,M,0000,0000*55 
191.762         GPS_NMEA_FROM_GPS    iGPS            $GPGGA,181619.000,4144.3465,N,06959.5879,W,2,07,1.17,9.5,M,-34.3,M,0000,0000*5F 
192.765         GPS_NMEA_FROM_GPS    iGPS            $GPGGA,181620.000,4144.3465,N,06959.5879,W,2,07,1.17,9.5,M,-34.3,M,0000,0000*55 
193.768         GPS_NMEA_FROM_GPS    iGPS            $GPRMC,181621.000,A,4144.3465,N,06959.5879,W,0.04,2.56,220321,,,D*70 
194.770         GPS_NMEA_FROM_GPS    iGPS            $GPGGA,181622.000,4144.3465,N,06959.5879,W,2,07,1.17,9.5,M,-34.3,M,0000,0000*57 
195.773         GPS_NMEA_FROM_GPS    iGPS            $GPGGA,181623.000,4144.3465,N,06959.5879,W,2,08,1.02,9.5,M,-34.3,M,0000,0000*5D 
196.776         GPS_NMEA_FROM_GPS    iGPS            $GPRMC,181624.000,A,4144.3465,N,06959.5879,W,0.06,19.98,220321,,,D*4F 
197.678         GPS_NMEA_FROM_GPS    iGPS            $GPGGA,181625.000,4144.3465,N,06959.5879,W,2,08,1.02,9.5,M,-34.3,M,0000,0000*5B 
198.781         GPS_NMEA_FROM_GPS    iGPS            $GPGGA,181626.000,4144.3465,N,06959.5879,W,2,08,1.02,9.5,M,-34.3,M,0000,0000*58 
199.784         GPS_NMEA_FROM_GPS    iGPS            $GPRMC,181627.000,A,4144.3465,N,06959.5879,W,0.02,123.80,220321,,,D*79 
200.786         GPS_NMEA_FROM_GPS    iGPS            $GPGGA,181628.000,4144.3465,N,06959.5879,W,2,08,1.02,9.5,M,-34.3,M,0000,0000*56 
201.789         GPS_NMEA_FROM_GPS    iGPS            $GPRMC,181629.000,A,4144.3465,N,06959.5879,W,0.06,133.88,220321,,,D*7A 
202.691         GPS_NMEA_FROM_GPS    iGPS            $GPGGA,181630.000,4144.3465,N,06959.5879,W,2,07,1.17,9.5,M,-34.3,M,0000,0000*54 
203.794         GPS_NMEA_FROM_GPS    iGPS            $GPGGA,181631.000,4144.3465,N,06959.5879,W,2,09,0.89,9.5,M,-34.3,M,0000,0000*5D 
204.697         GPS_NMEA_FROM_GPS    iGPS            $GPGGA,181632.000,4144.3465,N,06959.5879,W,2,09,0.89,9.5,M,-34.3,M,0000,0000*5E 
205.800         GPS_NMEA_FROM_GPS    iGPS            $GPRMC,181633.000,A,4144.3465,N,06959.5879,W,0.04,204.64,220321,,,D*76 
206.702         GPS_NMEA_FROM_GPS    iGPS            $GPGGA,181634.000,4144.3465,N,06959.5879,W,2,09,0.89,9.5,M,-34.3,M,0000,0000*58 
207.805         GPS_NMEA_FROM_GPS    iGPS            $GPGGA,181635.000,4144.3465,N,06959.5879,W,2,09,0.89,9.5,M,-34.3,M,0000,0000*59 
208.808         GPS_NMEA_FROM_GPS    iGPS            $GPGGA,181636.000,4144.3465,N,06959.5879,W,2,08,0.98,9.5,M,-34.3,M,0000,0000*5B 
209.710         GPS_NMEA_FROM_GPS    iGPS            $GPGGA,181637.000,4144.3464,N,06959.5879,W,2,07,1.17,9.5,M,-34.3,M,0000,0000*52 
210.814         GPS_NMEA_FROM_GPS    iGPS            $GPRMC,181638.000,A,4144.3464,N,06959.5879,W,0.06,199.97,220321,,,D*75 
211.716         GPS_NMEA_FROM_GPS    iGPS            $GPGGA,181639.000,4144.3464,N,06959.5879,W,2,08,0.98,9.5,M,-34.3,M,0000,0000*55 
212.819         GPS_NMEA_FROM_GPS    iGPS            $GPRMC,181640.000,A,4144.3464,N,06959.5879,W,0.07,228.38,220321,,,D*77 
213.821         GPS_NMEA_FROM_GPS    iGPS            $GPRMC,181641.000,A,4144.3464,N,06959.5879,W,0.03,210.79,220321,,,D*7C 
214.723         GPS_NMEA_FROM_GPS    iGPS            $GPGGA,181642.000,4144.3464,N,06959.5879,W,2,08,0.99,9.5,M,-34.3,M,0000,0000*58 
215.725         GPS_NMEA_FROM_GPS    iGPS            $GPGGA,181643.000,4144.3464,N,06959.5879,W,2,08,0.98,9.5,M,-34.3,M,0000,0000*58 
216.728         GPS_NMEA_FROM_GPS    iGPS            $GPGGA,181644.000,4144.3464,N,06959.5879,W,2,07,1.17,9.5,M,-34.3,M,0000,0000*56 
217.731         GPS_NMEA_FROM_GPS    iGPS            $GPGGA,181645.000,4144.3464,N,06959.5879,W,2,08,1.02,9.5,M,-34.3,M,0000,0000*5C 
218.734         GPS_NMEA_FROM_GPS    iGPS            $GPGGA,181646.000,4144.3464,N,06959.5879,W,2,09,0.87,9.5,M,-34.3,M,0000,0000*52 
219.737         GPS_NMEA_FROM_GPS    iGPS            $GPRMC,181647.000,A,4144.3464,N,06959.5880,W,0.08,311.93,220321,,,D*73 
220.739         GPS_NMEA_FROM_GPS    iGPS            $GPGGA,181648.000,4144.3464,N,06959.5880,W,2,07,1.07,9.5,M,-34.3,M,0000,0000*5D 
221.741         GPS_NMEA_FROM_GPS    iGPS            $GPGGA,181649.000,4144.3464,N,06959.5880,W,2,08,1.02,9.5,M,-34.3,M,0000,0000*56 
222.744         GPS_NMEA_FROM_GPS    iGPS            $GPGGA,181650.000,4144.3464,N,06959.5880,W,2,07,1.17,9.5,M,-34.3,M,0000,0000*55 
223.747         GPS_NMEA_FROM_GPS    iGPS            $GPGGA,181651.000,4144.3464,N,06959.5880,W,2,07,1.17,9.5,M,-34.3,M,0000,0000*54 
224.850         GPS_NMEA_FROM_GPS    iGPS            $GPRMC,181652.000,A,4144.3464,N,06959.5880,W,0.11,286.83,220321,,,D*71 
225.752         GPS_NMEA_FROM_GPS    iGPS            $GPRMC,181653.000,A,4144.3464,N,06959.5880,W,0.12,299.31,220321,,,D*74 
226.754         GPS_NMEA_FROM_GPS    iGPS            $GPGGA,181654.000,4144.3464,N,06959.5880,W,2,08,0.98,9.5,M,-34.3,M,0000,0000*58 
227.757         GPS_NMEA_FROM_GPS    iGPS            $GPGGA,181655.000,4144.3465,N,06959.5881,W,2,07,1.10,9.5,M,-34.3,M,0000,0000*57 
228.760         GPS_NMEA_FROM_GPS    iGPS            $GPRMC,181656.000,A,4144.3465,N,06959.5881,W,0.08,257.53,220321,,,D*7C 
229.762         GPS_NMEA_FROM_GPS    iGPS            $GPGGA,181657.000,4144.3465,N,06959.5881,W,2,07,1.17,9.5,M,-34.3,M,0000,0000*52 
230.764         GPS_NMEA_FROM_GPS    iGPS            $GPGGA,181658.000,4144.3465,N,06959.5881,W,2,07,1.17,9.5,M,-34.3,M,0000,0000*5D 
231.768         GPS_NMEA_FROM_GPS    iGPS            $GPGGA,181659.000,4144.3465,N,06959.5881,W,2,08,0.99,9.6,M,-34.3,M,0000,0000*57 
232.771         GPS_NMEA_FROM_GPS    iGPS            $GPGGA,181700.000,4144.3464,N,06959.5881,W,2,07,1.10,9.6,M,-34.3,M,0000,0000*54 
233.774         GPS_NMEA_FROM_GPS    iGPS            $GPGGA,181701.000,4144.3464,N,06959.5881,W,2,09,0.87,9.6,M,-34.3,M,0000,0000*54 
234.676         GPS_NMEA_FROM_GPS    iGPS            $GPGGA,181702.000,4144.3464,N,06959.5881,W,2,08,0.96,9.6,M,-34.3,M,0000,0000*56 
235.780         GPS_NMEA_FROM_GPS    iGPS            $GPGGA,181703.000,4144.3464,N,06959.5881,W,2,08,0.97,9.6,M,-34.3,M,0000,0000*56 
236.783         GPS_NMEA_FROM_GPS    iGPS            $GPGGA,181704.000,4144.3464,N,06959.5881,W,2,08,1.02,9.6,M,-34.3,M,0000,0000*5C 
237.786         GPS_NMEA_FROM_GPS    iGPS            $GPRMC,181705.000,A,4144.3464,N,06959.5882,W,0.09,254.94,220321,,,D*70 
238.788         GPS_NMEA_FROM_GPS    iGPS            $GPGGA,181706.000,4144.3464,N,06959.5882,W,2,07,1.10,9.6,M,-34.3,M,0000,0000*51 
239.791         GPS_NMEA_FROM_GPS    iGPS            $GPGGA,181707.000,4144.3464,N,06959.5882,W,2,07,1.10,9.6,M,-34.3,M,0000,0000*50 
240.794         GPS_NMEA_FROM_GPS    iGPS            $GPGGA,181708.000,4144.3464,N,06959.5882,W,2,07,1.17,9.6,M,-34.3,M,0000,0000*58 
241.696         GPS_NMEA_FROM_GPS    iGPS            $GPGGA,181709.000,4144.3464,N,06959.5882,W,2,07,1.10,9.6,M,-34.3,M,0000,0000*5E 
242.699         GPS_NMEA_FROM_GPS    iGPS            $GPGGA,181710.000,4144.3464,N,06959.5883,W,2,07,1.10,9.6,M,-34.3,M,0000,0000*57 
243.802         GPS_NMEA_FROM_GPS    iGPS            $GPGGA,181711.000,4144.3464,N,06959.5883,W,2,07,1.17,9.6,M,-34.3,M,0000,0000*51 
244.805         GPS_NMEA_FROM_GPS    iGPS            $GPRMC,181712.000,A,4144.3464,N,06959.5883,W,0.05,237.13,220321,,,D*71 
245.808         GPS_NMEA_FROM_GPS    iGPS            $GPGGA,181713.000,4144.3464,N,06959.5883,W,2,07,1.17,9.6,M,-34.3,M,0000,0000*53 
246.710         GPS_NMEA_FROM_GPS    iGPS            $GPGGA,181714.000,4144.3464,N,06959.5883,W,2,08,0.98,9.6,M,-34.3,M,0000,0000*5D 
247.713         GPS_NMEA_FROM_GPS    iGPS            $GPGGA,181715.000,4144.3464,N,06959.5883,W,2,07,1.17,9.6,M,-34.3,M,0000,0000*55 
248.715         GPS_NMEA_FROM_GPS    iGPS            $GPGGA,181716.000,4144.3464,N,06959.5883,W,2,07,1.17,9.6,M,-34.3,M,0000,0000*56 
249.718         GPS_NMEA_FROM_GPS    iGPS            $GPGGA,181717.000,4144.3464,N,06959.5883,W,2,07,1.17,9.6,M,-34.3,M,0000,0000*57 
250.821         GPS_NMEA_FROM_GPS    iGPS            $GPRMC,181718.000,A,4144.3464,N,06959.5883,W,0.05,231.56,220321,,,D*7C 
251.824         GPS_NMEA_FROM_GPS    iGPS            $GPGGA,181719.000,4144.3464,N,06959.5883,W,2,07,1.17,9.6,M,-34.3,M,0000,0000*59 
252.726         GPS_NMEA_FROM_GPS    iGPS            $GPGGA,181720.000,4144.3464,N,06959.5883,W,2,07,1.17,9.6,M,-34.3,M,0000,0000*53 
253.729         GPS_NMEA_FROM_GPS    iGPS            $GPGGA,181721.000,4144.3464,N,06959.5883,W,2,07,1.17,9.6,M,-34.3,M,0000,0000*52 
254.732         GPS_NMEA_FROM_GPS    iGPS            $GPGGA,181722.000,4144.3464,N,06959.5883,W,2,07,1.17,9.6,M,-34.3,M,0000,0000*51 
255.734         GPS_NMEA_FROM_GPS    iGPS            $GPGGA,181723.000,4144.3464,N,06959.5883,W,2,07,1.17,9.6,M,-34.3,M,0000,0000*50 
256.737         GPS_NMEA_FROM_GPS    iGPS            $GPGGA,181724.000,4144.3464,N,06959.5883,W,2,07,1.17,9.6,M,-34.3,M,0000,0000*57 
257.740         GPS_NMEA_FROM_GPS    iGPS            $GPGGA,181725.000,4144.3464,N,06959.5883,W,2,07,1.17,9.6,M,-34.3,M,0000,0000*56 
258.743         GPS_NMEA_FROM_GPS    iGPS            $GPGGA,181726.000,4144.3464,N,06959.5883,W,2,07,1.17,9.6,M,-34.3,M,0000,0000*55 
259.745         GPS_NMEA_FROM_GPS    iGPS            $GPGGA,181727.000,4144.3464,N,06959.5883,W,2,07,1.17,9.6,M,-34.3,M,0000,0000*54 
260.748         GPS_NMEA_FROM_GPS    iGPS            $GPGGA,181728.000,4144.3464,N,06959.5883,W,2,07,1.17,9.6,M,-34.3,M,0000,0000*5B 
261.751         GPS_NMEA_FROM_GPS    iGPS            $GPRMC,181729.000,A,4144.3464,N,06959.5883,W,0.05,263.94,220321,,,D*77 
262.753         GPS_NMEA_FROM_GPS    iGPS            $GPRMC,181730.000,A,4144.3464,N,06959.5883,W,0.09,251.55,220321,,,D*7F 
263.756         GPS_NMEA_FROM_GPS    iGPS            $GPGGA,181731.000,4144.3464,N,06959.5883,W,2,07,1.17,9.6,M,-34.3,M,0000,0000*53 
264.758         GPS_NMEA_FROM_GPS    iGPS            $GPGGA,181732.000,4144.3464,N,06959.5883,W,2,07,1.17,9.6,M,-34.3,M,0000,0000*50 
265.761         GPS_NMEA_FROM_GPS    iGPS            $GPGGA,181733.000,4144.3464,N,06959.5884,W,2,07,1.17,9.6,M,-34.3,M,0000,0000*56 
266.764         GPS_NMEA_FROM_GPS    iGPS            $GPGGA,181734.000,4144.3464,N,06959.5884,W,2,07,1.17,9.6,M,-34.3,M,0000,0000*51 
267.766         GPS_NMEA_FROM_GPS    iGPS            $GPGGA,181735.000,4144.3464,N,06959.5884,W,2,07,1.17,9.6,M,-34.3,M,0000,0000*50 
268.770         GPS_NMEA_FROM_GPS    iGPS            $GPGGA,181736.000,4144.3464,N,06959.5884,W,2,07,1.17,9.6,M,-34.3,M,0000,0000*53 
269.773         GPS_NMEA_FROM_GPS    iGPS            $GPGGA,181737.000,4144.3464,N,06959.5884,W,2,08,0.99,9.6,M,-34.3,M,0000,0000*5A 
270.775         GPS_NMEA_FROM_GPS    iGPS            $GPGGA,181738.000,4144.3464,N,06959.5884,W,2,08,0.99,9.6,M,-34.3,M,0000,0000*55 
271.778         GPS_NMEA_FROM_GPS    iGPS            $GPGGA,181739.000,4144.3464,N,06959.5884,W,2,08,0.98,9.6,M,-34.3,M,0000,0000*55 
272.781         GPS_NMEA_FROM_GPS    iGPS            $GPRMC,181740.000,A,4144.3464,N,06959.5884,W,0.06,267.69,220321,,,D*7A 
273.783         GPS_NMEA_FROM_GPS    iGPS            $GPGGA,181741.000,4144.3464,N,06959.5884,W,2,07,1.17,9.6,M,-34.3,M,0000,0000*53 
274.786         GPS_NMEA_FROM_GPS    iGPS            $GPRMC,181742.000,A,4144.3464,N,06959.5884,W,0.05,254.86,220321,,,D*7A 
275.790         GPS_NMEA_FROM_GPS    iGPS            $GPRMC,181743.000,A,4144.3464,N,06959.5884,W,0.08,235.25,220321,,,D*78 
276.692         GPS_NMEA_FROM_GPS    iGPS            $GPGGA,181744.000,4144.3464,N,06959.5884,W,2,07,1.17,9.6,M,-34.3,M,0000,0000*56 
277.795         GPS_NMEA_FROM_GPS    iGPS            $GPGGA,181745.000,4144.3464,N,06959.5884,W,2,08,0.99,9.6,M,-34.3,M,0000,0000*5F 
278.697         GPS_NMEA_FROM_GPS    iGPS            $GPGGA,181746.000,4144.3464,N,06959.5884,W,2,08,0.98,9.6,M,-34.3,M,0000,0000*5D 
279.800         GPS_NMEA_FROM_GPS    iGPS            $GPGGA,181747.000,4144.3464,N,06959.5884,W,2,08,1.02,9.6,M,-34.3,M,0000,0000*5E 
280.803         GPS_NMEA_FROM_GPS    iGPS            $GPGGA,181748.000,4144.3464,N,06959.5884,W,2,09,0.89,9.6,M,-34.3,M,0000,0000*52 
281.805         GPS_NMEA_FROM_GPS    iGPS            $GPGGA,181749.000,4144.3464,N,06959.5884,W,2,09,0.89,9.6,M,-34.3,M,0000,0000*53 
282.708         GPS_NMEA_FROM_GPS    iGPS            $GPGGA,181750.000,4144.3464,N,06959.5884,W,2,09,0.89,9.6,M,-34.3,M,0000,0000*5B 
283.811         GPS_NMEA_FROM_GPS    iGPS            $GPRMC,181751.000,A,4144.3464,N,06959.5884,W,0.00,238.87,220321,,,D*76 
284.713         GPS_NMEA_FROM_GPS    iGPS            $GPGGA,181752.000,4144.3464,N,06959.5884,W,2,09,0.89,9.6,M,-34.3,M,0000,0000*59 
285.816         GPS_NMEA_FROM_GPS    iGPS            $GPRMC,181753.000,A,4144.3464,N,06959.5884,W,0.01,329.71,220321,,,D*7D 
286.818         GPS_NMEA_FROM_GPS    iGPS            $GPGGA,181754.000,4144.3464,N,06959.5884,W,2,09,0.89,9.6,M,-34.3,M,0000,0000*5F 
287.722         GPS_NMEA_FROM_GPS    iGPS            $GPGGA,181755.000,4144.3464,N,06959.5884,W,2,09,0.89,9.6,M,-34.3,M,0000,0000*5E 
288.825         GPS_NMEA_FROM_GPS    iGPS            $GPGGA,181756.000,4144.3464,N,06959.5884,W,2,08,0.99,9.6,M,-34.3,M,0000,0000*5D 
289.727         GPS_NMEA_FROM_GPS    iGPS            $GPGGA,181757.000,4144.3464,N,06959.5884,W,2,08,0.99,9.6,M,-34.3,M,0000,0000*5C 
290.730         GPS_NMEA_FROM_GPS    iGPS            $GPGGA,181758.000,4144.3464,N,06959.5884,W,2,08,0.99,9.6,M,-34.3,M,0000,0000*53 
291.833         GPS_NMEA_FROM_GPS    iGPS            $GPRMC,181759.000,A,4144.3463,N,06959.5884,W,0.02,237.24,220321,,,D*7D 
292.835         GPS_NMEA_FROM_GPS    iGPS            $GPRMC,181800.000,A,4144.3463,N,06959.5884,W,0.03,212.15,220321,,,D*7A 
293.737         GPS_NMEA_FROM_GPS    iGPS            $GPGGA,181801.000,4144.3463,N,06959.5884,W,2,09,0.89,9.6,M,-34.3,M,0000,0000*57 
294.840         GPS_NMEA_FROM_GPS    iGPS            $GPRMC,181802.000,A,4144.3463,N,06959.5884,W,0.03,260.97,220321,,,D*77 
295.743         GPS_NMEA_FROM_GPS    iGPS            $GPGGA,181803.000,4144.3463,N,06959.5884,W,2,08,0.98,9.6,M,-34.3,M,0000,0000*54 
296.745         GPS_NMEA_FROM_GPS    iGPS            $GPGGA,181804.000,4144.3463,N,06959.5884,W,2,08,0.98,9.6,M,-34.3,M,0000,0000*53 
297.748         GPS_NMEA_FROM_GPS    iGPS            $GPGGA,181805.000,4144.3463,N,06959.5884,W,2,08,0.99,9.6,M,-34.3,M,0000,0000*53 
298.751         GPS_NMEA_FROM_GPS    iGPS            $GPGGA,181806.000,4144.3463,N,06959.5884,W,2,08,0.98,9.6,M,-34.3,M,0000,0000*51 
299.753         GPS_NMEA_FROM_GPS    iGPS            $GPGGA,181807.000,4144.3463,N,06959.5884,W,2,08,0.99,9.6,M,-34.3,M,0000,0000*51 
300.856         GPS_NMEA_FROM_GPS    iGPS            $GPRMC,181808.000,A,4144.3463,N,06959.5885,W,0.02,256.97,220321,,,D*78 
301.759         GPS_NMEA_FROM_GPS    iGPS            $GPGGA,181809.000,4144.3463,N,06959.5885,W,2,08,0.99,9.6,M,-34.3,M,0000,0000*5E 
302.761         GPS_NMEA_FROM_GPS    iGPS            $GPGGA,181810.000,4144.3463,N,06959.5885,W,2,08,0.99,9.6,M,-34.3,M,0000,0000*56 
303.764         GPS_NMEA_FROM_GPS    iGPS            $GPGGA,181811.000,4144.3463,N,06959.5885,W,2,08,0.98,9.6,M,-34.3,M,0000,0000*56 
304.767         GPS_NMEA_FROM_GPS    iGPS            $GPGGA,181812.000,4144.3463,N,06959.5885,W,2,08,0.99,9.6,M,-34.3,M,0000,0000*54 
305.773         GPS_NMEA_FROM_GPS    iGPS            $GPGGA,181813.000,4144.3463,N,06959.5885,W,2,08,0.99,9.6,M,-34.3,M,0000,0000*55 
306.773         GPS_NMEA_FROM_GPS    iGPS            $GPGGA,181814.000,4144.3463,N,06959.5885,W,2,08,0.98,9.6,M,-34.3,M,0000,0000*53 
307.775         GPS_NMEA_FROM_GPS    iGPS            $GPGGA,181815.000,4144.3463,N,06959.5885,W,2,08,0.99,9.6,M,-34.3,M,0000,0000*53 
308.779         GPS_NMEA_FROM_GPS    iGPS            $GPGGA,181816.000,4144.3463,N,06959.5885,W,2,08,0.98,9.6,M,-34.3,M,0000,0000*51 
309.781         GPS_NMEA_FROM_GPS    iGPS            $GPGGA,181817.000,4144.3463,N,06959.5885,W,2,08,0.99,9.6,M,-34.3,M,0000,0000*51 
310.784         GPS_NMEA_FROM_GPS    iGPS            $GPRMC,181818.000,A,4144.3463,N,06959.5885,W,0.01,249.09,220321,,,D*73 
311.786         GPS_NMEA_FROM_GPS    iGPS            $GPGGA,181819.000,4144.3463,N,06959.5885,W,2,08,0.98,9.6,M,-34.3,M,0000,0000*5E 
312.789         GPS_NMEA_FROM_GPS    iGPS            $GPGGA,181820.000,4144.3463,N,06959.5885,W,2,08,0.99,9.6,M,-34.3,M,0000,0000*55 
313.792         GPS_NMEA_FROM_GPS    iGPS            $GPGGA,181821.000,4144.3463,N,06959.5885,W,2,08,0.99,9.6,M,-34.3,M,0000,0000*54 
314.794         GPS_NMEA_FROM_GPS    iGPS            $GPRMC,181822.000,A,4144.3463,N,06959.5885,W,0.03,136.32,220321,,,D*7B 
315.797         GPS_NMEA_FROM_GPS    iGPS            $GPRMC,181823.000,A,4144.3463,N,06959.5885,W,0.01,170.11,220321,,,D*7B 
316.799         GPS_NMEA_FROM_GPS    iGPS            $GPGGA,181824.000,4144.3463,N,06959.5885,W,2,08,0.99,9.6,M,-34.3,M,0000,0000*51 
317.802         GPS_NMEA_FROM_GPS    iGPS            $GPGGA,181825.000,4144.3463,N,06959.5885,W,2,08,0.99,9.6,M,-34.3,M,0000,0000*50 
318.704         GPS_NMEA_FROM_GPS    iGPS            $GPGGA,181826.000,4144.3463,N,06959.5885,W,2,08,0.99,9.6,M,-34.3,M,0000,0000*53 
319.807         GPS_NMEA_FROM_GPS    iGPS            $GPGGA,181827.000,4144.3463,N,06959.5885,W,2,08,0.99,9.6,M,-34.3,M,0000,0000*52 
320.710         GPS_NMEA_FROM_GPS    iGPS            $GPGGA,181828.000,4144.3463,N,06959.5885,W,2,08,0.99,9.6,M,-34.3,M,0000,0000*5D 
321.712         GPS_NMEA_FROM_GPS    iGPS            $GPGGA,181829.000,4144.3463,N,06959.5885,W,2,08,0.99,9.6,M,-34.3,M,0000,0000*5C 
322.816         GPS_NMEA_FROM_GPS    iGPS            $GPGGA,181830.000,4144.3463,N,06959.5885,W,2,08,0.99,9.6,M,-34.3,M,0000,0000*54 
323.818         GPS_NMEA_FROM_GPS    iGPS            $GPGGA,181831.000,4144.3463,N,06959.5885,W,2,08,0.99,9.6,M,-34.3,M,0000,0000*55 
324.821         GPS_NMEA_FROM_GPS    iGPS            $GPRMC,181832.000,A,4144.3463,N,06959.5885,W,0.04,231.41,220321,,,D*7D 
325.823         GPS_NMEA_FROM_GPS    iGPS            $GPRMC,181833.000,A,4144.3463,N,06959.5885,W,0.04,220.34,220321,,,D*7E 
326.726         GPS_NMEA_FROM_GPS    iGPS            $GPGGA,181834.000,4144.3463,N,06959.5885,W,2,08,0.98,9.6,M,-34.3,M,0000,0000*51 
327.829         GPS_NMEA_FROM_GPS    iGPS            $GPRMC,181835.000,A,4144.3463,N,06959.5885,W,0.08,228.29,220321,,,D*70 
328.832         GPS_NMEA_FROM_GPS    iGPS            $GPRMC,181836.000,A,4144.3463,N,06959.5886,W,0.05,249.01,220321,,,D*70 
329.834         GPS_NMEA_FROM_GPS    iGPS            $GPGGA,181837.000,4144.3463,N,06959.5886,W,2,08,0.99,9.6,M,-34.3,M,0000,0000*50 
330.837         GPS_NMEA_FROM_GPS    iGPS            $GPRMC,181838.000,A,4144.3463,N,06959.5886,W,0.01,249.29,220321,,,D*70 
331.739         GPS_NMEA_FROM_GPS    iGPS            $GPGGA,181839.000,4144.3463,N,06959.5886,W,2,08,0.99,9.6,M,-34.3,M,0000,0000*5E 
332.742         GPS_NMEA_FROM_GPS    iGPS            $GPGGA,181840.000,4144.3463,N,06959.5886,W,2,08,0.99,9.6,M,-34.3,M,0000,0000*50 
333.745         GPS_NMEA_FROM_GPS    iGPS            $GPGGA,181841.000,4144.3463,N,06959.5886,W,2,08,0.99,9.6,M,-34.3,M,0000,0000*51 
334.748         GPS_NMEA_FROM_GPS    iGPS            $GPGGA,181842.000,4144.3463,N,06959.5886,W,2,08,0.99,9.6,M,-34.3,M,0000,0000*52 
335.851         GPS_NMEA_FROM_GPS    iGPS            $GPRMC,181843.000,A,4144.3463,N,06959.5886,W,0.01,285.64,220321,,,D*75 
336.753         GPS_NMEA_FROM_GPS    iGPS            $GPGGA,181844.000,4144.3463,N,06959.5886,W,2,08,0.98,9.6,M,-34.3,M,0000,0000*55 
337.756         GPS_NMEA_FROM_GPS    iGPS            $GPGGA,181845.000,4144.3463,N,06959.5886,W,2,08,0.99,9.6,M,-34.3,M,0000,0000*55 
338.759         GPS_NMEA_FROM_GPS    iGPS            $GPGGA,181846.000,4144.3463,N,06959.5886,W,2,08,0.99,9.6,M,-34.3,M,0000,0000*56 
339.761         GPS_NMEA_FROM_GPS    iGPS            $GPGGA,181847.000,4144.3463,N,06959.5886,W,2,09,0.89,9.6,M,-34.3,M,0000,0000*57 
340.764         GPS_NMEA_FROM_GPS    iGPS            $GPGGA,181848.000,4144.3463,N,06959.5886,W,2,09,0.89,9.6,M,-34.3,M,0000,0000*58 
341.767         GPS_NMEA_FROM_GPS    iGPS            $GPGGA,181849.000,4144.3463,N,06959.5886,W,2,09,0.89,9.6,M,-34.3,M,0000,0000*59 
342.870         GPS_NMEA_FROM_GPS    iGPS            $GPRMC,181850.000,A,4144.3463,N,06959.5886,W,0.02,280.28,220321,,,D*79 
343.772         GPS_NMEA_FROM_GPS    iGPS            $GPGGA,181851.000,4144.3463,N,06959.5886,W,2,09,0.89,9.6,M,-34.3,M,0000,0000*50 
344.775         GPS_NMEA_FROM_GPS    iGPS            $GPGGA,181852.000,4144.3463,N,06959.5886,W,2,09,0.89,9.6,M,-34.3,M,0000,0000*53 
345.778         GPS_NMEA_FROM_GPS    iGPS            $GPGGA,181853.000,4144.3463,N,06959.5886,W,2,09,0.89,9.6,M,-34.3,M,0000,0000*52 
346.780         GPS_NMEA_FROM_GPS    iGPS            $GPGGA,181854.000,4144.3463,N,06959.5886,W,2,09,0.89,9.6,M,-34.3,M,0000,0000*55 
347.783         GPS_NMEA_FROM_GPS    iGPS            $GPGGA,181855.000,4144.3463,N,06959.5886,W,2,09,0.89,9.6,M,-34.3,M,0000,0000*54 
348.786         GPS_NMEA_FROM_GPS    iGPS            $GPRMC,181856.000,A,4144.3463,N,06959.5886,W,0.03,239.53,220321,,,D*70 
349.788         GPS_NMEA_FROM_GPS    iGPS            $GPGGA,181857.000,4144.3462,N,06959.5887,W,2,09,0.89,9.6,M,-34.3,M,0000,0000*56 
350.791         GPS_NMEA_FROM_GPS    iGPS            $GPGGA,181858.000,4144.3462,N,06959.5888,W,2,09,0.89,9.7,M,-34.3,M,0000,0000*57 
351.794         GPS_NMEA_FROM_GPS    iGPS            $GPGGA,181859.000,4144.3461,N,06959.5890,W,2,09,0.89,9.7,M,-34.3,M,0000,0000*5C 
352.796         GPS_NMEA_FROM_GPS    iGPS            $GPRMC,181900.000,A,4144.3461,N,06959.5891,W,0.03,300.47,220321,,,D*78 
353.799         GPS_NMEA_FROM_GPS    iGPS            $GPRMC,181901.000,A,4144.3461,N,06959.5893,W,0.04,229.11,220321,,,D*75 
354.801         GPS_NMEA_FROM_GPS    iGPS            $GPRMC,181902.000,A,4144.3461,N,06959.5893,W,0.02,304.61,220321,,,D*79 
355.707         GPS_NMEA_FROM_GPS    iGPS            $GPGGA,181903.000,4144.3460,N,06959.5893,W,2,09,0.89,9.7,M,-34.3,M,0000,0000*50 
356.810         GPS_NMEA_FROM_GPS    iGPS            $GPGGA,181904.000,4144.3460,N,06959.5893,W,2,09,0.89,9.7,M,-34.3,M,0000,0000*57 
357.712         GPS_NMEA_FROM_GPS    iGPS            $GPGGA,181905.000,4144.3460,N,06959.5893,W,2,09,0.89,9.7,M,-34.3,M,0000,0000*56 
358.715         GPS_NMEA_FROM_GPS    iGPS            $GPGGA,181906.000,4144.3460,N,06959.5893,W,2,09,0.89,9.7,M,-34.3,M,0000,0000*55 
359.818         GPS_NMEA_FROM_GPS    iGPS            $GPGGA,181907.000,4144.3460,N,06959.5893,W,2,09,0.89,9.7,M,-34.3,M,0000,0000*54 
360.821         GPS_NMEA_FROM_GPS    iGPS            $GPRMC,181908.000,A,4144.3460,N,06959.5893,W,0.04,225.09,220321,,,D*78 
361.724         GPS_NMEA_FROM_GPS    iGPS            $GPGGA,181909.000,4144.3460,N,06959.5893,W,2,09,0.89,9.7,M,-34.3,M,0000,0000*5A 
362.726         GPS_NMEA_FROM_GPS    iGPS            $GPGGA,181910.000,4144.3460,N,06959.5893,W,2,09,0.89,9.7,M,-34.3,M,0000,0000*52 
363.730         GPS_NMEA_FROM_GPS    iGPS            $GPGGA,181911.000,4144.3460,N,06959.5893,W,2,09,0.89,9.7,M,-34.3,M,0000,0000*53 
364.833         GPS_NMEA_FROM_GPS    iGPS            $GPRMC,181912.000,A,4144.3460,N,06959.5893,W,0.03,248.58,220321,,,D*7B 
365.936         GPS_NMEA_FROM_GPS    iGPS            $GPRMC,181913.000,A,4144.3460,N,06959.5893,W,0.05,235.14,220321,,,D*7E 
366.838         GPS_NMEA_FROM_GPS    iGPS            $GPRMC,181914.000,A,4144.3460,N,06959.5893,W,0.08,205.93,220321,,,D*78 
367.741         GPS_NMEA_FROM_GPS    iGPS            $GPGGA,181915.000,4144.3460,N,06959.5893,W,2,09,0.89,9.7,M,-34.3,M,0000,0000*57 
368.844         GPS_NMEA_FROM_GPS    iGPS            $GPRMC,181916.000,A,4144.3460,N,06959.5893,W,0.01,29.46,220321,,,D*47 
369.746         GPS_NMEA_FROM_GPS    iGPS            $GPGGA,181917.000,4144.3460,N,06959.5893,W,2,09,0.89,9.7,M,-34.3,M,0000,0000*55 
370.748         GPS_NMEA_FROM_GPS    iGPS            $GPGGA,181918.000,4144.3460,N,06959.5894,W,2,09,0.89,9.7,M,-34.3,M,0000,0000*5D 
371.851         GPS_NMEA_FROM_GPS    iGPS            $GPRMC,181919.000,A,4144.3460,N,06959.5894,W,0.06,257.20,220321,,,D*73 
372.854         GPS_NMEA_FROM_GPS    iGPS            $GPRMC,181920.000,A,4144.3460,N,06959.5894,W,0.03,270.50,220321,,,D*7E 
373.856         GPS_NMEA_FROM_GPS    iGPS            $GPGGA,181921.000,4144.3460,N,06959.5894,W,2,09,0.89,9.7,M,-34.3,M,0000,0000*57 
374.759         GPS_NMEA_FROM_GPS    iGPS            $GPGGA,181922.000,4144.3460,N,06959.5894,W,2,09,0.89,9.7,M,-34.3,M,0000,0000*54 
375.761         GPS_NMEA_FROM_GPS    iGPS            $GPGGA,181923.000,4144.3460,N,06959.5894,W,2,09,0.89,9.7,M,-34.3,M,0000,0000*55 
376.764         GPS_NMEA_FROM_GPS    iGPS            $GPGGA,181924.000,4144.3460,N,06959.5894,W,2,09,0.89,9.7,M,-34.3,M,0000,0000*52 
377.867         GPS_NMEA_FROM_GPS    iGPS            $GPRMC,181925.000,A,4144.3460,N,06959.5894,W,0.04,199.30,220321,,,D*7E 
378.769         GPS_NMEA_FROM_GPS    iGPS            $GPGGA,181926.000,4144.3460,N,06959.5894,W,2,09,0.89,9.7,M,-34.3,M,0000,0000*50 
379.771         GPS_NMEA_FROM_GPS    iGPS            $GPGGA,181927.000,4144.3460,N,06959.5894,W,2,09,0.89,9.7,M,-34.3,M,0000,0000*51 
380.774         GPS_NMEA_FROM_GPS    iGPS            $GPGGA,181928.000,4144.3460,N,06959.5894,W,2,09,0.89,9.7,M,-34.3,M,0000,0000*5E 
381.777         GPS_NMEA_FROM_GPS    iGPS            $GPGGA,181929.000,4144.3460,N,06959.5894,W,2,09,0.89,9.7,M,-34.3,M,0000,0000*5F 
382.780         GPS_NMEA_FROM_GPS    iGPS            $GPGGA,181930.000,4144.3460,N,06959.5894,W,2,09,0.89,9.7,M,-34.3,M,0000,0000*57 
383.782         GPS_NMEA_FROM_GPS    iGPS            $GPGGA,181931.000,4144.3460,N,06959.5894,W,2,09,0.89,9.7,M,-34.3,M,0000,0000*56 
384.785         GPS_NMEA_FROM_GPS    iGPS            $GPRMC,181932.000,A,4144.3460,N,06959.5894,W,0.06,173.51,220321,,,D*79 
385.787         GPS_NMEA_FROM_GPS    iGPS            $GPGGA,181933.000,4144.3459,N,06959.5894,W,2,09,0.89,9.7,M,-34.3,M,0000,0000*5E 
386.790         GPS_NMEA_FROM_GPS    iGPS            $GPGGA,181934.000,4144.3459,N,06959.5894,W,2,09,0.89,9.7,M,-34.3,M,0000,0000*59 
387.792         GPS_NMEA_FROM_GPS    iGPS            $GPGGA,181935.000,4144.3459,N,06959.5894,W,2,09,0.89,9.7,M,-34.3,M,0000,0000*58 
388.795         GPS_NMEA_FROM_GPS    iGPS            $GPRMC,181936.000,A,4144.3459,N,06959.5895,W,0.03,206.76,220321,,,D*77 
389.796         GPS_NMEA_FROM_GPS    iGPS            $GPGGA,181937.000,4144.3459,N,06959.5895,W,2,09,0.89,9.7,M,-34.3,M,0000,0000*5B 
390.698         GPS_NMEA_FROM_GPS    iGPS            $GPGGA,181938.000,4144.3459,N,06959.5895,W,2,09,0.89,9.7,M,-34.3,M,0000,0000*54 
391.801         GPS_NMEA_FROM_GPS    iGPS            $GPGGA,181939.000,4144.3459,N,06959.5895,W,2,09,0.89,9.7,M,-34.3,M,0000,0000*55 
392.804         GPS_NMEA_FROM_GPS    iGPS            $GPGGA,181940.000,4144.3459,N,06959.5895,W,2,09,0.89,9.7,M,-34.3,M,0000,0000*5B 
393.806         GPS_NMEA_FROM_GPS    iGPS            $GPRMC,181941.000,A,4144.3459,N,06959.5895,W,0.13,184.25,220321,,,D*79 
394.809         GPS_NMEA_FROM_GPS    iGPS            $GPRMC,181942.000,A,4144.3459,N,06959.5895,W,0.16,167.45,220321,,,D*74 
395.711         GPS_NMEA_FROM_GPS    iGPS            $GPGGA,181943.000,4144.3459,N,06959.5895,W,2,09,0.89,9.7,M,-34.3,M,0000,0000*58 
396.714         GPS_NMEA_FROM_GPS    iGPS            $GPGGA,181944.000,4144.3459,N,06959.5895,W,2,09,0.87,9.7,M,-34.3,M,0000,0000*51 
397.817         GPS_NMEA_FROM_GPS    iGPS            $GPGGA,181945.000,4144.3458,N,06959.5895,W,2,09,0.87,9.7,M,-34.3,M,0000,0000*51 
398.819         GPS_NMEA_FROM_GPS    iGPS            $GPGGA,181946.000,4144.3458,N,06959.5895,W,2,09,0.87,9.7,M,-34.3,M,0000,0000*52 
399.721         GPS_NMEA_FROM_GPS    iGPS            $GPGGA,181947.000,4144.3457,N,06959.5895,W,2,09,0.87,9.7,M,-34.3,M,0000,0000*5C 
400.725         GPS_NMEA_FROM_GPS    iGPS            $GPGGA,181948.000,4144.3457,N,06959.5895,W,2,09,0.87,9.7,M,-34.3,M,0000,0000*53 
