1.666           GPS_NMEA_FROM_GPS    iGPS            $GPRMC,193012.000,A,4144.3404,N,06959.5917,W,0.04,98.44,290321,,,D*40 
2.567           GPS_NMEA_FROM_GPS    iGPS            $GPGGA,193013.000,4144.3404,N,06959.5917,W,2,09,1.03,5.0,M,-34.3,M,0000,0000*5C 
2.567           GPS_NMEA_FROM_GPS    iGPS            $GPGGA,193013.000,4144.3404,N,06959.5917,W,2,09,1.03,5.0,M,-34.3,M,0000,0000*5C 
3.570           GPS_NMEA_FROM_GPS    iGPS            $GPGGA,193014.000,4144.3404,N,06959.5917,W,2,08,1.14,5.0,M,-34.3,M,0000,0000*5C 
3.570           GPS_NMEA_FROM_GPS    iGPS            $GPGGA,193014.000,4144.3404,N,06959.5917,W,2,08,1.14,5.0,M,-34.3,M,0000,0000*5C 
4.572           GPS_NMEA_FROM_GPS    iGPS            $GPGGA,193015.000,4144.3404,N,06959.5917,W,2,09,1.03,5.0,M,-34.3,M,0000,0000*5A 
5.575           GPS_NMEA_FROM_GPS    iGPS            $GPGGA,193016.000,4144.3404,N,06959.5917,W,2,09,1.03,5.0,M,-34.3,M,0000,0000*59 
6.577           GPS_NMEA_FROM_GPS    iGPS            $GPGGA,193017.000,4144.3404,N,06959.5917,W,2,09,1.03,5.0,M,-34.3,M,0000,0000*58 
7.579           GPS_NMEA_FROM_GPS    iGPS            $GPGGA,193018.000,4144.3404,N,06959.5917,W,2,09,1.03,5.0,M,-34.3,M,0000,0000*57 
8.582           GPS_NMEA_FROM_GPS    iGPS            $GPGGA,193019.000,4144.3404,N,06959.5917,W,2,09,1.03,5.0,M,-34.3,M,0000,0000*56 
9.584           GPS_NMEA_FROM_GPS    iGPS            $GPGGA,193020.000,4144.3404,N,06959.5917,W,2,09,1.03,5.0,M,-34.3,M,0000,0000*5C 
10.587          GPS_NMEA_FROM_GPS    iGPS            $GPGGA,193021.000,4144.3404,N,06959.5917,W,2,09,1.03,5.0,M,-34.3,M,0000,0000*5D 
11.591          GPS_NMEA_FROM_GPS    iGPS            $GPGGA,193022.000,4144.3404,N,06959.5917,W,2,09,1.03,5.0,M,-34.3,M,0000,0000*5E 
12.593          GPS_NMEA_FROM_GPS    iGPS            $GPGGA,193023.000,4144.3404,N,06959.5917,W,2,09,1.03,5.0,M,-34.3,M,0000,0000*5F 
12.593          GPS_NMEA_FROM_GPS    iGPS            $GPGGA,193023.000,4144.3404,N,06959.5917,W,2,09,1.03,5.0,M,-34.3,M,0000,0000*5F 
13.595          GPS_NMEA_FROM_GPS    iGPS            $GPGGA,193024.000,4144.3404,N,06959.5917,W,2,09,1.03,5.0,M,-34.3,M,0000,0000*58 
14.598          GPS_NMEA_FROM_GPS    iGPS            $GPGGA,193025.000,4144.3404,N,06959.5917,W,2,09,1.03,5.0,M,-34.3,M,0000,0000*59 
15.602          GPS_NMEA_FROM_GPS    iGPS            $GPGGA,193026.000,4144.3404,N,06959.5917,W,2,09,1.03,5.0,M,-34.3,M,0000,0000*5A 
15.602          GPS_NMEA_FROM_GPS    iGPS            $GPGGA,193026.000,4144.3404,N,06959.5917,W,2,09,1.03,5.0,M,-34.3,M,0000,0000*5A 
16.604          GPS_NMEA_FROM_GPS    iGPS            $GPGGA,193027.000,4144.3404,N,06959.5917,W,2,09,1.03,5.0,M,-34.3,M,0000,0000*5B 
17.607          GPS_NMEA_FROM_GPS    iGPS            $GPGGA,193028.000,4144.3404,N,06959.5917,W,2,09,1.03,5.0,M,-34.3,M,0000,0000*54 
18.609          GPS_NMEA_FROM_GPS    iGPS            $GPGGA,193029.000,4144.3404,N,06959.5917,W,2,09,1.03,5.0,M,-34.3,M,0000,0000*55 
19.612          GPS_NMEA_FROM_GPS    iGPS            $GPGGA,193030.000,4144.3404,N,06959.5917,W,2,09,1.03,5.0,M,-34.3,M,0000,0000*5D 
21.016          GPS_NMEA_FROM_GPS    iGPS            $GPRMC,193031.000,A,4144.3404,N,06959.5917,W,0.02,125.60,290321,,,D*76 
22.018          GPS_NMEA_FROM_GPS    iGPS            $GPRMC,193032.000,A,4144.3404,N,06959.5917,W,0.02,19.69,290321,,,D*42 
23.021          GPS_NMEA_FROM_GPS    iGPS            $GPRMC,193033.000,A,4144.3404,N,06959.5917,W,0.01,13.96,290321,,,D*4A 
24.024          GPS_NMEA_FROM_GPS    iGPS            $GPRMC,193034.000,A,4144.3404,N,06959.5917,W,0.01,287.28,290321,,,D*77 
25.025          GPS_NMEA_FROM_GPS    iGPS            $GPRMC,193035.000,A,4144.3404,N,06959.5917,W,0.02,327.06,290321,,,D*72 
26.027          GPS_NMEA_FROM_GPS    iGPS            $GPRMC,193036.000,A,4144.3404,N,06959.5917,W,0.02,308.75,290321,,,D*78 
26.930          GPS_NMEA_FROM_GPS    iGPS            $GPGGA,193037.000,4144.3404,N,06959.5917,W,2,09,1.03,5.0,M,-34.3,M,0000,0000*5A 
27.932          GPS_NMEA_FROM_GPS    iGPS            $GPGGA,193038.000,4144.3404,N,06959.5917,W,2,09,1.03,5.0,M,-34.3,M,0000,0000*55 
28.935          GPS_NMEA_FROM_GPS    iGPS            $GPGGA,193039.000,4144.3404,N,06959.5917,W,2,09,1.03,5.0,M,-34.3,M,0000,0000*54 
29.938          GPS_NMEA_FROM_GPS    iGPS            $GPGGA,193040.000,4144.3404,N,06959.5917,W,2,09,1.03,5.0,M,-34.3,M,0000,0000*5A 
30.939          GPS_NMEA_FROM_GPS    iGPS            $GPGGA,193041.000,4144.3404,N,06959.5917,W,2,09,1.03,5.0,M,-34.3,M,0000,0000*5B 
31.942          GPS_NMEA_FROM_GPS    iGPS            $GPGGA,193042.000,4144.3404,N,06959.5917,W,2,09,1.03,5.0,M,-34.3,M,0000,0000*58 
32.945          GPS_NMEA_FROM_GPS    iGPS            $GPGGA,193043.000,4144.3404,N,06959.5917,W,2,09,1.03,5.0,M,-34.3,M,0000,0000*59 
33.948          GPS_NMEA_FROM_GPS    iGPS            $GPGGA,193044.000,4144.3404,N,06959.5917,W,2,09,1.03,5.0,M,-34.3,M,0000,0000*5E 
34.950          GPS_NMEA_FROM_GPS    iGPS            $GPGGA,193045.000,4144.3404,N,06959.5917,W,2,09,1.03,5.0,M,-34.3,M,0000,0000*5F 
35.953          GPS_NMEA_FROM_GPS    iGPS            $GPGGA,193046.000,4144.3404,N,06959.5917,W,2,09,1.00,5.0,M,-34.3,M,0000,0000*5F 
36.955          GPS_NMEA_FROM_GPS    iGPS            $GPGGA,193047.000,4144.3403,N,06959.5916,W,2,09,1.00,4.9,M,-34.3,M,0000,0000*50 
37.958          GPS_NMEA_FROM_GPS    iGPS            $GPRMC,193048.000,A,4144.3403,N,06959.5916,W,0.16,95.61,290321,,,D*40 
39.060          GPS_NMEA_FROM_GPS    iGPS            $GPGGA,193049.000,4144.3403,N,06959.5915,W,2,10,0.94,4.9,M,-34.3,M,0000,0000*59 
40.063          GPS_NMEA_FROM_GPS    iGPS            $GPGGA,193050.000,4144.3403,N,06959.5915,W,2,10,0.94,4.8,M,-34.3,M,0000,0000*50 
40.965          GPS_NMEA_FROM_GPS    iGPS            $GPRMC,193051.000,A,4144.3403,N,06959.5914,W,0.06,26.86,290321,,,D*4A 
41.968          GPS_NMEA_FROM_GPS    iGPS            $GPGGA,193052.000,4144.3404,N,06959.5914,W,2,09,1.00,4.9,M,-34.3,M,0000,0000*51 
42.970          GPS_NMEA_FROM_GPS    iGPS            $GPGGA,193053.000,4144.3404,N,06959.5914,W,2,09,1.03,4.9,M,-34.3,M,0000,0000*53 
44.073          GPS_NMEA_FROM_GPS    iGPS            $GPGGA,193054.000,4144.3404,N,06959.5914,W,2,10,0.94,4.9,M,-34.3,M,0000,0000*53 
44.976          GPS_NMEA_FROM_GPS    iGPS            $GPGGA,193055.000,4144.3404,N,06959.5914,W,2,09,1.03,4.9,M,-34.3,M,0000,0000*55 
45.978          GPS_NMEA_FROM_GPS    iGPS            $GPGGA,193056.000,4144.3404,N,06959.5914,W,2,10,0.94,4.9,M,-34.3,M,0000,0000*51 
46.981          GPS_NMEA_FROM_GPS    iGPS            $GPGGA,193057.000,4144.3403,N,06959.5914,W,2,10,0.94,4.9,M,-34.3,M,0000,0000*57 
47.984          GPS_NMEA_FROM_GPS    iGPS            $GPGGA,193058.000,4144.3403,N,06959.5914,W,2,09,1.03,4.9,M,-34.3,M,0000,0000*5F 
48.986          GPS_NMEA_FROM_GPS    iGPS            $GPGGA,193059.000,4144.3403,N,06959.5914,W,2,10,0.94,4.9,M,-34.3,M,0000,0000*59 
50.089          GPS_NMEA_FROM_GPS    iGPS            $GPRMC,193100.000,A,4144.3403,N,06959.5914,W,0.07,147.82,290321,,,D*7C 
51.092          GPS_NMEA_FROM_GPS    iGPS            $GPGGA,193101.000,4144.3403,N,06959.5914,W,2,10,0.94,4.9,M,-34.3,M,0000,0000*55 
51.994          GPS_NMEA_FROM_GPS    iGPS            $GPRMC,193102.000,A,4144.3403,N,06959.5914,W,0.06,149.05,290321,,,D*7E 
53.097          GPS_NMEA_FROM_GPS    iGPS            $GPRMC,193103.000,A,4144.3403,N,06959.5914,W,0.06,138.80,290321,,,D*74 
54.099          GPS_NMEA_FROM_GPS    iGPS            $GPRMC,193104.000,A,4144.3403,N,06959.5914,W,0.07,154.97,290321,,,D*7E 
55.001          GPS_NMEA_FROM_GPS    iGPS            $GPGGA,193105.000,4144.3403,N,06959.5914,W,2,10,0.94,4.9,M,-34.3,M,0000,0000*51 
56.004          GPS_NMEA_FROM_GPS    iGPS            $GPGGA,193106.000,4144.3403,N,06959.5914,W,2,09,1.03,4.9,M,-34.3,M,0000,0000*55 
57.007          GPS_NMEA_FROM_GPS    iGPS            $GPGGA,193107.000,4144.3403,N,06959.5914,W,2,09,1.03,4.9,M,-34.3,M,0000,0000*54 
57.910          GPS_NMEA_FROM_GPS    iGPS            $GPGGA,193108.000,4144.3403,N,06959.5914,W,2,09,1.03,4.9,M,-34.3,M,0000,0000*5B 
58.913          GPS_NMEA_FROM_GPS    iGPS            $GPGGA,193109.000,4144.3403,N,06959.5914,W,2,09,1.03,4.9,M,-34.3,M,0000,0000*5A 
60.016          GPS_NMEA_FROM_GPS    iGPS            $GPRMC,193110.000,A,4144.3403,N,06959.5914,W,0.08,135.95,290321,,,D*71 
60.016          GPS_NMEA_FROM_GPS    iGPS            $GPRMC,193110.000,A,4144.3403,N,06959.5914,W,0.08,135.95,290321,,,D*71 
60.920          GPS_NMEA_FROM_GPS    iGPS            $GPGGA,193111.000,4144.3403,N,06959.5913,W,2,09,1.03,4.9,M,-34.3,M,0000,0000*54 
62.024          GPS_NMEA_FROM_GPS    iGPS            $GPRMC,193112.000,A,4144.3403,N,06959.5913,W,0.04,134.54,290321,,,D*74 
63.027          GPS_NMEA_FROM_GPS    iGPS            $GPRMC,193113.000,A,4144.3403,N,06959.5913,W,0.08,142.54,290321,,,D*78 
64.033          GPS_NMEA_FROM_GPS    iGPS            $GPRMC,193114.000,A,4144.3403,N,06959.5913,W,0.06,137.88,290321,,,D*72 
65.035          GPS_NMEA_FROM_GPS    iGPS            $GPRMC,193115.000,A,4144.3403,N,06959.5913,W,0.06,126.99,290321,,,D*73 
65.937          GPS_NMEA_FROM_GPS    iGPS            $GPGGA,193116.000,4144.3403,N,06959.5913,W,2,09,1.03,4.9,M,-34.3,M,0000,0000*53 
66.942          GPS_NMEA_FROM_GPS    iGPS            $GPGGA,193117.000,4144.3403,N,06959.5913,W,2,09,1.03,4.9,M,-34.3,M,0000,0000*52 
68.145          GPS_NMEA_FROM_GPS    iGPS            $GPRMC,193118.000,A,4144.3403,N,06959.5913,W,0.07,140.23,290321,,,D*7E 
69.147          GPS_NMEA_FROM_GPS    iGPS            $GPRMC,193119.000,A,4144.3403,N,06959.5913,W,0.07,136.71,290321,,,D*79 
70.150          GPS_NMEA_FROM_GPS    iGPS            $GPRMC,193120.000,A,4144.3403,N,06959.5913,W,0.06,153.80,290321,,,D*7F 
71.052          GPS_NMEA_FROM_GPS    iGPS            $GPGGA,193121.000,4144.3403,N,06959.5913,W,2,10,0.94,4.9,M,-34.3,M,0000,0000*50 
71.954          GPS_NMEA_FROM_GPS    iGPS            $GPGGA,193122.000,4144.3403,N,06959.5913,W,2,09,1.03,4.9,M,-34.3,M,0000,0000*54 
72.957          GPS_NMEA_FROM_GPS    iGPS            $GPGGA,193123.000,4144.3403,N,06959.5913,W,2,09,1.03,4.9,M,-34.3,M,0000,0000*55 
73.960          GPS_NMEA_FROM_GPS    iGPS            $GPGGA,193124.000,4144.3403,N,06959.5913,W,2,09,1.03,4.9,M,-34.3,M,0000,0000*52 
74.963          GPS_NMEA_FROM_GPS    iGPS            $GPRMC,193125.000,A,4144.3403,N,06959.5913,W,0.06,148.62,290321,,,D*7C 
76.066          GPS_NMEA_FROM_GPS    iGPS            $GPGGA,193126.000,4144.3403,N,06959.5913,W,2,10,0.94,4.9,M,-34.3,M,0000,0000*57 
77.069          GPS_NMEA_FROM_GPS    iGPS            $GPGGA,193127.000,4144.3403,N,06959.5913,W,2,10,0.94,4.9,M,-34.3,M,0000,0000*56 
77.972          GPS_NMEA_FROM_GPS    iGPS            $GPGGA,193128.000,4144.3403,N,06959.5913,W,2,09,1.03,4.9,M,-34.3,M,0000,0000*5E 
78.974          GPS_NMEA_FROM_GPS    iGPS            $GPRMC,193129.000,A,4144.3403,N,06959.5913,W,0.07,152.50,290321,,,D*7B 
79.878          GPS_NMEA_FROM_GPS    iGPS            $GPGGA,193130.000,4144.3403,N,06959.5913,W,2,09,1.03,4.9,M,-34.3,M,0000,0000*57 
80.981          GPS_NMEA_FROM_GPS    iGPS            $GPRMC,193131.000,A,4144.3403,N,06959.5913,W,0.07,144.53,290321,,,D*76 
81.984          GPS_NMEA_FROM_GPS    iGPS            $GPRMC,193132.000,A,4144.3403,N,06959.5913,W,0.08,164.02,290321,,,D*7C 
82.986          GPS_NMEA_FROM_GPS    iGPS            $GPRMC,193133.000,A,4144.3403,N,06959.5913,W,0.07,161.42,290321,,,D*73 
84.088          GPS_NMEA_FROM_GPS    iGPS            $GPGGA,193134.000,4144.3403,N,06959.5913,W,2,10,0.94,4.9,M,-34.3,M,0000,0000*54 
85.091          GPS_NMEA_FROM_GPS    iGPS            $GPGGA,193135.000,4144.3403,N,06959.5913,W,2,10,0.94,4.9,M,-34.3,M,0000,0000*55 
86.094          GPS_NMEA_FROM_GPS    iGPS            $GPGGA,193136.000,4144.3403,N,06959.5913,W,2,10,0.94,4.9,M,-34.3,M,0000,0000*56 
87.096          GPS_NMEA_FROM_GPS    iGPS            $GPGGA,193137.000,4144.3403,N,06959.5913,W,2,10,0.94,4.9,M,-34.3,M,0000,0000*57 
87.898          GPS_NMEA_FROM_GPS    iGPS            $GPGGA,193138.000,4144.3402,N,06959.5913,W,2,09,1.03,4.9,M,-34.3,M,0000,0000*5E 
89.101          GPS_NMEA_FROM_GPS    iGPS            $GPGGA,193139.000,4144.3402,N,06959.5913,W,2,10,0.94,4.9,M,-34.3,M,0000,0000*58 
90.104          GPS_NMEA_FROM_GPS    iGPS            $GPGGA,193140.000,4144.3402,N,06959.5913,W,2,10,0.94,4.9,M,-34.3,M,0000,0000*56 
91.006          GPS_NMEA_FROM_GPS    iGPS            $GPGGA,193141.000,4144.3402,N,06959.5913,W,2,09,1.03,4.9,M,-34.3,M,0000,0000*50 
91.908          GPS_NMEA_FROM_GPS    iGPS            $GPGGA,193142.000,4144.3402,N,06959.5913,W,2,09,1.03,4.9,M,-34.3,M,0000,0000*53 
91.908          GPS_NMEA_FROM_GPS    iGPS            $GPGGA,193142.000,4144.3402,N,06959.5913,W,2,09,1.03,4.9,M,-34.3,M,0000,0000*53 
93.111          GPS_NMEA_FROM_GPS    iGPS            $GPGGA,193143.000,4144.3402,N,06959.5913,W,2,10,0.94,4.9,M,-34.3,M,0000,0000*55 
94.114          GPS_NMEA_FROM_GPS    iGPS            $GPGGA,193144.000,4144.3402,N,06959.5913,W,2,10,0.94,4.9,M,-34.3,M,0000,0000*52 
94.916          GPS_NMEA_FROM_GPS    iGPS            $GPGGA,193145.000,4144.3402,N,06959.5912,W,2,09,1.03,4.9,M,-34.3,M,0000,0000*55 
95.918          GPS_NMEA_FROM_GPS    iGPS            $GPGGA,193146.000,4144.3402,N,06959.5912,W,2,09,1.03,4.9,M,-34.3,M,0000,0000*56 
96.921          GPS_NMEA_FROM_GPS    iGPS            $GPGGA,193147.000,4144.3402,N,06959.5912,W,2,09,1.03,4.9,M,-34.3,M,0000,0000*57 
98.024          GPS_NMEA_FROM_GPS    iGPS            $GPRMC,193148.000,A,4144.3402,N,06959.5912,W,0.01,352.09,290321,,,D*74 
98.926          GPS_NMEA_FROM_GPS    iGPS            $GPGGA,193149.000,4144.3402,N,06959.5912,W,2,09,1.03,4.9,M,-34.3,M,0000,0000*59 
100.029         GPS_NMEA_FROM_GPS    iGPS            $GPRMC,193150.000,A,4144.3402,N,06959.5912,W,0.03,324.93,290321,,,D*7D 
100.931         GPS_NMEA_FROM_GPS    iGPS            $GPGGA,193151.000,4144.3402,N,06959.5912,W,2,09,1.03,4.9,M,-34.3,M,0000,0000*50 
101.933         GPS_NMEA_FROM_GPS    iGPS            $GPGGA,193152.000,4144.3402,N,06959.5912,W,2,09,1.03,4.9,M,-34.3,M,0000,0000*53 
102.935         GPS_NMEA_FROM_GPS    iGPS            $GPGGA,193153.000,4144.3402,N,06959.5912,W,2,09,1.03,4.9,M,-34.3,M,0000,0000*52 
103.939         GPS_NMEA_FROM_GPS    iGPS            $GPGGA,193154.000,4144.3402,N,06959.5912,W,2,09,1.03,4.9,M,-34.3,M,0000,0000*55 
105.042         GPS_NMEA_FROM_GPS    iGPS            $GPRMC,193155.000,A,4144.3402,N,06959.5912,W,0.06,322.81,290321,,,D*78 
105.944         GPS_NMEA_FROM_GPS    iGPS            $GPGGA,193156.000,4144.3402,N,06959.5912,W,2,09,1.03,4.9,M,-34.3,M,0000,0000*57 
106.946         GPS_NMEA_FROM_GPS    iGPS            $GPGGA,193157.000,4144.3402,N,06959.5912,W,2,09,1.03,4.9,M,-34.3,M,0000,0000*56 
107.949         GPS_NMEA_FROM_GPS    iGPS            $GPGGA,193158.000,4144.3402,N,06959.5912,W,2,09,1.03,4.9,M,-34.3,M,0000,0000*59 
108.952         GPS_NMEA_FROM_GPS    iGPS            $GPGGA,193159.000,4144.3402,N,06959.5912,W,2,09,1.03,4.9,M,-34.3,M,0000,0000*58 
109.954         GPS_NMEA_FROM_GPS    iGPS            $GPGGA,193200.000,4144.3402,N,06959.5912,W,2,09,1.03,4.9,M,-34.3,M,0000,0000*57 
110.957         GPS_NMEA_FROM_GPS    iGPS            $GPGGA,193201.000,4144.3402,N,06959.5912,W,2,09,1.03,4.9,M,-34.3,M,0000,0000*56 
111.959         GPS_NMEA_FROM_GPS    iGPS            $GPGGA,193202.000,4144.3402,N,06959.5912,W,2,09,1.03,4.9,M,-34.3,M,0000,0000*55 
112.962         GPS_NMEA_FROM_GPS    iGPS            $GPGGA,193203.000,4144.3402,N,06959.5912,W,2,09,1.03,4.9,M,-34.3,M,0000,0000*54 
113.964         GPS_NMEA_FROM_GPS    iGPS            $GPGGA,193204.000,4144.3402,N,06959.5912,W,2,09,1.03,4.9,M,-34.3,M,0000,0000*53 
114.967         GPS_NMEA_FROM_GPS    iGPS            $GPGGA,193205.000,4144.3402,N,06959.5912,W,2,09,1.03,4.9,M,-34.3,M,0000,0000*52 
115.970         GPS_NMEA_FROM_GPS    iGPS            $GPGGA,193206.000,4144.3402,N,06959.5912,W,2,09,1.03,4.9,M,-34.3,M,0000,0000*51 
116.973         GPS_NMEA_FROM_GPS    iGPS            $GPGGA,193207.000,4144.3402,N,06959.5912,W,2,09,1.03,4.9,M,-34.3,M,0000,0000*50 
117.976         GPS_NMEA_FROM_GPS    iGPS            $GPRMC,193208.000,A,4144.3402,N,06959.5912,W,0.16,354.42,290321,,,D*7C 
119.078         GPS_NMEA_FROM_GPS    iGPS            $GPGGA,193209.000,4144.3403,N,06959.5912,W,2,10,0.94,4.9,M,-34.3,M,0000,0000*58 
119.981         GPS_NMEA_FROM_GPS    iGPS            $GPRMC,193210.000,A,4144.3403,N,06959.5912,W,0.15,28.51,290321,,,D*4D 
120.983         GPS_NMEA_FROM_GPS    iGPS            $GPGGA,193211.000,4144.3404,N,06959.5912,W,2,09,1.00,4.8,M,-34.3,M,0000,0000*53 
121.986         GPS_NMEA_FROM_GPS    iGPS            $GPGGA,193212.000,4144.3404,N,06959.5912,W,2,09,1.03,4.8,M,-34.3,M,0000,0000*53 
122.888         GPS_NMEA_FROM_GPS    iGPS            $GPGGA,193213.000,4144.3404,N,06959.5912,W,2,09,1.03,4.8,M,-34.3,M,0000,0000*52 
123.991         GPS_NMEA_FROM_GPS    iGPS            $GPGGA,193214.000,4144.3404,N,06959.5912,W,2,09,1.03,4.8,M,-34.3,M,0000,0000*55 
124.893         GPS_NMEA_FROM_GPS    iGPS            $GPGGA,193215.000,4144.3404,N,06959.5912,W,2,09,1.03,4.8,M,-34.3,M,0000,0000*54 
126.097         GPS_NMEA_FROM_GPS    iGPS            $GPRMC,193216.000,A,4144.3404,N,06959.5912,W,0.02,120.10,290321,,,D*76 
127.099         GPS_NMEA_FROM_GPS    iGPS            $GPGGA,193217.000,4144.3404,N,06959.5912,W,2,10,0.94,4.8,M,-34.3,M,0000,0000*51 
128.101         GPS_NMEA_FROM_GPS    iGPS            $GPGGA,193218.000,4144.3404,N,06959.5912,W,2,10,0.94,4.8,M,-34.3,M,0000,0000*5E 
129.104         GPS_NMEA_FROM_GPS    iGPS            $GPGGA,193219.000,4144.3404,N,06959.5912,W,2,10,0.94,4.8,M,-34.3,M,0000,0000*5F 
130.107         GPS_NMEA_FROM_GPS    iGPS            $GPGGA,193220.000,4144.3404,N,06959.5912,W,2,10,0.94,4.8,M,-34.3,M,0000,0000*55 
131.010         GPS_NMEA_FROM_GPS    iGPS            $GPRMC,193221.000,A,4144.3404,N,06959.5912,W,0.03,156.85,290321,,,D*7E 
132.012         GPS_NMEA_FROM_GPS    iGPS            $GPGGA,193222.000,4144.3404,N,06959.5912,W,2,09,1.03,4.8,M,-34.3,M,0000,0000*50 
133.015         GPS_NMEA_FROM_GPS    iGPS            $GPRMC,193223.000,A,4144.3404,N,06959.5912,W,0.02,158.29,290321,,,D*75 
134.017         GPS_NMEA_FROM_GPS    iGPS            $GPRMC,193224.000,A,4144.3404,N,06959.5912,W,0.03,157.60,290321,,,D*71 
134.920         GPS_NMEA_FROM_GPS    iGPS            $GPGGA,193225.000,4144.3404,N,06959.5912,W,2,09,1.03,4.8,M,-34.3,M,0000,0000*57 
135.922         GPS_NMEA_FROM_GPS    iGPS            $GPGGA,193226.000,4144.3404,N,06959.5912,W,2,09,1.03,4.8,M,-34.3,M,0000,0000*54 
136.925         GPS_NMEA_FROM_GPS    iGPS            $GPGGA,193227.000,4144.3404,N,06959.5911,W,2,09,1.03,4.8,M,-34.3,M,0000,0000*56 
137.928         GPS_NMEA_FROM_GPS    iGPS            $GPGGA,193228.000,4144.3404,N,06959.5911,W,2,09,1.03,4.8,M,-34.3,M,0000,0000*59 
138.930         GPS_NMEA_FROM_GPS    iGPS            $GPGGA,193229.000,4144.3404,N,06959.5911,W,2,09,1.03,4.8,M,-34.3,M,0000,0000*58 
139.933         GPS_NMEA_FROM_GPS    iGPS            $GPGGA,193230.000,4144.3404,N,06959.5911,W,2,09,1.03,4.8,M,-34.3,M,0000,0000*50 
140.935         GPS_NMEA_FROM_GPS    iGPS            $GPGGA,193231.000,4144.3404,N,06959.5911,W,2,09,1.03,4.8,M,-34.3,M,0000,0000*51 
141.938         GPS_NMEA_FROM_GPS    iGPS            $GPGGA,193232.000,4144.3404,N,06959.5911,W,2,09,1.03,4.8,M,-34.3,M,0000,0000*52 
142.941         GPS_NMEA_FROM_GPS    iGPS            $GPGGA,193233.000,4144.3403,N,06959.5911,W,2,09,1.03,4.8,M,-34.3,M,0000,0000*54 
143.944         GPS_NMEA_FROM_GPS    iGPS            $GPGGA,193234.000,4144.3403,N,06959.5911,W,2,09,1.03,4.8,M,-34.3,M,0000,0000*53 
144.946         GPS_NMEA_FROM_GPS    iGPS            $GPGGA,193235.000,4144.3403,N,06959.5911,W,2,09,1.03,4.8,M,-34.3,M,0000,0000*52 
145.949         GPS_NMEA_FROM_GPS    iGPS            $GPGGA,193236.000,4144.3403,N,06959.5911,W,2,09,1.03,4.8,M,-34.3,M,0000,0000*51 
146.952         GPS_NMEA_FROM_GPS    iGPS            $GPRMC,193237.000,A,4144.3403,N,06959.5911,W,0.04,127.55,290321,,,D*71 
147.954         GPS_NMEA_FROM_GPS    iGPS            $GPGGA,193238.000,4144.3403,N,06959.5911,W,2,09,1.03,4.8,M,-34.3,M,0000,0000*5F 
148.956         GPS_NMEA_FROM_GPS    iGPS            $GPGGA,193239.000,4144.3403,N,06959.5911,W,2,09,1.03,4.8,M,-34.3,M,0000,0000*5E 
149.959         GPS_NMEA_FROM_GPS    iGPS            $GPGGA,193240.000,4144.3403,N,06959.5911,W,2,09,1.03,4.8,M,-34.3,M,0000,0000*50 
150.961         GPS_NMEA_FROM_GPS    iGPS            $GPGGA,193241.000,4144.3403,N,06959.5911,W,2,09,1.03,4.8,M,-34.3,M,0000,0000*51 
151.964         GPS_NMEA_FROM_GPS    iGPS            $GPGGA,193242.000,4144.3403,N,06959.5911,W,2,09,1.00,4.8,M,-34.3,M,0000,0000*51 
152.967         GPS_NMEA_FROM_GPS    iGPS            $GPRMC,193243.000,A,4144.3403,N,06959.5911,W,0.10,113.67,290321,,,D*71 
153.970         GPS_NMEA_FROM_GPS    iGPS            $GPGGA,193244.000,4144.3403,N,06959.5910,W,2,09,1.00,4.8,M,-34.3,M,0000,0000*56 
154.973         GPS_NMEA_FROM_GPS    iGPS            $GPGGA,193245.000,4144.3403,N,06959.5910,W,2,09,1.00,4.8,M,-34.3,M,0000,0000*57 
155.977         GPS_NMEA_FROM_GPS    iGPS            $GPGGA,193246.000,4144.3403,N,06959.5910,W,2,09,1.00,4.8,M,-34.3,M,0000,0000*54 
156.980         GPS_NMEA_FROM_GPS    iGPS            $GPRMC,193247.000,A,4144.3402,N,06959.5909,W,0.13,115.84,290321,,,D*75 
157.982         GPS_NMEA_FROM_GPS    iGPS            $GPRMC,193248.000,A,4144.3402,N,06959.5909,W,0.14,125.10,290321,,,D*73 
158.985         GPS_NMEA_FROM_GPS    iGPS            $GPGGA,193249.000,4144.3402,N,06959.5908,W,2,09,1.00,4.8,M,-34.3,M,0000,0000*53 
159.988         GPS_NMEA_FROM_GPS    iGPS            $GPGGA,193250.000,4144.3402,N,06959.5908,W,2,09,1.00,4.8,M,-34.3,M,0000,0000*5B 
160.990         GPS_NMEA_FROM_GPS    iGPS            $GPRMC,193251.000,A,4144.3402,N,06959.5907,W,0.14,121.00,290321,,,D*70 
161.993         GPS_NMEA_FROM_GPS    iGPS            $GPRMC,193252.000,A,4144.3401,N,06959.5907,W,0.15,115.05,290321,,,D*73 
162.995         GPS_NMEA_FROM_GPS    iGPS            $GPGGA,193253.000,4144.3401,N,06959.5906,W,2,09,1.00,4.7,M,-34.3,M,0000,0000*5A 
163.898         GPS_NMEA_FROM_GPS    iGPS            $GPGGA,193254.000,4144.3401,N,06959.5906,W,2,09,1.00,4.8,M,-34.3,M,0000,0000*52 
164.901         GPS_NMEA_FROM_GPS    iGPS            $GPGGA,193255.000,4144.3401,N,06959.5905,W,2,09,1.00,4.7,M,-34.3,M,0000,0000*5F 
166.003         GPS_NMEA_FROM_GPS    iGPS            $GPGGA,193256.000,4144.3401,N,06959.5905,W,2,09,1.00,4.8,M,-34.3,M,0000,0000*53 
167.005         GPS_NMEA_FROM_GPS    iGPS            $GPGGA,193257.000,4144.3400,N,06959.5904,W,2,09,1.00,4.8,M,-34.3,M,0000,0000*52 
168.008         GPS_NMEA_FROM_GPS    iGPS            $GPGGA,193258.000,4144.3400,N,06959.5904,W,2,09,1.00,4.7,M,-34.3,M,0000,0000*52 
168.913         GPS_NMEA_FROM_GPS    iGPS            $GPGGA,193259.000,4144.3400,N,06959.5903,W,2,09,1.00,4.7,M,-34.3,M,0000,0000*54 
169.914         GPS_NMEA_FROM_GPS    iGPS            $GPGGA,193300.000,4144.3400,N,06959.5903,W,2,09,1.00,4.7,M,-34.3,M,0000,0000*59 
171.017         GPS_NMEA_FROM_GPS    iGPS            $GPRMC,193301.000,A,4144.3400,N,06959.5902,W,0.17,115.86,290321,,,D*79 
171.919         GPS_NMEA_FROM_GPS    iGPS            $GPGGA,193302.000,4144.3399,N,06959.5902,W,2,09,1.00,4.7,M,-34.3,M,0000,0000*5D 
172.922         GPS_NMEA_FROM_GPS    iGPS            $GPGGA,193303.000,4144.3399,N,06959.5901,W,2,09,1.00,4.7,M,-34.3,M,0000,0000*5F 
173.925         GPS_NMEA_FROM_GPS    iGPS            $GPGGA,193304.000,4144.3399,N,06959.5901,W,2,09,1.00,4.7,M,-34.3,M,0000,0000*58 
174.928         GPS_NMEA_FROM_GPS    iGPS            $GPGGA,193305.000,4144.3399,N,06959.5900,W,2,09,1.00,4.7,M,-34.3,M,0000,0000*58 
175.930         GPS_NMEA_FROM_GPS    iGPS            $GPGGA,193306.000,4144.3398,N,06959.5899,W,2,09,1.00,4.7,M,-34.3,M,0000,0000*5B 
176.933         GPS_NMEA_FROM_GPS    iGPS            $GPGGA,193307.000,4144.3398,N,06959.5899,W,2,09,1.00,4.7,M,-34.3,M,0000,0000*5A 
177.936         GPS_NMEA_FROM_GPS    iGPS            $GPGGA,193308.000,4144.3398,N,06959.5898,W,2,09,1.00,4.7,M,-34.3,M,0000,0000*54 
178.938         GPS_NMEA_FROM_GPS    iGPS            $GPGGA,193309.000,4144.3398,N,06959.5898,W,2,09,1.00,4.6,M,-34.3,M,0000,0000*54 
179.941         GPS_NMEA_FROM_GPS    iGPS            $GPGGA,193310.000,4144.3398,N,06959.5897,W,2,09,1.00,4.6,M,-34.3,M,0000,0000*53 
180.943         GPS_NMEA_FROM_GPS    iGPS            $GPGGA,193311.000,4144.3397,N,06959.5896,W,2,09,1.00,4.6,M,-34.3,M,0000,0000*5C 
181.946         GPS_NMEA_FROM_GPS    iGPS            $GPRMC,193312.000,A,4144.3397,N,06959.5896,W,0.18,108.05,290321,,,D*76 
182.948         GPS_NMEA_FROM_GPS    iGPS            $GPGGA,193313.000,4144.3396,N,06959.5894,W,2,09,1.00,4.6,M,-34.3,M,0000,0000*5D 
183.951         GPS_NMEA_FROM_GPS    iGPS            $GPGGA,193314.000,4144.3395,N,06959.5892,W,2,09,1.00,4.6,M,-34.3,M,0000,0000*5F 
184.953         GPS_NMEA_FROM_GPS    iGPS            $GPGGA,193315.000,4144.3394,N,06959.5890,W,2,09,1.00,4.7,M,-34.3,M,0000,0000*5C 
185.956         GPS_NMEA_FROM_GPS    iGPS            $GPRMC,193316.000,A,4144.3393,N,06959.5889,W,0.18,108.40,290321,,,D*79 
186.958         GPS_NMEA_FROM_GPS    iGPS            $GPGGA,193317.000,4144.3392,N,06959.5888,W,2,09,1.00,4.7,M,-34.3,M,0000,0000*51 
187.961         GPS_NMEA_FROM_GPS    iGPS            $GPGGA,193318.000,4144.3391,N,06959.5886,W,2,09,1.00,4.7,M,-34.3,M,0000,0000*53 
188.964         GPS_NMEA_FROM_GPS    iGPS            $GPRMC,193319.000,A,4144.3390,N,06959.5885,W,0.18,105.46,290321,,,D*72 
189.966         GPS_NMEA_FROM_GPS    iGPS            $GPRMC,193320.000,A,4144.3389,N,06959.5883,W,0.17,105.14,290321,,,D*7E 
190.968         GPS_NMEA_FROM_GPS    iGPS            $GPGGA,193321.000,4144.3389,N,06959.5883,W,2,09,1.00,4.9,M,-34.3,M,0000,0000*5B 
191.971         GPS_NMEA_FROM_GPS    iGPS            $GPGGA,193322.000,4144.3389,N,06959.5882,W,2,09,1.00,4.9,M,-34.3,M,0000,0000*59 
192.973         GPS_NMEA_FROM_GPS    iGPS            $GPGGA,193323.000,4144.3389,N,06959.5881,W,2,09,1.00,4.9,M,-34.3,M,0000,0000*5B 
193.976         GPS_NMEA_FROM_GPS    iGPS            $GPRMC,193324.000,A,4144.3389,N,06959.5881,W,0.20,99.17,290321,,,D*4B 
194.978         GPS_NMEA_FROM_GPS    iGPS            $GPGGA,193325.000,4144.3388,N,06959.5880,W,2,09,1.00,4.9,M,-34.3,M,0000,0000*5D 
195.981         GPS_NMEA_FROM_GPS    iGPS            $GPGGA,193326.000,4144.3388,N,06959.5879,W,2,09,1.00,4.9,M,-34.3,M,0000,0000*58 
196.984         GPS_NMEA_FROM_GPS    iGPS            $GPGGA,193327.000,4144.3388,N,06959.5878,W,2,09,1.00,4.9,M,-34.3,M,0000,0000*58 
197.987         GPS_NMEA_FROM_GPS    iGPS            $GPGGA,193328.000,4144.3388,N,06959.5878,W,2,09,1.00,4.9,M,-34.3,M,0000,0000*57 
198.989         GPS_NMEA_FROM_GPS    iGPS            $GPRMC,193329.000,A,4144.3388,N,06959.5877,W,0.23,92.13,290321,,,D*42 
199.891         GPS_NMEA_FROM_GPS    iGPS            $GPGGA,193330.000,4144.3388,N,06959.5876,W,2,09,1.00,4.9,M,-34.3,M,0000,0000*50 
200.994         GPS_NMEA_FROM_GPS    iGPS            $GPGGA,193331.000,4144.3388,N,06959.5875,W,2,09,1.00,4.9,M,-34.3,M,0000,0000*52 
201.997         GPS_NMEA_FROM_GPS    iGPS            $GPGGA,193332.000,4144.3388,N,06959.5874,W,2,10,0.94,4.9,M,-34.3,M,0000,0000*54 
203.000         GPS_NMEA_FROM_GPS    iGPS            $GPGGA,193333.000,4144.3388,N,06959.5873,W,2,10,0.94,4.9,M,-34.3,M,0000,0000*52 
204.003         GPS_NMEA_FROM_GPS    iGPS            $GPRMC,193334.000,A,4144.3388,N,06959.5872,W,0.23,87.52,290321,,,D*4A 
205.106         GPS_NMEA_FROM_GPS    iGPS            $GPRMC,193335.000,A,4144.3388,N,06959.5872,W,0.24,86.83,290321,,,D*41 
206.108         GPS_NMEA_FROM_GPS    iGPS            $GPRMC,193336.000,A,4144.3388,N,06959.5871,W,0.25,85.57,290321,,,D*4A 
207.111         GPS_NMEA_FROM_GPS    iGPS            $GPGGA,193337.000,4144.3389,N,06959.5870,W,2,10,0.94,4.9,M,-34.3,M,0000,0000*54 
208.013         GPS_NMEA_FROM_GPS    iGPS            $GPRMC,193338.000,A,4144.3389,N,06959.5869,W,0.24,84.86,290321,,,D*40 
209.015         GPS_NMEA_FROM_GPS    iGPS            $GPGGA,193339.000,4144.3389,N,06959.5868,W,2,10,0.94,4.9,M,-34.3,M,0000,0000*53 
210.018         GPS_NMEA_FROM_GPS    iGPS            $GPRMC,193340.000,A,4144.3389,N,06959.5867,W,0.25,83.09,290321,,,D*40 
211.021         GPS_NMEA_FROM_GPS    iGPS            $GPRMC,193341.000,A,4144.3389,N,06959.5866,W,0.27,81.82,290321,,,D*43 
212.023         GPS_NMEA_FROM_GPS    iGPS            $GPGGA,193342.000,4144.3389,N,06959.5865,W,2,10,0.94,4.9,M,-34.3,M,0000,0000*52 
213.025         GPS_NMEA_FROM_GPS    iGPS            $GPGGA,193343.000,4144.3389,N,06959.5864,W,2,09,1.00,4.9,M,-34.3,M,0000,0000*56 
214.028         GPS_NMEA_FROM_GPS    iGPS            $GPGGA,193344.000,4144.3389,N,06959.5863,W,2,09,1.00,4.9,M,-34.3,M,0000,0000*56 
214.931         GPS_NMEA_FROM_GPS    iGPS            $GPRMC,193345.000,A,4144.3389,N,06959.5862,W,0.28,78.26,290321,,,D*44 
216.034         GPS_NMEA_FROM_GPS    iGPS            $GPGGA,193346.000,4144.3390,N,06959.5861,W,2,09,1.00,4.9,M,-34.3,M,0000,0000*5E 
217.139         GPS_NMEA_FROM_GPS    iGPS            $GPRMC,193347.000,A,4144.3390,N,06959.5860,W,0.29,77.18,290321,,,D*4F 
218.141         GPS_NMEA_FROM_GPS    iGPS            $GPRMC,193348.000,A,4144.3390,N,06959.5859,W,0.30,76.54,290321,,,D*4B 
219.144         GPS_NMEA_FROM_GPS    iGPS            $GPRMC,193349.000,A,4144.3390,N,06959.5858,W,0.30,76.34,290321,,,D*4D 
220.147         GPS_NMEA_FROM_GPS    iGPS            $GPRMC,193350.000,A,4144.3390,N,06959.5857,W,0.29,76.35,290321,,,D*43 
221.049         GPS_NMEA_FROM_GPS    iGPS            $GPGGA,193351.000,4144.3391,N,06959.5856,W,2,09,1.00,4.9,M,-34.3,M,0000,0000*5D 
222.051         GPS_NMEA_FROM_GPS    iGPS            $GPGGA,193352.000,4144.3391,N,06959.5854,W,2,09,1.00,4.9,M,-34.3,M,0000,0000*5C 
223.054         GPS_NMEA_FROM_GPS    iGPS            $GPGGA,193353.000,4144.3391,N,06959.5853,W,2,10,0.94,4.9,M,-34.3,M,0000,0000*5E 
224.056         GPS_NMEA_FROM_GPS    iGPS            $GPGGA,193354.000,4144.3391,N,06959.5852,W,2,10,0.94,4.9,M,-34.3,M,0000,0000*58 
225.059         GPS_NMEA_FROM_GPS    iGPS            $GPGGA,193355.000,4144.3392,N,06959.5851,W,2,10,0.94,4.9,M,-34.3,M,0000,0000*59 
226.061         GPS_NMEA_FROM_GPS    iGPS            $GPGGA,193356.000,4144.3392,N,06959.5850,W,2,10,0.94,4.9,M,-34.3,M,0000,0000*5B 
227.063         GPS_NMEA_FROM_GPS    iGPS            $GPGGA,193357.000,4144.3392,N,06959.5849,W,2,10,0.94,4.9,M,-34.3,M,0000,0000*52 
227.966         GPS_NMEA_FROM_GPS    iGPS            $GPGGA,193358.000,4144.3392,N,06959.5848,W,2,10,0.94,4.9,M,-34.3,M,0000,0000*5C 
229.068         GPS_NMEA_FROM_GPS    iGPS            $GPGGA,193359.000,4144.3393,N,06959.5847,W,2,10,0.94,4.9,M,-34.3,M,0000,0000*53 
230.071         GPS_NMEA_FROM_GPS    iGPS            $GPGGA,193400.000,4144.3393,N,06959.5846,W,2,10,0.94,4.9,M,-34.3,M,0000,0000*59 
231.074         GPS_NMEA_FROM_GPS    iGPS            $GPRMC,193401.000,A,4144.3393,N,06959.5845,W,0.31,68.15,290321,,,D*44 
231.976         GPS_NMEA_FROM_GPS    iGPS            $GPRMC,193402.000,A,4144.3394,N,06959.5844,W,0.31,67.56,290321,,,D*49 
232.878         GPS_NMEA_FROM_GPS    iGPS            $GPGGA,193403.000,4144.3394,N,06959.5843,W,2,09,1.00,4.9,M,-34.3,M,0000,0000*5C 
233.981         GPS_NMEA_FROM_GPS    iGPS            $GPGGA,193404.000,4144.3394,N,06959.5842,W,2,09,1.00,4.9,M,-34.3,M,0000,0000*5A 
234.984         GPS_NMEA_FROM_GPS    iGPS            $GPGGA,193405.000,4144.3395,N,06959.5840,W,2,09,1.00,4.9,M,-34.3,M,0000,0000*58 
235.986         GPS_NMEA_FROM_GPS    iGPS            $GPGGA,193406.000,4144.3395,N,06959.5839,W,2,09,1.00,4.9,M,-34.3,M,0000,0000*55 
236.989         GPS_NMEA_FROM_GPS    iGPS            $GPGGA,193407.000,4144.3396,N,06959.5838,W,2,09,1.00,4.9,M,-34.3,M,0000,0000*56 
237.992         GPS_NMEA_FROM_GPS    iGPS            $GPRMC,193408.000,A,4144.3396,N,06959.5837,W,0.31,62.64,290321,,,D*41 
238.994         GPS_NMEA_FROM_GPS    iGPS            $GPRMC,193409.000,A,4144.3396,N,06959.5836,W,0.32,60.79,290321,,,D*4C 
239.997         GPS_NMEA_FROM_GPS    iGPS            $GPRMC,193410.000,A,4144.3397,N,06959.5835,W,0.32,59.89,290321,,,D*43 
240.999         GPS_NMEA_FROM_GPS    iGPS            $GPGGA,193411.000,4144.3397,N,06959.5834,W,2,09,1.00,5.0,M,-34.3,M,0000,0000*54 
241.902         GPS_NMEA_FROM_GPS    iGPS            $GPGGA,193412.000,4144.3398,N,06959.5833,W,2,09,1.00,4.9,M,-34.3,M,0000,0000*57 
242.904         GPS_NMEA_FROM_GPS    iGPS            $GPGGA,193413.000,4144.3398,N,06959.5832,W,2,09,1.00,5.0,M,-34.3,M,0000,0000*5F 
243.907         GPS_NMEA_FROM_GPS    iGPS            $GPGGA,193414.000,4144.3399,N,06959.5831,W,2,09,1.00,5.0,M,-34.3,M,0000,0000*5A 
245.013         GPS_NMEA_FROM_GPS    iGPS            $GPRMC,193415.000,A,4144.3399,N,06959.5830,W,0.32,54.96,290321,,,D*4E 
246.015         GPS_NMEA_FROM_GPS    iGPS            $GPRMC,193416.000,A,4144.3400,N,06959.5830,W,0.33,54.29,290321,,,D*4F 
246.917         GPS_NMEA_FROM_GPS    iGPS            $GPGGA,193417.000,4144.3400,N,06959.5829,W,2,09,1.00,5.0,M,-34.3,M,0000,0000*57 
247.920         GPS_NMEA_FROM_GPS    iGPS            $GPGGA,193418.000,4144.3401,N,06959.5828,W,2,09,1.00,4.9,M,-34.3,M,0000,0000*50 
248.923         GPS_NMEA_FROM_GPS    iGPS            $GPGGA,193419.000,4144.3402,N,06959.5827,W,2,09,1.00,4.9,M,-34.3,M,0000,0000*5D 
249.925         GPS_NMEA_FROM_GPS    iGPS            $GPGGA,193420.000,4144.3402,N,06959.5826,W,2,09,1.00,4.9,M,-34.3,M,0000,0000*56 
251.028         GPS_NMEA_FROM_GPS    iGPS            $GPRMC,193421.000,A,4144.3403,N,06959.5825,W,0.32,50.27,290321,,,D*47 
252.032         GPS_NMEA_FROM_GPS    iGPS            $GPRMC,193422.000,A,4144.3403,N,06959.5824,W,0.37,49.45,290321,,,D*4C 
252.934         GPS_NMEA_FROM_GPS    iGPS            $GPGGA,193423.000,4144.3404,N,06959.5823,W,2,09,1.00,4.9,M,-34.3,M,0000,0000*56 
253.937         GPS_NMEA_FROM_GPS    iGPS            $GPGGA,193424.000,4144.3405,N,06959.5822,W,2,09,1.00,4.9,M,-34.3,M,0000,0000*51 
254.939         GPS_NMEA_FROM_GPS    iGPS            $GPGGA,193425.000,4144.3405,N,06959.5821,W,2,09,1.00,4.9,M,-34.3,M,0000,0000*53 
255.942         GPS_NMEA_FROM_GPS    iGPS            $GPGGA,193426.000,4144.3406,N,06959.5820,W,2,09,1.00,4.9,M,-34.3,M,0000,0000*52 
256.946         GPS_NMEA_FROM_GPS    iGPS            $GPGGA,193427.000,4144.3407,N,06959.5819,W,2,09,1.00,4.9,M,-34.3,M,0000,0000*58 
257.949         GPS_NMEA_FROM_GPS    iGPS            $GPGGA,193428.000,4144.3407,N,06959.5818,W,2,09,1.00,5.0,M,-34.3,M,0000,0000*5E 
258.953         GPS_NMEA_FROM_GPS    iGPS            $GPGGA,193429.000,4144.3408,N,06959.5817,W,2,09,1.00,5.0,M,-34.3,M,0000,0000*5F 
259.955         GPS_NMEA_FROM_GPS    iGPS            $GPGGA,193430.000,4144.3409,N,06959.5816,W,2,09,1.00,5.0,M,-34.3,M,0000,0000*57 
260.958         GPS_NMEA_FROM_GPS    iGPS            $GPGGA,193431.000,4144.3410,N,06959.5815,W,2,09,1.00,5.0,M,-34.3,M,0000,0000*5D 
261.961         GPS_NMEA_FROM_GPS    iGPS            $GPGGA,193432.000,4144.3411,N,06959.5814,W,2,09,1.00,5.0,M,-34.3,M,0000,0000*5E 
262.963         GPS_NMEA_FROM_GPS    iGPS            $GPGGA,193433.000,4144.3411,N,06959.5813,W,2,09,1.00,5.0,M,-34.3,M,0000,0000*58 
263.966         GPS_NMEA_FROM_GPS    iGPS            $GPRMC,193434.000,A,4144.3412,N,06959.5812,W,0.36,41.69,290321,,,D*49 
264.968         GPS_NMEA_FROM_GPS    iGPS            $GPGGA,193435.000,4144.3413,N,06959.5812,W,2,09,1.00,5.0,M,-34.3,M,0000,0000*5D 
265.970         GPS_NMEA_FROM_GPS    iGPS            $GPGGA,193436.000,4144.3414,N,06959.5811,W,2,09,1.00,4.9,M,-34.3,M,0000,0000*52 
266.973         GPS_NMEA_FROM_GPS    iGPS            $GPGGA,193437.000,4144.3414,N,06959.5810,W,2,09,1.00,5.0,M,-34.3,M,0000,0000*5A 
267.976         GPS_NMEA_FROM_GPS    iGPS            $GPRMC,193438.000,A,4144.3415,N,06959.5809,W,0.38,37.49,290321,,,D*45 
268.878         GPS_NMEA_FROM_GPS    iGPS            $GPGGA,193439.000,4144.3416,N,06959.5808,W,2,09,1.00,5.0,M,-34.3,M,0000,0000*5F 
269.880         GPS_NMEA_FROM_GPS    iGPS            $GPGGA,193440.000,4144.3417,N,06959.5807,W,2,09,1.00,5.0,M,-34.3,M,0000,0000*5F 
270.883         GPS_NMEA_FROM_GPS    iGPS            $GPGGA,193441.000,4144.3418,N,06959.5807,W,2,09,1.00,4.9,M,-34.3,M,0000,0000*59 
271.986         GPS_NMEA_FROM_GPS    iGPS            $GPGGA,193442.000,4144.3419,N,06959.5806,W,2,09,1.00,5.0,M,-34.3,M,0000,0000*52 
272.989         GPS_NMEA_FROM_GPS    iGPS            $GPGGA,193443.000,4144.3420,N,06959.5805,W,2,09,1.00,5.0,M,-34.3,M,0000,0000*5A 
273.991         GPS_NMEA_FROM_GPS    iGPS            $GPGGA,193444.000,4144.3421,N,06959.5804,W,2,09,1.00,5.0,M,-34.3,M,0000,0000*5D 
274.994         GPS_NMEA_FROM_GPS    iGPS            $GPGGA,193445.000,4144.3421,N,06959.5804,W,2,09,1.00,5.0,M,-34.3,M,0000,0000*5C 
275.897         GPS_NMEA_FROM_GPS    iGPS            $GPGGA,193446.000,4144.3422,N,06959.5803,W,2,09,1.00,5.0,M,-34.3,M,0000,0000*5B 
277.000         GPS_NMEA_FROM_GPS    iGPS            $GPRMC,193447.000,A,4144.3423,N,06959.5802,W,0.38,35.55,290321,,,D*4C 
278.002         GPS_NMEA_FROM_GPS    iGPS            $GPGGA,193448.000,4144.3424,N,06959.5801,W,2,09,1.00,5.0,M,-34.3,M,0000,0000*51 
278.905         GPS_NMEA_FROM_GPS    iGPS            $GPGGA,193449.000,4144.3425,N,06959.5800,W,2,09,1.00,5.0,M,-34.3,M,0000,0000*50 
280.007         GPS_NMEA_FROM_GPS    iGPS            $GPGGA,193450.000,4144.3426,N,06959.5799,W,2,09,1.00,5.0,M,-34.3,M,0000,0000*54 
281.010         GPS_NMEA_FROM_GPS    iGPS            $GPRMC,193451.000,A,4144.3427,N,06959.5798,W,0.40,34.38,290321,,,D*46 
282.013         GPS_NMEA_FROM_GPS    iGPS            $GPRMC,193452.000,A,4144.3427,N,06959.5798,W,0.39,32.57,290321,,,D*44 
283.016         GPS_NMEA_FROM_GPS    iGPS            $GPRMC,193453.000,A,4144.3428,N,06959.5797,W,0.37,30.59,290321,,,D*47 
284.018         GPS_NMEA_FROM_GPS    iGPS            $GPRMC,193454.000,A,4144.3429,N,06959.5796,W,0.35,30.34,290321,,,D*49 
284.920         GPS_NMEA_FROM_GPS    iGPS            $GPGGA,193455.000,4144.3430,N,06959.5796,W,2,09,1.00,5.0,M,-34.3,M,0000,0000*59 
285.923         GPS_NMEA_FROM_GPS    iGPS            $GPGGA,193456.000,4144.3431,N,06959.5795,W,2,09,1.00,5.0,M,-34.3,M,0000,0000*58 
286.925         GPS_NMEA_FROM_GPS    iGPS            $GPGGA,193457.000,4144.3432,N,06959.5794,W,2,09,1.00,5.0,M,-34.3,M,0000,0000*5B 
287.928         GPS_NMEA_FROM_GPS    iGPS            $GPGGA,193458.000,4144.3433,N,06959.5793,W,2,09,1.00,5.0,M,-34.3,M,0000,0000*52 
288.930         GPS_NMEA_FROM_GPS    iGPS            $GPGGA,193459.000,4144.3434,N,06959.5793,W,2,09,1.00,5.0,M,-34.3,M,0000,0000*54 
289.933         GPS_NMEA_FROM_GPS    iGPS            $GPGGA,193500.000,4144.3435,N,06959.5792,W,2,09,1.00,5.0,M,-34.3,M,0000,0000*59 
290.937         GPS_NMEA_FROM_GPS    iGPS            $GPGGA,193501.000,4144.3436,N,06959.5791,W,2,09,1.00,5.0,M,-34.3,M,0000,0000*58 
291.940         GPS_NMEA_FROM_GPS    iGPS            $GPGGA,193502.000,4144.3437,N,06959.5791,W,2,09,1.00,5.0,M,-34.3,M,0000,0000*5A 
292.943         GPS_NMEA_FROM_GPS    iGPS            $GPGGA,193503.000,4144.3438,N,06959.5790,W,2,09,1.00,5.0,M,-34.3,M,0000,0000*55 
293.945         GPS_NMEA_FROM_GPS    iGPS            $GPGGA,193504.000,4144.3439,N,06959.5789,W,2,09,1.00,5.0,M,-34.3,M,0000,0000*5B 
294.948         GPS_NMEA_FROM_GPS    iGPS            $GPGGA,193505.000,4144.3440,N,06959.5789,W,2,09,1.00,5.0,M,-34.3,M,0000,0000*54 
295.951         GPS_NMEA_FROM_GPS    iGPS            $GPGGA,193506.000,4144.3441,N,06959.5788,W,2,09,1.00,5.0,M,-34.3,M,0000,0000*57 
296.954         GPS_NMEA_FROM_GPS    iGPS            $GPGGA,193507.000,4144.3443,N,06959.5788,W,2,09,1.00,5.0,M,-34.3,M,0000,0000*54 
297.956         GPS_NMEA_FROM_GPS    iGPS            $GPGGA,193508.000,4144.3444,N,06959.5787,W,2,09,1.00,5.0,M,-34.3,M,0000,0000*53 
298.959         GPS_NMEA_FROM_GPS    iGPS            $GPGGA,193509.000,4144.3445,N,06959.5786,W,2,09,1.00,5.0,M,-34.3,M,0000,0000*52 
299.962         GPS_NMEA_FROM_GPS    iGPS            $GPRMC,193510.000,A,4144.3446,N,06959.5786,W,0.49,19.47,290321,,,D*44 
300.965         GPS_NMEA_FROM_GPS    iGPS            $GPGGA,193511.000,4144.3447,N,06959.5785,W,2,09,1.00,5.0,M,-34.3,M,0000,0000*5A 
301.968         GPS_NMEA_FROM_GPS    iGPS            $GPGGA,193512.000,4144.3449,N,06959.5785,W,2,09,1.00,5.0,M,-34.3,M,0000,0000*57 
302.972         GPS_NMEA_FROM_GPS    iGPS            $GPGGA,193513.000,4144.3450,N,06959.5784,W,2,09,1.00,5.0,M,-34.3,M,0000,0000*5F 
303.974         GPS_NMEA_FROM_GPS    iGPS            $GPGGA,193514.000,4144.3452,N,06959.5784,W,2,09,1.00,5.0,M,-34.3,M,0000,0000*5A 
304.977         GPS_NMEA_FROM_GPS    iGPS            $GPGGA,193515.000,4144.3453,N,06959.5783,W,2,09,1.04,5.0,M,-34.3,M,0000,0000*59 
305.879         GPS_NMEA_FROM_GPS    iGPS            $GPGGA,193516.000,4144.3454,N,06959.5783,W,2,09,1.04,5.0,M,-34.3,M,0000,0000*5D 
306.982         GPS_NMEA_FROM_GPS    iGPS            $GPRMC,193517.000,A,4144.3456,N,06959.5782,W,0.53,13.88,290321,,,D*44 
307.985         GPS_NMEA_FROM_GPS    iGPS            $GPGGA,193518.000,4144.3457,N,06959.5782,W,2,09,1.04,5.0,M,-34.3,M,0000,0000*51 
308.887         GPS_NMEA_FROM_GPS    iGPS            $GPGGA,193519.000,4144.3459,N,06959.5781,W,2,09,1.04,5.0,M,-34.3,M,0000,0000*5D 
309.990         GPS_NMEA_FROM_GPS    iGPS            $GPGGA,193520.000,4144.3460,N,06959.5781,W,2,09,1.04,5.0,M,-34.3,M,0000,0000*5D 
310.892         GPS_NMEA_FROM_GPS    iGPS            $GPGGA,193521.000,4144.3461,N,06959.5781,W,2,09,1.04,5.0,M,-34.3,M,0000,0000*5D 
311.895         GPS_NMEA_FROM_GPS    iGPS            $GPGGA,193522.000,4144.3463,N,06959.5780,W,2,09,1.04,5.0,M,-34.3,M,0000,0000*5D 
312.897         GPS_NMEA_FROM_GPS    iGPS            $GPGGA,193523.000,4144.3464,N,06959.5780,W,2,09,1.04,5.0,M,-34.3,M,0000,0000*5B 
313.900         GPS_NMEA_FROM_GPS    iGPS            $GPGGA,193524.000,4144.3466,N,06959.5780,W,2,09,1.04,5.0,M,-34.3,M,0000,0000*5E 
315.004         GPS_NMEA_FROM_GPS    iGPS            $GPRMC,193525.000,A,4144.3467,N,06959.5779,W,0.51,8.26,290321,,,D*7F 
315.906         GPS_NMEA_FROM_GPS    iGPS            $GPGGA,193526.000,4144.3469,N,06959.5779,W,2,09,1.04,5.0,M,-34.3,M,0000,0000*55 
317.009         GPS_NMEA_FROM_GPS    iGPS            $GPRMC,193527.000,A,4144.3470,N,06959.5779,W,0.51,6.12,290321,,,D*72 
317.912         GPS_NMEA_FROM_GPS    iGPS            $GPGGA,193528.000,4144.3471,N,06959.5779,W,2,09,1.04,5.0,M,-34.3,M,0000,0000*52 
319.014         GPS_NMEA_FROM_GPS    iGPS            $GPRMC,193529.000,A,4144.3473,N,06959.5779,W,0.49,3.98,290321,,,D*71 
320.017         GPS_NMEA_FROM_GPS    iGPS            $GPRMC,193530.000,A,4144.3474,N,06959.5779,W,0.50,3.29,290321,,,D*7C 
320.919         GPS_NMEA_FROM_GPS    iGPS            $GPGGA,193531.000,4144.3476,N,06959.5779,W,2,09,1.04,5.0,M,-34.3,M,0000,0000*5D 
322.022         GPS_NMEA_FROM_GPS    iGPS            $GPRMC,193532.000,A,4144.3477,N,06959.5779,W,0.52,2.84,290321,,,D*79 
322.924         GPS_NMEA_FROM_GPS    iGPS            $GPGGA,193533.000,4144.3479,N,06959.5779,W,2,09,1.04,5.0,M,-34.3,M,0000,0000*50 
323.927         GPS_NMEA_FROM_GPS    iGPS            $GPGGA,193534.000,4144.3480,N,06959.5779,W,2,09,1.04,5.0,M,-34.3,M,0000,0000*51 
324.930         GPS_NMEA_FROM_GPS    iGPS            $GPGGA,193535.000,4144.3482,N,06959.5779,W,2,09,1.04,5.0,M,-34.3,M,0000,0000*52 
325.932         GPS_NMEA_FROM_GPS    iGPS            $GPGGA,193536.000,4144.3483,N,06959.5779,W,2,09,1.04,5.0,M,-34.3,M,0000,0000*50 
326.935         GPS_NMEA_FROM_GPS    iGPS            $GPRMC,193537.000,A,4144.3484,N,06959.5779,W,0.55,359.23,290321,,,D*77 
327.938         GPS_NMEA_FROM_GPS    iGPS            $GPGGA,193538.000,4144.3486,N,06959.5779,W,2,09,1.04,5.0,M,-34.3,M,0000,0000*5B 
328.940         GPS_NMEA_FROM_GPS    iGPS            $GPRMC,193539.000,A,4144.3487,N,06959.5779,W,0.53,357.16,290321,,,D*74 
329.942         GPS_NMEA_FROM_GPS    iGPS            $GPGGA,193540.000,4144.3489,N,06959.5779,W,2,09,1.04,5.0,M,-34.3,M,0000,0000*5B 
330.945         GPS_NMEA_FROM_GPS    iGPS            $GPGGA,193541.000,4144.3490,N,06959.5779,W,2,09,1.04,5.0,M,-34.3,M,0000,0000*52 
331.947         GPS_NMEA_FROM_GPS    iGPS            $GPGGA,193542.000,4144.3492,N,06959.5780,W,2,09,1.04,5.0,M,-34.3,M,0000,0000*55 
332.950         GPS_NMEA_FROM_GPS    iGPS            $GPGGA,193543.000,4144.3493,N,06959.5780,W,2,09,1.04,5.0,M,-34.3,M,0000,0000*55 
333.953         GPS_NMEA_FROM_GPS    iGPS            $GPGGA,193544.000,4144.3495,N,06959.5780,W,2,09,1.04,5.0,M,-34.3,M,0000,0000*54 
334.955         GPS_NMEA_FROM_GPS    iGPS            $GPGGA,193545.000,4144.3496,N,06959.5781,W,2,09,1.04,5.0,M,-34.3,M,0000,0000*57 
335.958         GPS_NMEA_FROM_GPS    iGPS            $GPRMC,193546.000,A,4144.3498,N,06959.5781,W,0.57,348.54,290321,,,D*79 
336.960         GPS_NMEA_FROM_GPS    iGPS            $GPGGA,193547.000,4144.3499,N,06959.5782,W,2,09,1.00,5.0,M,-34.3,M,0000,0000*5D 
337.862         GPS_NMEA_FROM_GPS    iGPS            $GPGGA,193548.000,4144.3501,N,06959.5782,W,2,09,1.00,5.0,M,-34.3,M,0000,0000*52 
338.965         GPS_NMEA_FROM_GPS    iGPS            $GPGGA,193549.000,4144.3502,N,06959.5783,W,2,09,1.00,5.0,M,-34.3,M,0000,0000*51 
339.968         GPS_NMEA_FROM_GPS    iGPS            $GPGGA,193550.000,4144.3504,N,06959.5784,W,2,09,1.00,5.0,M,-34.3,M,0000,0000*58 
340.971         GPS_NMEA_FROM_GPS    iGPS            $GPGGA,193551.000,4144.3505,N,06959.5784,W,2,09,1.00,5.0,M,-34.3,M,0000,0000*58 
341.973         GPS_NMEA_FROM_GPS    iGPS            $GPGGA,193552.000,4144.3507,N,06959.5784,W,2,09,1.00,5.0,M,-34.3,M,0000,0000*59 
342.976         GPS_NMEA_FROM_GPS    iGPS            $GPGGA,193553.000,4144.3508,N,06959.5784,W,2,09,1.00,5.0,M,-34.3,M,0000,0000*57 
343.978         GPS_NMEA_FROM_GPS    iGPS            $GPGGA,193554.000,4144.3509,N,06959.5784,W,2,09,1.00,5.0,M,-34.3,M,0000,0000*51 
344.981         GPS_NMEA_FROM_GPS    iGPS            $GPGGA,193555.000,4144.3511,N,06959.5783,W,2,09,1.00,5.0,M,-34.3,M,0000,0000*5E 
345.984         GPS_NMEA_FROM_GPS    iGPS            $GPGGA,193556.000,4144.3512,N,06959.5784,W,2,09,1.00,4.9,M,-34.3,M,0000,0000*51 
347.089         GPS_NMEA_FROM_GPS    iGPS            $GPGGA,193557.000,4144.3513,N,06959.5785,W,2,10,0.94,4.9,M,-34.3,M,0000,0000*54 
347.892         GPS_NMEA_FROM_GPS    iGPS            $GPGGA,193558.000,4144.3515,N,06959.5786,W,2,09,1.00,4.9,M,-34.3,M,0000,0000*5A 
348.894         GPS_NMEA_FROM_GPS    iGPS            $GPGGA,193559.000,4144.3516,N,06959.5787,W,2,09,1.00,4.9,M,-34.3,M,0000,0000*59 
349.997         GPS_NMEA_FROM_GPS    iGPS            $GPGGA,193600.000,4144.3517,N,06959.5788,W,2,09,1.00,4.9,M,-34.3,M,0000,0000*58 
350.899         GPS_NMEA_FROM_GPS    iGPS            $GPGGA,193601.000,4144.3519,N,06959.5789,W,2,09,1.00,4.9,M,-34.3,M,0000,0000*56 
352.002         GPS_NMEA_FROM_GPS    iGPS            $GPGGA,193602.000,4144.3520,N,06959.5790,W,2,09,1.00,4.9,M,-34.3,M,0000,0000*57 
353.006         GPS_NMEA_FROM_GPS    iGPS            $GPGGA,193603.000,4144.3521,N,06959.5792,W,2,09,1.00,4.9,M,-34.3,M,0000,0000*55 
353.908         GPS_NMEA_FROM_GPS    iGPS            $GPGGA,193604.000,4144.3522,N,06959.5792,W,2,09,1.00,4.9,M,-34.3,M,0000,0000*51 
354.911         GPS_NMEA_FROM_GPS    iGPS            $GPGGA,193605.000,4144.3524,N,06959.5793,W,2,09,1.00,4.8,M,-34.3,M,0000,0000*56 
355.913         GPS_NMEA_FROM_GPS    iGPS            $GPGGA,193606.000,4144.3524,N,06959.5794,W,2,09,1.00,4.8,M,-34.3,M,0000,0000*52 
356.916         GPS_NMEA_FROM_GPS    iGPS            $GPGGA,193607.000,4144.3525,N,06959.5795,W,2,09,1.00,4.8,M,-34.3,M,0000,0000*53 
358.020         GPS_NMEA_FROM_GPS    iGPS            $GPRMC,193608.000,A,4144.3526,N,06959.5796,W,0.62,317.06,290321,,,D*79 
358.923         GPS_NMEA_FROM_GPS    iGPS            $GPGGA,193609.000,4144.3527,N,06959.5797,W,2,09,1.00,4.8,M,-34.3,M,0000,0000*5D 
359.925         GPS_NMEA_FROM_GPS    iGPS            $GPGGA,193610.000,4144.3528,N,06959.5798,W,2,09,1.00,4.8,M,-34.3,M,0000,0000*55 
360.928         GPS_NMEA_FROM_GPS    iGPS            $GPGGA,193611.000,4144.3529,N,06959.5799,W,2,09,1.00,4.8,M,-34.3,M,0000,0000*54 
361.931         GPS_NMEA_FROM_GPS    iGPS            $GPGGA,193612.000,4144.3530,N,06959.5801,W,2,09,1.00,4.7,M,-34.3,M,0000,0000*5E 
363.034         GPS_NMEA_FROM_GPS    iGPS            $GPRMC,193613.000,A,4144.3531,N,06959.5802,W,0.62,307.37,290321,,,D*74 
364.037         GPS_NMEA_FROM_GPS    iGPS            $GPRMC,193614.000,A,4144.3532,N,06959.5804,W,0.63,305.75,290321,,,D*73 
364.940         GPS_NMEA_FROM_GPS    iGPS            $GPGGA,193615.000,4144.3533,N,06959.5805,W,2,09,1.00,4.6,M,-34.3,M,0000,0000*5F 
365.943         GPS_NMEA_FROM_GPS    iGPS            $GPGGA,193616.000,4144.3534,N,06959.5807,W,2,09,1.00,4.6,M,-34.3,M,0000,0000*59 
366.945         GPS_NMEA_FROM_GPS    iGPS            $GPGGA,193617.000,4144.3535,N,06959.5809,W,2,09,1.00,4.5,M,-34.3,M,0000,0000*54 
367.947         GPS_NMEA_FROM_GPS    iGPS            $GPGGA,193618.000,4144.3535,N,06959.5811,W,2,09,1.00,4.5,M,-34.3,M,0000,0000*52 
368.950         GPS_NMEA_FROM_GPS    iGPS            $GPGGA,193619.000,4144.3536,N,06959.5813,W,2,09,1.00,4.5,M,-34.3,M,0000,0000*52 
369.952         GPS_NMEA_FROM_GPS    iGPS            $GPGGA,193620.000,4144.3536,N,06959.5815,W,2,09,1.00,4.4,M,-34.3,M,0000,0000*5F 
370.955         GPS_NMEA_FROM_GPS    iGPS            $GPGGA,193621.000,4144.3537,N,06959.5817,W,2,09,1.00,4.4,M,-34.3,M,0000,0000*5D 
371.958         GPS_NMEA_FROM_GPS    iGPS            $GPGGA,193622.000,4144.3538,N,06959.5819,W,2,09,1.00,4.4,M,-34.3,M,0000,0000*5F 
372.961         GPS_NMEA_FROM_GPS    iGPS            $GPGGA,193623.000,4144.3538,N,06959.5821,W,2,09,1.03,4.4,M,-34.3,M,0000,0000*56 
373.963         GPS_NMEA_FROM_GPS    iGPS            $GPGGA,193624.000,4144.3539,N,06959.5824,W,2,08,1.11,4.3,M,-34.3,M,0000,0000*50 
374.966         GPS_NMEA_FROM_GPS    iGPS            $GPGGA,193625.000,4144.3539,N,06959.5826,W,2,09,1.03,4.3,M,-34.3,M,0000,0000*51 
375.970         GPS_NMEA_FROM_GPS    iGPS            $GPGGA,193626.000,4144.3539,N,06959.5829,W,2,09,1.03,4.3,M,-34.3,M,0000,0000*5D 
376.972         GPS_NMEA_FROM_GPS    iGPS            $GPGGA,193627.000,4144.3539,N,06959.5831,W,2,09,1.03,4.3,M,-34.3,M,0000,0000*55 
377.976         GPS_NMEA_FROM_GPS    iGPS            $GPGGA,193628.000,4144.3540,N,06959.5834,W,2,09,1.03,4.4,M,-34.3,M,0000,0000*56 
378.978         GPS_NMEA_FROM_GPS    iGPS            $GPGGA,193629.000,4144.3540,N,06959.5837,W,2,09,1.03,4.4,M,-34.3,M,0000,0000*54 
379.981         GPS_NMEA_FROM_GPS    iGPS            $GPGGA,193630.000,4144.3539,N,06959.5839,W,2,08,1.11,4.3,M,-34.3,M,0000,0000*59 
380.984         GPS_NMEA_FROM_GPS    iGPS            $GPGGA,193631.000,4144.3539,N,06959.5842,W,2,09,1.00,4.4,M,-34.3,M,0000,0000*52 
381.887         GPS_NMEA_FROM_GPS    iGPS            $GPGGA,193632.000,4144.3538,N,06959.5844,W,2,09,1.00,4.4,M,-34.3,M,0000,0000*56 
382.991         GPS_NMEA_FROM_GPS    iGPS            $GPRMC,193633.000,A,4144.3538,N,06959.5847,W,0.65,271.58,290321,,,D*70 
383.993         GPS_NMEA_FROM_GPS    iGPS            $GPGGA,193634.000,4144.3537,N,06959.5849,W,2,09,1.00,4.4,M,-34.3,M,0000,0000*52 
384.895         GPS_NMEA_FROM_GPS    iGPS            $GPGGA,193635.000,4144.3537,N,06959.5852,W,2,09,1.00,4.4,M,-34.3,M,0000,0000*59 
385.998         GPS_NMEA_FROM_GPS    iGPS            $GPGGA,193636.000,4144.3536,N,06959.5855,W,2,09,1.00,4.4,M,-34.3,M,0000,0000*5C 
387.002         GPS_NMEA_FROM_GPS    iGPS            $GPGGA,193637.000,4144.3536,N,06959.5857,W,2,09,1.00,4.5,M,-34.3,M,0000,0000*5E 
388.004         GPS_NMEA_FROM_GPS    iGPS            $GPGGA,193638.000,4144.3535,N,06959.5860,W,2,10,0.94,4.6,M,-34.3,M,0000,0000*51 
389.007         GPS_NMEA_FROM_GPS    iGPS            $GPGGA,193639.000,4144.3535,N,06959.5863,W,2,10,0.94,4.6,M,-34.3,M,0000,0000*53 
390.010         GPS_NMEA_FROM_GPS    iGPS            $GPGGA,193640.000,4144.3534,N,06959.5866,W,2,10,0.94,4.7,M,-34.3,M,0000,0000*58 
391.014         GPS_NMEA_FROM_GPS    iGPS            $GPRMC,193641.000,A,4144.3533,N,06959.5868,W,0.69,259.18,290321,,,D*71 
392.016         GPS_NMEA_FROM_GPS    iGPS            $GPGGA,193642.000,4144.3533,N,06959.5871,W,2,10,0.94,4.6,M,-34.3,M,0000,0000*5A 
393.019         GPS_NMEA_FROM_GPS    iGPS            $GPRMC,193643.000,A,4144.3532,N,06959.5874,W,0.71,254.79,290321,,,D*7C 
394.021         GPS_NMEA_FROM_GPS    iGPS            $GPRMC,193644.000,A,4144.3531,N,06959.5876,W,0.74,252.30,290321,,,D*74 
395.024         GPS_NMEA_FROM_GPS    iGPS            $GPGGA,193645.000,4144.3530,N,06959.5879,W,2,10,0.94,4.5,M,-34.3,M,0000,0000*55 
396.026         GPS_NMEA_FROM_GPS    iGPS            $GPGGA,193646.000,4144.3529,N,06959.5882,W,2,09,1.03,4.6,M,-34.3,M,0000,0000*5E 
397.029         GPS_NMEA_FROM_GPS    iGPS            $GPRMC,193647.000,A,4144.3529,N,06959.5885,W,0.67,247.85,290321,,,D*7A 
398.031         GPS_NMEA_FROM_GPS    iGPS            $GPGGA,193648.000,4144.3528,N,06959.5887,W,2,09,1.03,4.7,M,-34.3,M,0000,0000*55 
398.934         GPS_NMEA_FROM_GPS    iGPS            $GPGGA,193649.000,4144.3527,N,06959.5889,W,2,09,1.03,4.7,M,-34.3,M,0000,0000*55 
400.036         GPS_NMEA_FROM_GPS    iGPS            $GPGGA,193650.000,4144.3526,N,06959.5892,W,2,09,1.03,4.7,M,-34.3,M,0000,0000*56 
400.939         GPS_NMEA_FROM_GPS    iGPS            $GPGGA,193651.000,4144.3525,N,06959.5894,W,2,09,1.03,4.8,M,-34.3,M,0000,0000*5D 
402.042         GPS_NMEA_FROM_GPS    iGPS            $GPGGA,193652.000,4144.3524,N,06959.5896,W,2,09,1.03,4.8,M,-34.3,M,0000,0000*5D 
402.944         GPS_NMEA_FROM_GPS    iGPS            $GPGGA,193653.000,4144.3522,N,06959.5898,W,2,09,1.07,4.8,M,-34.3,M,0000,0000*50 
403.947         GPS_NMEA_FROM_GPS    iGPS            $GPGGA,193654.000,4144.3521,N,06959.5900,W,2,09,1.03,4.8,M,-34.3,M,0000,0000*50 
405.050         GPS_NMEA_FROM_GPS    iGPS            $GPGGA,193655.000,4144.3520,N,06959.5902,W,2,09,1.03,4.9,M,-34.3,M,0000,0000*53 
405.952         GPS_NMEA_FROM_GPS    iGPS            $GPGGA,193656.000,4144.3519,N,06959.5903,W,2,10,0.94,4.9,M,-34.3,M,0000,0000*5C 
407.054         GPS_NMEA_FROM_GPS    iGPS            $GPGGA,193657.000,4144.3518,N,06959.5905,W,2,10,0.94,5.0,M,-34.3,M,0000,0000*52 
408.060         GPS_NMEA_FROM_GPS    iGPS            $GPRMC,193658.000,A,4144.3516,N,06959.5907,W,0.65,224.36,290321,,,D*7C 
409.063         GPS_NMEA_FROM_GPS    iGPS            $GPRMC,193659.000,A,4144.3515,N,06959.5909,W,0.68,222.06,290321,,,D*78 
410.065         GPS_NMEA_FROM_GPS    iGPS            $GPRMC,193700.000,A,4144.3513,N,06959.5911,W,0.69,219.99,290321,,,D*75 
411.068         GPS_NMEA_FROM_GPS    iGPS            $GPRMC,193701.000,A,4144.3511,N,06959.5912,W,0.72,217.39,290321,,,D*7B 
411.068         GPS_NMEA_FROM_GPS    iGPS            $GPRMC,193701.000,A,4144.3511,N,06959.5912,W,0.72,217.39,290321,,,D*7B 
411.970         GPS_NMEA_FROM_GPS    iGPS            $GPGGA,193702.000,4144.3509,N,06959.5914,W,2,10,0.94,5.5,M,-34.3,M,0000,0000*56 
411.970         GPS_NMEA_FROM_GPS    iGPS            $GPGGA,193702.000,4144.3509,N,06959.5914,W,2,10,0.94,5.5,M,-34.3,M,0000,0000*56 
413.073         GPS_NMEA_FROM_GPS    iGPS            $GPRMC,193703.000,A,4144.3507,N,06959.5914,W,0.72,212.47,290321,,,D*74 
413.977         GPS_NMEA_FROM_GPS    iGPS            $GPGGA,193704.000,4144.3505,N,06959.5915,W,2,09,1.03,5.4,M,-34.3,M,0000,0000*5B 
414.979         GPS_NMEA_FROM_GPS    iGPS            $GPGGA,193705.000,4144.3503,N,06959.5916,W,2,09,1.03,5.4,M,-34.3,M,0000,0000*5F 
415.984         GPS_NMEA_FROM_GPS    iGPS            $GPGGA,193706.000,4144.3500,N,06959.5917,W,2,09,1.03,5.3,M,-34.3,M,0000,0000*59 
416.987         GPS_NMEA_FROM_GPS    iGPS            $GPGGA,193707.000,4144.3498,N,06959.5918,W,2,09,1.03,5.3,M,-34.3,M,0000,0000*57 
417.990         GPS_NMEA_FROM_GPS    iGPS            $GPGGA,193708.000,4144.3496,N,06959.5918,W,2,10,0.94,5.3,M,-34.3,M,0000,0000*51 
418.993         GPS_NMEA_FROM_GPS    iGPS            $GPGGA,193709.000,4144.3493,N,06959.5919,W,2,10,0.94,5.3,M,-34.3,M,0000,0000*54 
419.995         GPS_NMEA_FROM_GPS    iGPS            $GPGGA,193710.000,4144.3491,N,06959.5920,W,2,10,0.94,5.3,M,-34.3,M,0000,0000*54 
420.998         GPS_NMEA_FROM_GPS    iGPS            $GPGGA,193711.000,4144.3488,N,06959.5921,W,2,10,0.94,5.3,M,-34.3,M,0000,0000*5C 
422.001         GPS_NMEA_FROM_GPS    iGPS            $GPRMC,193712.000,A,4144.3486,N,06959.5922,W,0.72,190.80,290321,,,D*7B 
423.004         GPS_NMEA_FROM_GPS    iGPS            $GPGGA,193713.000,4144.3484,N,06959.5922,W,2,10,0.94,5.3,M,-34.3,M,0000,0000*51 
423.004         GPS_NMEA_FROM_GPS    iGPS            $GPGGA,193713.000,4144.3484,N,06959.5922,W,2,10,0.94,5.3,M,-34.3,M,0000,0000*51 
424.007         GPS_NMEA_FROM_GPS    iGPS            $GPRMC,193714.000,A,4144.3482,N,06959.5922,W,0.71,186.35,290321,,,D*73 
425.010         GPS_NMEA_FROM_GPS    iGPS            $GPRMC,193715.000,A,4144.3479,N,06959.5922,W,0.76,184.40,290321,,,D*71 
426.012         GPS_NMEA_FROM_GPS    iGPS            $GPGGA,193716.000,4144.3477,N,06959.5923,W,2,10,0.94,5.5,M,-34.3,M,0000,0000*5F 
426.915         GPS_NMEA_FROM_GPS    iGPS            $GPGGA,193717.000,4144.3475,N,06959.5922,W,2,10,0.94,5.6,M,-34.3,M,0000,0000*5E 
428.018         GPS_NMEA_FROM_GPS    iGPS            $GPGGA,193718.000,4144.3473,N,06959.5922,W,2,10,0.94,5.6,M,-34.3,M,0000,0000*57 
429.022         GPS_NMEA_FROM_GPS    iGPS            $GPGGA,193719.000,4144.3471,N,06959.5921,W,2,10,0.94,5.7,M,-34.3,M,0000,0000*56 
430.023         GPS_NMEA_FROM_GPS    iGPS            $GPGGA,193720.000,4144.3468,N,06959.5921,W,2,10,0.94,5.7,M,-34.3,M,0000,0000*54 
431.026         GPS_NMEA_FROM_GPS    iGPS            $GPGGA,193721.000,4144.3466,N,06959.5921,W,2,10,0.94,5.7,M,-34.3,M,0000,0000*5B 
432.028         GPS_NMEA_FROM_GPS    iGPS            $GPGGA,193722.000,4144.3463,N,06959.5920,W,2,10,0.94,5.8,M,-34.3,M,0000,0000*53 
432.931         GPS_NMEA_FROM_GPS    iGPS            $GPGGA,193723.000,4144.3461,N,06959.5919,W,2,10,0.94,5.8,M,-34.3,M,0000,0000*5A 
434.034         GPS_NMEA_FROM_GPS    iGPS            $GPGGA,193724.000,4144.3459,N,06959.5918,W,2,10,0.94,5.8,M,-34.3,M,0000,0000*57 
435.036         GPS_NMEA_FROM_GPS    iGPS            $GPGGA,193725.000,4144.3456,N,06959.5917,W,2,10,0.94,5.8,M,-34.3,M,0000,0000*56 
436.039         GPS_NMEA_FROM_GPS    iGPS            $GPRMC,193726.000,A,4144.3454,N,06959.5916,W,0.77,163.51,290321,,,D*71 
437.042         GPS_NMEA_FROM_GPS    iGPS            $GPGGA,193727.000,4144.3451,N,06959.5914,W,2,10,0.94,5.9,M,-34.3,M,0000,0000*51 
438.045         GPS_NMEA_FROM_GPS    iGPS            $GPRMC,193728.000,A,4144.3449,N,06959.5913,W,0.76,159.44,290321,,,D*7A 
439.047         GPS_NMEA_FROM_GPS    iGPS            $GPRMC,193729.000,A,4144.3447,N,06959.5911,W,0.75,157.15,290321,,,D*7E 
440.050         GPS_NMEA_FROM_GPS    iGPS            $GPRMC,193730.000,A,4144.3445,N,06959.5910,W,0.74,155.05,290321,,,D*77 
441.052         GPS_NMEA_FROM_GPS    iGPS            $GPGGA,193731.000,4144.3442,N,06959.5907,W,2,10,0.94,5.9,M,-34.3,M,0000,0000*56 
442.055         GPS_NMEA_FROM_GPS    iGPS            $GPGGA,193732.000,4144.3440,N,06959.5905,W,2,10,0.94,5.9,M,-34.3,M,0000,0000*55 
442.957         GPS_NMEA_FROM_GPS    iGPS            $GPGGA,193733.000,4144.3438,N,06959.5903,W,2,10,0.94,5.8,M,-34.3,M,0000,0000*5C 
443.961         GPS_NMEA_FROM_GPS    iGPS            $GPGGA,193734.000,4144.3436,N,06959.5900,W,2,10,0.94,5.8,M,-34.3,M,0000,0000*56 
445.064         GPS_NMEA_FROM_GPS    iGPS            $GPRMC,193735.000,A,4144.3434,N,06959.5898,W,0.75,142.90,290321,,,D*7E 
446.066         GPS_NMEA_FROM_GPS    iGPS            $GPRMC,193736.000,A,4144.3432,N,06959.5896,W,0.77,140.64,290321,,,D*7E 
447.069         GPS_NMEA_FROM_GPS    iGPS            $GPRMC,193737.000,A,4144.3431,N,06959.5893,W,0.76,138.78,290321,,,D*7A 
