2.186           GPS_NMEA_FROM_GPS    iGPS            $GPRMC,183652.000,A,4144.3374,N,06959.5485,W,0.25,241.72,220321,,,D*7E 
3.088           GPS_NMEA_FROM_GPS    iGPS            $GPGGA,183653.000,4144.3373,N,06959.5486,W,2,09,0.96,9.5,M,-34.3,M,0000,0000*59 
3.088           GPS_NMEA_FROM_GPS    iGPS            $GPGGA,183653.000,4144.3373,N,06959.5486,W,2,09,0.96,9.5,M,-34.3,M,0000,0000*59 
4.190           GPS_NMEA_FROM_GPS    iGPS            $GPRMC,183654.000,A,4144.3373,N,06959.5486,W,0.23,235.87,220321,,,D*73 
5.092           GPS_NMEA_FROM_GPS    iGPS            $GPGGA,183655.000,4144.3373,N,06959.5487,W,2,09,0.96,9.4,M,-34.3,M,0000,0000*5F 
6.094           GPS_NMEA_FROM_GPS    iGPS            $GPGGA,183656.000,4144.3372,N,06959.5487,W,2,09,0.96,9.4,M,-34.3,M,0000,0000*5D 
7.096           GPS_NMEA_FROM_GPS    iGPS            $GPGGA,183657.000,4144.3372,N,06959.5488,W,2,09,0.96,9.4,M,-34.3,M,0000,0000*53 
8.099           GPS_NMEA_FROM_GPS    iGPS            $GPGGA,183658.000,4144.3372,N,06959.5489,W,2,09,0.96,9.4,M,-34.3,M,0000,0000*5D 
9.201           GPS_NMEA_FROM_GPS    iGPS            $GPRMC,183659.000,A,4144.3371,N,06959.5489,W,0.22,242.13,220321,,,D*7F 
10.203          GPS_NMEA_FROM_GPS    iGPS            $GPRMC,183700.000,A,4144.3371,N,06959.5490,W,0.24,246.76,220321,,,D*7B 
11.105          GPS_NMEA_FROM_GPS    iGPS            $GPGGA,183701.000,4144.3371,N,06959.5491,W,2,09,0.96,9.4,M,-34.3,M,0000,0000*5A 
12.108          GPS_NMEA_FROM_GPS    iGPS            $GPGGA,183702.000,4144.3371,N,06959.5492,W,2,09,0.96,9.5,M,-34.3,M,0000,0000*5B 
12.108          GPS_NMEA_FROM_GPS    iGPS            $GPGGA,183702.000,4144.3371,N,06959.5492,W,2,09,0.96,9.5,M,-34.3,M,0000,0000*5B 
13.111          GPS_NMEA_FROM_GPS    iGPS            $GPGGA,183703.000,4144.3371,N,06959.5493,W,2,09,0.96,9.5,M,-34.3,M,0000,0000*5B 
14.113          GPS_NMEA_FROM_GPS    iGPS            $GPGGA,183704.000,4144.3371,N,06959.5493,W,2,09,0.96,9.5,M,-34.3,M,0000,0000*5C 
15.115          GPS_NMEA_FROM_GPS    iGPS            $GPGGA,183705.000,4144.3371,N,06959.5494,W,2,09,0.96,9.5,M,-34.3,M,0000,0000*5A 
15.115          GPS_NMEA_FROM_GPS    iGPS            $GPGGA,183705.000,4144.3371,N,06959.5494,W,2,09,0.96,9.5,M,-34.3,M,0000,0000*5A 
16.118          GPS_NMEA_FROM_GPS    iGPS            $GPGGA,183706.000,4144.3370,N,06959.5495,W,2,10,0.83,9.4,M,-34.3,M,0000,0000*54 
17.220          GPS_NMEA_FROM_GPS    iGPS            $GPRMC,183707.000,A,4144.3370,N,06959.5495,W,0.20,241.70,220321,,,D*7D 
17.220          GPS_NMEA_FROM_GPS    iGPS            $GPRMC,183707.000,A,4144.3370,N,06959.5495,W,0.20,241.70,220321,,,D*7D 
18.122          GPS_NMEA_FROM_GPS    iGPS            $GPGGA,183708.000,4144.3370,N,06959.5496,W,2,09,0.96,9.4,M,-34.3,M,0000,0000*55 
19.125          GPS_NMEA_FROM_GPS    iGPS            $GPGGA,183709.000,4144.3369,N,06959.5497,W,2,10,0.83,9.4,M,-34.3,M,0000,0000*51 
20.027          GPS_NMEA_FROM_GPS    iGPS            $GPGGA,183710.000,4144.3369,N,06959.5497,W,2,09,0.96,9.4,M,-34.3,M,0000,0000*55 
21.130          GPS_NMEA_FROM_GPS    iGPS            $GPGGA,183711.000,4144.3369,N,06959.5498,W,2,10,0.83,9.4,M,-34.3,M,0000,0000*57 
22.133          GPS_NMEA_FROM_GPS    iGPS            $GPGGA,183712.000,4144.3368,N,06959.5498,W,2,10,0.83,9.4,M,-34.3,M,0000,0000*55 
23.135          GPS_NMEA_FROM_GPS    iGPS            $GPGGA,183713.000,4144.3368,N,06959.5499,W,2,11,0.76,9.4,M,-34.3,M,0000,0000*5E 
24.038          GPS_NMEA_FROM_GPS    iGPS            $GPGGA,183714.000,4144.3368,N,06959.5499,W,2,11,0.76,9.4,M,-34.3,M,0000,0000*59 
25.140          GPS_NMEA_FROM_GPS    iGPS            $GPGGA,183715.000,4144.3368,N,06959.5500,W,2,11,0.76,9.4,M,-34.3,M,0000,0000*59 
26.144          GPS_NMEA_FROM_GPS    iGPS            $GPGGA,183716.000,4144.3368,N,06959.5500,W,2,11,0.76,9.4,M,-34.3,M,0000,0000*5A 
27.147          GPS_NMEA_FROM_GPS    iGPS            $GPRMC,183717.000,A,4144.3367,N,06959.5501,W,0.21,224.30,220321,,,D*70 
28.149          GPS_NMEA_FROM_GPS    iGPS            $GPRMC,183718.000,A,4144.3367,N,06959.5501,W,0.25,218.52,220321,,,D*70 
29.151          GPS_NMEA_FROM_GPS    iGPS            $GPGGA,183719.000,4144.3366,N,06959.5501,W,2,11,0.76,9.4,M,-34.3,M,0000,0000*5A 
30.153          GPS_NMEA_FROM_GPS    iGPS            $GPGGA,183720.000,4144.3365,N,06959.5502,W,2,11,0.76,9.4,M,-34.3,M,0000,0000*50 
31.055          GPS_NMEA_FROM_GPS    iGPS            $GPGGA,183721.000,4144.3365,N,06959.5503,W,2,09,1.06,9.3,M,-34.3,M,0000,0000*58 
32.158          GPS_NMEA_FROM_GPS    iGPS            $GPRMC,183722.000,A,4144.3365,N,06959.5504,W,0.22,219.74,220321,,,D*7C 
33.160          GPS_NMEA_FROM_GPS    iGPS            $GPRMC,183723.000,A,4144.3364,N,06959.5506,W,0.29,224.56,220321,,,D*7B 
34.162          GPS_NMEA_FROM_GPS    iGPS            $GPRMC,183724.000,A,4144.3364,N,06959.5507,W,0.28,229.51,220321,,,D*76 
35.167          GPS_NMEA_FROM_GPS    iGPS            $GPGGA,183725.000,4144.3364,N,06959.5508,W,2,09,0.97,9.4,M,-34.3,M,0000,0000*58 
36.169          GPS_NMEA_FROM_GPS    iGPS            $GPGGA,183726.000,4144.3364,N,06959.5509,W,2,09,0.97,9.4,M,-34.3,M,0000,0000*5A 
37.172          GPS_NMEA_FROM_GPS    iGPS            $GPRMC,183727.000,A,4144.3363,N,06959.5510,W,0.26,241.69,220321,,,D*7F 
38.174          GPS_NMEA_FROM_GPS    iGPS            $GPRMC,183728.000,A,4144.3363,N,06959.5511,W,0.26,244.79,220321,,,D*75 
39.176          GPS_NMEA_FROM_GPS    iGPS            $GPGGA,183729.000,4144.3363,N,06959.5512,W,2,09,0.97,9.4,M,-34.3,M,0000,0000*58 
40.179          GPS_NMEA_FROM_GPS    iGPS            $GPRMC,183730.000,A,4144.3362,N,06959.5513,W,0.29,244.70,220321,,,D*79 
41.182          GPS_NMEA_FROM_GPS    iGPS            $GPGGA,183731.000,4144.3362,N,06959.5514,W,2,09,0.97,9.4,M,-34.3,M,0000,0000*56 
42.184          GPS_NMEA_FROM_GPS    iGPS            $GPRMC,183732.000,A,4144.3362,N,06959.5515,W,0.34,246.95,220321,,,D*78 
43.188          GPS_NMEA_FROM_GPS    iGPS            $GPRMC,183733.000,A,4144.3361,N,06959.5516,W,0.38,247.91,220321,,,D*70 
44.189          GPS_NMEA_FROM_GPS    iGPS            $GPRMC,183734.000,A,4144.3361,N,06959.5518,W,0.40,250.31,220321,,,D*7A 
45.092          GPS_NMEA_FROM_GPS    iGPS            $GPGGA,183735.000,4144.3361,N,06959.5519,W,2,10,0.83,9.4,M,-34.3,M,0000,0000*51 
46.094          GPS_NMEA_FROM_GPS    iGPS            $GPGGA,183736.000,4144.3361,N,06959.5521,W,2,10,0.83,9.4,M,-34.3,M,0000,0000*59 
47.097          GPS_NMEA_FROM_GPS    iGPS            $GPGGA,183737.000,4144.3361,N,06959.5522,W,2,10,0.83,9.4,M,-34.3,M,0000,0000*5B 
48.100          GPS_NMEA_FROM_GPS    iGPS            $GPGGA,183738.000,4144.3361,N,06959.5523,W,2,10,0.83,9.4,M,-34.3,M,0000,0000*55 
49.103          GPS_NMEA_FROM_GPS    iGPS            $GPGGA,183739.000,4144.3361,N,06959.5525,W,2,10,0.83,9.4,M,-34.3,M,0000,0000*52 
50.106          GPS_NMEA_FROM_GPS    iGPS            $GPGGA,183740.000,4144.3361,N,06959.5527,W,2,10,0.83,9.4,M,-34.3,M,0000,0000*5E 
51.109          GPS_NMEA_FROM_GPS    iGPS            $GPGGA,183741.000,4144.3361,N,06959.5529,W,2,10,0.83,9.4,M,-34.3,M,0000,0000*51 
52.112          GPS_NMEA_FROM_GPS    iGPS            $GPRMC,183742.000,A,4144.3361,N,06959.5531,W,0.53,267.39,220321,,,D*7E 
53.115          GPS_NMEA_FROM_GPS    iGPS            $GPGGA,183743.000,4144.3361,N,06959.5533,W,2,10,0.83,9.4,M,-34.3,M,0000,0000*58 
54.117          GPS_NMEA_FROM_GPS    iGPS            $GPGGA,183744.000,4144.3361,N,06959.5535,W,2,10,0.84,9.4,M,-34.3,M,0000,0000*5E 
55.119          GPS_NMEA_FROM_GPS    iGPS            $GPGGA,183745.000,4144.3360,N,06959.5537,W,2,10,0.84,9.5,M,-34.3,M,0000,0000*5D 
56.123          GPS_NMEA_FROM_GPS    iGPS            $GPGGA,183746.000,4144.3360,N,06959.5539,W,2,09,0.97,9.4,M,-34.3,M,0000,0000*5B 
57.126          GPS_NMEA_FROM_GPS    iGPS            $GPGGA,183747.000,4144.3360,N,06959.5541,W,2,10,0.84,9.5,M,-34.3,M,0000,0000*5E 
58.129          GPS_NMEA_FROM_GPS    iGPS            $GPGGA,183748.000,4144.3360,N,06959.5544,W,2,09,0.97,9.5,M,-34.3,M,0000,0000*5E 
59.131          GPS_NMEA_FROM_GPS    iGPS            $GPGGA,183749.000,4144.3361,N,06959.5546,W,2,10,0.84,9.6,M,-34.3,M,0000,0000*55 
60.134          GPS_NMEA_FROM_GPS    iGPS            $GPGGA,183750.000,4144.3361,N,06959.5548,W,2,09,0.97,9.6,M,-34.3,M,0000,0000*59 
61.136          GPS_NMEA_FROM_GPS    iGPS            $GPGGA,183751.000,4144.3361,N,06959.5550,W,2,09,0.97,9.6,M,-34.3,M,0000,0000*51 
62.138          GPS_NMEA_FROM_GPS    iGPS            $GPGGA,183752.000,4144.3361,N,06959.5552,W,2,09,0.97,9.6,M,-34.3,M,0000,0000*50 
63.140          GPS_NMEA_FROM_GPS    iGPS            $GPGGA,183753.000,4144.3361,N,06959.5554,W,2,09,0.97,9.6,M,-34.3,M,0000,0000*57 
64.143          GPS_NMEA_FROM_GPS    iGPS            $GPGGA,183754.000,4144.3361,N,06959.5557,W,2,09,0.97,9.6,M,-34.3,M,0000,0000*53 
65.145          GPS_NMEA_FROM_GPS    iGPS            $GPGGA,183755.000,4144.3361,N,06959.5559,W,2,09,0.97,9.7,M,-34.3,M,0000,0000*5D 
66.148          GPS_NMEA_FROM_GPS    iGPS            $GPGGA,183756.000,4144.3361,N,06959.5562,W,2,10,0.83,9.7,M,-34.3,M,0000,0000*5B 
67.150          GPS_NMEA_FROM_GPS    iGPS            $GPRMC,183757.000,A,4144.3361,N,06959.5565,W,0.59,263.19,220321,,,D*77 
68.152          GPS_NMEA_FROM_GPS    iGPS            $GPGGA,183758.000,4144.3361,N,06959.5567,W,2,09,0.97,9.8,M,-34.3,M,0000,0000*52 
69.155          GPS_NMEA_FROM_GPS    iGPS            $GPGGA,183759.000,4144.3362,N,06959.5570,W,2,09,0.97,9.8,M,-34.3,M,0000,0000*56 
70.057          GPS_NMEA_FROM_GPS    iGPS            $GPGGA,183800.000,4144.3362,N,06959.5573,W,2,09,0.97,9.8,M,-34.3,M,0000,0000*56 
71.159          GPS_NMEA_FROM_GPS    iGPS            $GPGGA,183801.000,4144.3362,N,06959.5575,W,2,09,0.97,9.8,M,-34.3,M,0000,0000*51 
72.162          GPS_NMEA_FROM_GPS    iGPS            $GPRMC,183802.000,A,4144.3363,N,06959.5578,W,0.62,265.97,220321,,,D*7E 
73.164          GPS_NMEA_FROM_GPS    iGPS            $GPGGA,183803.000,4144.3363,N,06959.5581,W,2,09,0.97,9.8,M,-34.3,M,0000,0000*59 
74.067          GPS_NMEA_FROM_GPS    iGPS            $GPGGA,183804.000,4144.3363,N,06959.5583,W,2,09,0.97,9.8,M,-34.3,M,0000,0000*5C 
75.069          GPS_NMEA_FROM_GPS    iGPS            $GPGGA,183805.000,4144.3363,N,06959.5586,W,2,09,0.97,9.9,M,-34.3,M,0000,0000*59 
76.072          GPS_NMEA_FROM_GPS    iGPS            $GPGGA,183806.000,4144.3363,N,06959.5588,W,2,09,0.97,10.0,M,-34.3,M,0000,0000*65 
77.075          GPS_NMEA_FROM_GPS    iGPS            $GPGGA,183807.000,4144.3362,N,06959.5591,W,2,09,0.97,10.0,M,-34.3,M,0000,0000*6D 
78.077          GPS_NMEA_FROM_GPS    iGPS            $GPGGA,183808.000,4144.3362,N,06959.5593,W,2,09,0.97,10.1,M,-34.3,M,0000,0000*61 
79.180          GPS_NMEA_FROM_GPS    iGPS            $GPRMC,183809.000,A,4144.3362,N,06959.5596,W,0.64,257.38,220321,,,D*76 
80.182          GPS_NMEA_FROM_GPS    iGPS            $GPRMC,183810.000,A,4144.3362,N,06959.5598,W,0.64,257.56,220321,,,D*78 
81.084          GPS_NMEA_FROM_GPS    iGPS            $GPGGA,183811.000,4144.3362,N,06959.5601,W,2,09,0.97,10.1,M,-34.3,M,0000,0000*61 
82.086          GPS_NMEA_FROM_GPS    iGPS            $GPGGA,183812.000,4144.3362,N,06959.5603,W,2,09,0.97,10.1,M,-34.3,M,0000,0000*60 
83.088          GPS_NMEA_FROM_GPS    iGPS            $GPGGA,183813.000,4144.3361,N,06959.5605,W,2,09,0.97,10.1,M,-34.3,M,0000,0000*64 
83.991          GPS_NMEA_FROM_GPS    iGPS            $GPGGA,183814.000,4144.3362,N,06959.5608,W,2,09,0.97,10.1,M,-34.3,M,0000,0000*6D 
85.093          GPS_NMEA_FROM_GPS    iGPS            $GPGGA,183815.000,4144.3362,N,06959.5610,W,2,09,0.97,10.1,M,-34.3,M,0000,0000*65 
86.095          GPS_NMEA_FROM_GPS    iGPS            $GPGGA,183816.000,4144.3362,N,06959.5613,W,2,09,0.97,10.0,M,-34.3,M,0000,0000*64 
87.098          GPS_NMEA_FROM_GPS    iGPS            $GPGGA,183817.000,4144.3361,N,06959.5615,W,2,09,0.97,10.1,M,-34.3,M,0000,0000*61 
88.100          GPS_NMEA_FROM_GPS    iGPS            $GPGGA,183818.000,4144.3361,N,06959.5618,W,2,09,0.97,10.1,M,-34.3,M,0000,0000*63 
89.102          GPS_NMEA_FROM_GPS    iGPS            $GPGGA,183819.000,4144.3360,N,06959.5620,W,2,09,0.97,10.1,M,-34.3,M,0000,0000*68 
90.105          GPS_NMEA_FROM_GPS    iGPS            $GPGGA,183820.000,4144.3360,N,06959.5623,W,2,09,0.97,10.1,M,-34.3,M,0000,0000*61 
91.107          GPS_NMEA_FROM_GPS    iGPS            $GPGGA,183821.000,4144.3360,N,06959.5625,W,2,09,0.97,10.2,M,-34.3,M,0000,0000*65 
92.009          GPS_NMEA_FROM_GPS    iGPS            $GPGGA,183822.000,4144.3359,N,06959.5627,W,2,09,0.97,10.3,M,-34.3,M,0000,0000*6F 
93.112          GPS_NMEA_FROM_GPS    iGPS            $GPRMC,183823.000,A,4144.3359,N,06959.5630,W,0.59,257.94,220321,,,D*71 
94.115          GPS_NMEA_FROM_GPS    iGPS            $GPGGA,183824.000,4144.3359,N,06959.5632,W,2,09,0.97,10.3,M,-34.3,M,0000,0000*6D 
95.117          GPS_NMEA_FROM_GPS    iGPS            $GPGGA,183825.000,4144.3359,N,06959.5634,W,2,09,0.97,10.3,M,-34.3,M,0000,0000*6A 
96.120          GPS_NMEA_FROM_GPS    iGPS            $GPRMC,183826.000,A,4144.3358,N,06959.5637,W,0.57,260.86,220321,,,D*7B 
97.122          GPS_NMEA_FROM_GPS    iGPS            $GPRMC,183827.000,A,4144.3358,N,06959.5639,W,0.58,261.49,220321,,,D*79 
98.024          GPS_NMEA_FROM_GPS    iGPS            $GPGGA,183828.000,4144.3358,N,06959.5641,W,2,09,0.97,10.4,M,-34.3,M,0000,0000*63 
99.026          GPS_NMEA_FROM_GPS    iGPS            $GPGGA,183829.000,4144.3358,N,06959.5644,W,2,09,0.97,10.4,M,-34.3,M,0000,0000*67 
100.129         GPS_NMEA_FROM_GPS    iGPS            $GPGGA,183830.000,4144.3358,N,06959.5646,W,2,09,0.97,10.5,M,-34.3,M,0000,0000*6C 
101.131         GPS_NMEA_FROM_GPS    iGPS            $GPGGA,183831.000,4144.3358,N,06959.5648,W,2,09,0.97,10.6,M,-34.3,M,0000,0000*60 
102.134         GPS_NMEA_FROM_GPS    iGPS            $GPRMC,183832.000,A,4144.3358,N,06959.5650,W,0.60,262.17,220321,,,D*71 
103.136         GPS_NMEA_FROM_GPS    iGPS            $GPRMC,183833.000,A,4144.3357,N,06959.5653,W,0.60,262.30,220321,,,D*79 
104.139         GPS_NMEA_FROM_GPS    iGPS            $GPGGA,183834.000,4144.3357,N,06959.5655,W,2,09,0.97,10.7,M,-34.3,M,0000,0000*67 
105.041         GPS_NMEA_FROM_GPS    iGPS            $GPGGA,183835.000,4144.3357,N,06959.5657,W,2,09,0.97,10.8,M,-34.3,M,0000,0000*6B 
106.144         GPS_NMEA_FROM_GPS    iGPS            $GPRMC,183836.000,A,4144.3357,N,06959.5659,W,0.51,262.86,220321,,,D*79 
107.046         GPS_NMEA_FROM_GPS    iGPS            $GPGGA,183837.000,4144.3357,N,06959.5661,W,2,09,0.97,10.8,M,-34.3,M,0000,0000*6C 
108.149         GPS_NMEA_FROM_GPS    iGPS            $GPRMC,183838.000,A,4144.3357,N,06959.5663,W,0.51,264.90,220321,,,D*7F 
109.151         GPS_NMEA_FROM_GPS    iGPS            $GPRMC,183839.000,A,4144.3357,N,06959.5664,W,0.51,265.35,220321,,,D*77 
110.053         GPS_NMEA_FROM_GPS    iGPS            $GPGGA,183840.000,4144.3357,N,06959.5666,W,2,09,0.97,10.8,M,-34.3,M,0000,0000*6B 
111.057         GPS_NMEA_FROM_GPS    iGPS            $GPGGA,183841.000,4144.3357,N,06959.5668,W,2,09,0.97,10.7,M,-34.3,M,0000,0000*6B 
112.058         GPS_NMEA_FROM_GPS    iGPS            $GPGGA,183842.000,4144.3357,N,06959.5670,W,2,09,0.97,10.7,M,-34.3,M,0000,0000*61 
113.063         GPS_NMEA_FROM_GPS    iGPS            $GPGGA,183843.000,4144.3357,N,06959.5672,W,2,09,0.97,10.8,M,-34.3,M,0000,0000*6D 
114.067         GPS_NMEA_FROM_GPS    iGPS            $GPGGA,183844.000,4144.3357,N,06959.5674,W,2,09,0.97,10.8,M,-34.3,M,0000,0000*6C 
115.069         GPS_NMEA_FROM_GPS    iGPS            $GPGGA,183845.000,4144.3357,N,06959.5676,W,2,09,0.97,10.8,M,-34.3,M,0000,0000*6F 
116.072         GPS_NMEA_FROM_GPS    iGPS            $GPGGA,183846.000,4144.3357,N,06959.5678,W,2,09,0.97,10.8,M,-34.3,M,0000,0000*62 
117.074         GPS_NMEA_FROM_GPS    iGPS            $GPGGA,183847.000,4144.3357,N,06959.5680,W,2,09,0.97,10.8,M,-34.3,M,0000,0000*64 
118.076         GPS_NMEA_FROM_GPS    iGPS            $GPGGA,183848.000,4144.3357,N,06959.5682,W,2,09,0.97,10.8,M,-34.3,M,0000,0000*69 
119.078         GPS_NMEA_FROM_GPS    iGPS            $GPGGA,183849.000,4144.3357,N,06959.5683,W,2,10,0.84,10.8,M,-34.3,M,0000,0000*63 
120.081         GPS_NMEA_FROM_GPS    iGPS            $GPGGA,183850.000,4144.3356,N,06959.5685,W,2,10,0.84,10.8,M,-34.3,M,0000,0000*6C 
121.083         GPS_NMEA_FROM_GPS    iGPS            $GPGGA,183851.000,4144.3356,N,06959.5687,W,2,10,0.84,10.8,M,-34.3,M,0000,0000*6F 
122.087         GPS_NMEA_FROM_GPS    iGPS            $GPGGA,183852.000,4144.3356,N,06959.5689,W,2,10,0.84,10.8,M,-34.3,M,0000,0000*62 
123.188         GPS_NMEA_FROM_GPS    iGPS            $GPRMC,183853.000,A,4144.3356,N,06959.5691,W,0.55,269.51,220321,,,D*7A 
124.090         GPS_NMEA_FROM_GPS    iGPS            $GPGGA,183854.000,4144.3356,N,06959.5693,W,2,10,0.84,10.8,M,-34.3,M,0000,0000*6F 
125.092         GPS_NMEA_FROM_GPS    iGPS            $GPGGA,183855.000,4144.3356,N,06959.5695,W,2,10,0.84,10.8,M,-34.3,M,0000,0000*68 
126.094         GPS_NMEA_FROM_GPS    iGPS            $GPGGA,183856.000,4144.3357,N,06959.5697,W,2,10,0.84,10.8,M,-34.3,M,0000,0000*68 
127.096         GPS_NMEA_FROM_GPS    iGPS            $GPGGA,183857.000,4144.3357,N,06959.5699,W,2,10,0.84,10.8,M,-34.3,M,0000,0000*67 
128.098         GPS_NMEA_FROM_GPS    iGPS            $GPGGA,183858.000,4144.3357,N,06959.5700,W,2,10,0.84,10.7,M,-34.3,M,0000,0000*66 
129.100         GPS_NMEA_FROM_GPS    iGPS            $GPGGA,183859.000,4144.3357,N,06959.5702,W,2,10,0.84,10.6,M,-34.3,M,0000,0000*64 
130.103         GPS_NMEA_FROM_GPS    iGPS            $GPGGA,183900.000,4144.3357,N,06959.5704,W,2,10,0.84,10.6,M,-34.3,M,0000,0000*6F 
131.105         GPS_NMEA_FROM_GPS    iGPS            $GPGGA,183901.000,4144.3357,N,06959.5706,W,2,10,0.84,10.6,M,-34.3,M,0000,0000*6C 
132.108         GPS_NMEA_FROM_GPS    iGPS            $GPGGA,183902.000,4144.3357,N,06959.5707,W,2,10,0.84,10.5,M,-34.3,M,0000,0000*6D 
133.110         GPS_NMEA_FROM_GPS    iGPS            $GPGGA,183903.000,4144.3357,N,06959.5709,W,2,10,0.84,10.5,M,-34.3,M,0000,0000*62 
134.113         GPS_NMEA_FROM_GPS    iGPS            $GPRMC,183904.000,A,4144.3358,N,06959.5711,W,0.55,278.20,220321,,,D*78 
135.115         GPS_NMEA_FROM_GPS    iGPS            $GPGGA,183905.000,4144.3358,N,06959.5713,W,2,10,0.84,10.4,M,-34.3,M,0000,0000*61 
136.118         GPS_NMEA_FROM_GPS    iGPS            $GPGGA,183906.000,4144.3359,N,06959.5715,W,2,10,0.84,10.4,M,-34.3,M,0000,0000*65 
137.120         GPS_NMEA_FROM_GPS    iGPS            $GPRMC,183907.000,A,4144.3360,N,06959.5717,W,0.66,283.64,220321,,,D*72 
138.123         GPS_NMEA_FROM_GPS    iGPS            $GPRMC,183908.000,A,4144.3361,N,06959.5719,W,0.62,285.00,220321,,,D*72 
139.125         GPS_NMEA_FROM_GPS    iGPS            $GPRMC,183909.000,A,4144.3362,N,06959.5720,W,0.59,286.33,220321,,,D*71 
140.127         GPS_NMEA_FROM_GPS    iGPS            $GPRMC,183910.000,A,4144.3362,N,06959.5722,W,0.57,286.78,220321,,,D*7A 
141.129         GPS_NMEA_FROM_GPS    iGPS            $GPGGA,183911.000,4144.3364,N,06959.5723,W,2,10,0.84,10.2,M,-34.3,M,0000,0000*6E 
142.131         GPS_NMEA_FROM_GPS    iGPS            $GPGGA,183912.000,4144.3364,N,06959.5725,W,2,09,0.97,10.1,M,-34.3,M,0000,0000*62 
143.133         GPS_NMEA_FROM_GPS    iGPS            $GPGGA,183913.000,4144.3365,N,06959.5727,W,2,10,0.84,9.9,M,-34.3,M,0000,0000*5A 
144.138         GPS_NMEA_FROM_GPS    iGPS            $GPGGA,183914.000,4144.3365,N,06959.5729,W,2,10,0.84,9.7,M,-34.3,M,0000,0000*5D 
145.141         GPS_NMEA_FROM_GPS    iGPS            $GPGGA,183915.000,4144.3366,N,06959.5731,W,2,10,0.84,9.6,M,-34.3,M,0000,0000*57 
146.144         GPS_NMEA_FROM_GPS    iGPS            $GPRMC,183916.000,A,4144.3367,N,06959.5733,W,0.66,290.46,220321,,,D*71 
147.045         GPS_NMEA_FROM_GPS    iGPS            $GPGGA,183917.000,4144.3367,N,06959.5735,W,2,10,0.83,9.5,M,-34.3,M,0000,0000*54 
148.148         GPS_NMEA_FROM_GPS    iGPS            $GPRMC,183918.000,A,4144.3368,N,06959.5737,W,0.67,289.52,220321,,,D*78 
149.150         GPS_NMEA_FROM_GPS    iGPS            $GPGGA,183919.000,4144.3368,N,06959.5739,W,2,10,0.84,9.4,M,-34.3,M,0000,0000*5F 
150.153         GPS_NMEA_FROM_GPS    iGPS            $GPRMC,183920.000,A,4144.3369,N,06959.5741,W,0.67,289.73,220321,,,D*70 
151.155         GPS_NMEA_FROM_GPS    iGPS            $GPRMC,183921.000,A,4144.3370,N,06959.5744,W,0.64,290.12,220321,,,D*70 
152.057         GPS_NMEA_FROM_GPS    iGPS            $GPGGA,183922.000,4144.3370,N,06959.5746,W,2,09,0.93,9.0,M,-34.3,M,0000,0000*5C 
153.059         GPS_NMEA_FROM_GPS    iGPS            $GPGGA,183923.000,4144.3370,N,06959.5748,W,2,09,0.94,8.8,M,-34.3,M,0000,0000*5D 
154.162         GPS_NMEA_FROM_GPS    iGPS            $GPRMC,183924.000,A,4144.3371,N,06959.5750,W,0.64,290.93,220321,,,D*78 
155.064         GPS_NMEA_FROM_GPS    iGPS            $GPGGA,183925.000,4144.3371,N,06959.5753,W,2,08,1.28,8.4,M,-34.3,M,0000,0000*5B 
156.066         GPS_NMEA_FROM_GPS    iGPS            $GPGGA,183926.000,4144.3372,N,06959.5755,W,2,08,1.28,8.2,M,-34.3,M,0000,0000*5B 
157.068         GPS_NMEA_FROM_GPS    iGPS            $GPGGA,183927.000,4144.3372,N,06959.5758,W,2,08,1.30,8.1,M,-34.3,M,0000,0000*5D 
158.071         GPS_NMEA_FROM_GPS    iGPS            $GPGGA,183928.000,4144.3372,N,06959.5760,W,2,09,0.94,7.8,M,-34.3,M,0000,0000*51 
159.073         GPS_NMEA_FROM_GPS    iGPS            $GPGGA,183929.000,4144.3373,N,06959.5763,W,2,09,0.93,7.7,M,-34.3,M,0000,0000*5A 
160.075         GPS_NMEA_FROM_GPS    iGPS            $GPGGA,183930.000,4144.3373,N,06959.5765,W,2,09,0.93,7.5,M,-34.3,M,0000,0000*56 
161.077         GPS_NMEA_FROM_GPS    iGPS            $GPGGA,183931.000,4144.3374,N,06959.5767,W,2,10,0.84,7.5,M,-34.3,M,0000,0000*5C 
162.080         GPS_NMEA_FROM_GPS    iGPS            $GPGGA,183932.000,4144.3375,N,06959.5770,W,2,10,0.84,7.3,M,-34.3,M,0000,0000*5E 
163.083         GPS_NMEA_FROM_GPS    iGPS            $GPGGA,183933.000,4144.3375,N,06959.5772,W,2,10,0.83,7.2,M,-34.3,M,0000,0000*5B 
164.185         GPS_NMEA_FROM_GPS    iGPS            $GPRMC,183934.000,A,4144.3375,N,06959.5774,W,0.59,294.57,220321,,,D*79 
165.087         GPS_NMEA_FROM_GPS    iGPS            $GPGGA,183935.000,4144.3376,N,06959.5776,W,2,10,0.84,7.0,M,-34.3,M,0000,0000*5F 
166.090         GPS_NMEA_FROM_GPS    iGPS            $GPGGA,183936.000,4144.3377,N,06959.5778,W,2,10,0.84,7.0,M,-34.3,M,0000,0000*53 
167.093         GPS_NMEA_FROM_GPS    iGPS            $GPGGA,183937.000,4144.3378,N,06959.5780,W,2,10,0.84,7.0,M,-34.3,M,0000,0000*5A 
168.095         GPS_NMEA_FROM_GPS    iGPS            $GPGGA,183938.000,4144.3379,N,06959.5782,W,2,10,0.84,6.8,M,-34.3,M,0000,0000*5F 
169.097         GPS_NMEA_FROM_GPS    iGPS            $GPGGA,183939.000,4144.3380,N,06959.5784,W,2,10,0.84,6.7,M,-34.3,M,0000,0000*51 
170.100         GPS_NMEA_FROM_GPS    iGPS            $GPGGA,183940.000,4144.3381,N,06959.5786,W,2,10,0.84,6.5,M,-34.3,M,0000,0000*5E 
171.103         GPS_NMEA_FROM_GPS    iGPS            $GPRMC,183941.000,A,4144.3381,N,06959.5788,W,0.60,303.04,220321,,,D*70 
172.105         GPS_NMEA_FROM_GPS    iGPS            $GPGGA,183942.000,4144.3382,N,06959.5790,W,2,10,0.84,6.2,M,-34.3,M,0000,0000*5F 
173.107         GPS_NMEA_FROM_GPS    iGPS            $GPGGA,183943.000,4144.3383,N,06959.5792,W,2,10,0.84,6.1,M,-34.3,M,0000,0000*5E 
174.109         GPS_NMEA_FROM_GPS    iGPS            $GPRMC,183944.000,A,4144.3385,N,06959.5794,W,0.59,303.28,220321,,,D*78 
175.112         GPS_NMEA_FROM_GPS    iGPS            $GPRMC,183945.000,A,4144.3386,N,06959.5795,W,0.60,303.84,220321,,,D*77 
176.014         GPS_NMEA_FROM_GPS    iGPS            $GPGGA,183946.000,4144.3387,N,06959.5797,W,2,09,0.97,6.0,M,-34.3,M,0000,0000*51 
177.116         GPS_NMEA_FROM_GPS    iGPS            $GPGGA,183947.000,4144.3388,N,06959.5799,W,2,08,1.07,6.0,M,-34.3,M,0000,0000*58 
178.118         GPS_NMEA_FROM_GPS    iGPS            $GPRMC,183948.000,A,4144.3390,N,06959.5801,W,0.59,306.05,220321,,,D*79 
179.021         GPS_NMEA_FROM_GPS    iGPS            $GPGGA,183949.000,4144.3391,N,06959.5803,W,2,08,1.07,5.9,M,-34.3,M,0000,0000*58 
180.123         GPS_NMEA_FROM_GPS    iGPS            $GPRMC,183950.000,A,4144.3392,N,06959.5805,W,0.57,307.35,220321,,,D*7A 
181.025         GPS_NMEA_FROM_GPS    iGPS            $GPGGA,183951.000,4144.3393,N,06959.5806,W,2,08,1.07,5.8,M,-34.3,M,0000,0000*57 
182.028         GPS_NMEA_FROM_GPS    iGPS            $GPGGA,183952.000,4144.3394,N,06959.5808,W,2,07,1.10,5.7,M,-34.3,M,0000,0000*5B 
183.030         GPS_NMEA_FROM_GPS    iGPS            $GPGGA,183953.000,4144.3395,N,06959.5809,W,2,08,1.07,5.7,M,-34.3,M,0000,0000*53 
184.032         GPS_NMEA_FROM_GPS    iGPS            $GPGGA,183954.000,4144.3396,N,06959.5811,W,2,08,1.05,5.6,M,-34.3,M,0000,0000*5D 
185.135         GPS_NMEA_FROM_GPS    iGPS            $GPRMC,183955.000,A,4144.3397,N,06959.5812,W,0.44,310.02,220321,,,D*7C 
186.137         GPS_NMEA_FROM_GPS    iGPS            $GPGGA,183956.000,4144.3398,N,06959.5813,W,2,07,1.44,5.6,M,-34.3,M,0000,0000*59 
187.140         GPS_NMEA_FROM_GPS    iGPS            $GPRMC,183957.000,A,4144.3399,N,06959.5815,W,0.44,311.21,220321,,,D*77 
188.142         GPS_NMEA_FROM_GPS    iGPS            $GPRMC,183958.000,A,4144.3399,N,06959.5816,W,0.45,311.95,220321,,,D*75 
189.043         GPS_NMEA_FROM_GPS    iGPS            $GPGGA,183959.000,4144.3400,N,06959.5817,W,2,07,1.44,5.6,M,-34.3,M,0000,0000*54 
190.045         GPS_NMEA_FROM_GPS    iGPS            $GPGGA,184000.000,4144.3401,N,06959.5818,W,2,08,1.07,5.6,M,-34.3,M,0000,0000*50 
191.148         GPS_NMEA_FROM_GPS    iGPS            $GPGGA,184001.000,4144.3402,N,06959.5819,W,2,09,0.97,5.6,M,-34.3,M,0000,0000*5A 
192.151         GPS_NMEA_FROM_GPS    iGPS            $GPGGA,184002.000,4144.3403,N,06959.5820,W,2,09,0.97,5.6,M,-34.3,M,0000,0000*52 
193.153         GPS_NMEA_FROM_GPS    iGPS            $GPRMC,184003.000,A,4144.3404,N,06959.5821,W,0.48,317.79,220321,,,D*7B 
194.155         GPS_NMEA_FROM_GPS    iGPS            $GPRMC,184004.000,A,4144.3405,N,06959.5823,W,0.49,318.69,220321,,,D*70 
195.158         GPS_NMEA_FROM_GPS    iGPS            $GPRMC,184005.000,A,4144.3406,N,06959.5824,W,0.49,318.61,220321,,,D*7D 
196.160         GPS_NMEA_FROM_GPS    iGPS            $GPRMC,184006.000,A,4144.3407,N,06959.5825,W,0.51,318.53,220321,,,D*76 
197.063         GPS_NMEA_FROM_GPS    iGPS            $GPGGA,184007.000,4144.3408,N,06959.5826,W,2,08,1.07,5.5,M,-34.3,M,0000,0000*50 
198.065         GPS_NMEA_FROM_GPS    iGPS            $GPGGA,184008.000,4144.3409,N,06959.5828,W,2,09,0.97,5.5,M,-34.3,M,0000,0000*59 
199.068         GPS_NMEA_FROM_GPS    iGPS            $GPGGA,184009.000,4144.3410,N,06959.5829,W,2,08,1.07,5.5,M,-34.3,M,0000,0000*58 
200.070         GPS_NMEA_FROM_GPS    iGPS            $GPGGA,184010.000,4144.3412,N,06959.5830,W,2,08,1.07,5.5,M,-34.3,M,0000,0000*5A 
201.073         GPS_NMEA_FROM_GPS    iGPS            $GPGGA,184011.000,4144.3413,N,06959.5831,W,2,08,1.07,5.5,M,-34.3,M,0000,0000*5B 
202.075         GPS_NMEA_FROM_GPS    iGPS            $GPGGA,184012.000,4144.3414,N,06959.5832,W,2,08,1.07,5.5,M,-34.3,M,0000,0000*5C 
203.079         GPS_NMEA_FROM_GPS    iGPS            $GPRMC,184013.000,A,4144.3415,N,06959.5833,W,0.52,325.01,220321,,,D*7C 
203.980         GPS_NMEA_FROM_GPS    iGPS            $GPGGA,184014.000,4144.3416,N,06959.5834,W,2,08,1.07,5.5,M,-34.3,M,0000,0000*5E 
205.083         GPS_NMEA_FROM_GPS    iGPS            $GPRMC,184015.000,A,4144.3417,N,06959.5835,W,0.51,327.77,220321,,,D*7E 
206.085         GPS_NMEA_FROM_GPS    iGPS            $GPGGA,184016.000,4144.3419,N,06959.5836,W,2,08,1.07,5.4,M,-34.3,M,0000,0000*50 
207.088         GPS_NMEA_FROM_GPS    iGPS            $GPGGA,184017.000,4144.3420,N,06959.5837,W,2,08,1.07,5.4,M,-34.3,M,0000,0000*5A 
208.091         GPS_NMEA_FROM_GPS    iGPS            $GPGGA,184018.000,4144.3421,N,06959.5838,W,2,08,1.07,5.4,M,-34.3,M,0000,0000*5B 
209.094         GPS_NMEA_FROM_GPS    iGPS            $GPGGA,184019.000,4144.3422,N,06959.5838,W,2,09,0.97,5.4,M,-34.3,M,0000,0000*50 
210.096         GPS_NMEA_FROM_GPS    iGPS            $GPGGA,184020.000,4144.3423,N,06959.5839,W,2,09,0.97,5.4,M,-34.3,M,0000,0000*5A 
210.999         GPS_NMEA_FROM_GPS    iGPS            $GPGGA,184021.000,4144.3424,N,06959.5840,W,2,08,1.02,5.4,M,-34.3,M,0000,0000*5E 
212.102         GPS_NMEA_FROM_GPS    iGPS            $GPRMC,184022.000,A,4144.3425,N,06959.5841,W,0.52,334.99,220321,,,D*79 
213.003         GPS_NMEA_FROM_GPS    iGPS            $GPGGA,184023.000,4144.3427,N,06959.5841,W,2,08,1.02,5.3,M,-34.3,M,0000,0000*59 
214.106         GPS_NMEA_FROM_GPS    iGPS            $GPGGA,184024.000,4144.3428,N,06959.5842,W,2,07,1.10,5.3,M,-34.3,M,0000,0000*5E 
215.110         GPS_NMEA_FROM_GPS    iGPS            $GPGGA,184025.000,4144.3430,N,06959.5842,W,2,07,1.10,5.3,M,-34.3,M,0000,0000*56 
216.113         GPS_NMEA_FROM_GPS    iGPS            $GPGGA,184026.000,4144.3431,N,06959.5843,W,2,08,1.07,5.3,M,-34.3,M,0000,0000*5C 
217.015         GPS_NMEA_FROM_GPS    iGPS            $GPGGA,184027.000,4144.3433,N,06959.5843,W,2,09,0.97,5.4,M,-34.3,M,0000,0000*51 
218.117         GPS_NMEA_FROM_GPS    iGPS            $GPRMC,184028.000,A,4144.3434,N,06959.5843,W,0.68,344.63,220321,,,D*7A 
219.119         GPS_NMEA_FROM_GPS    iGPS            $GPGGA,184029.000,4144.3436,N,06959.5844,W,2,09,0.97,5.6,M,-34.3,M,0000,0000*5F 
220.122         GPS_NMEA_FROM_GPS    iGPS            $GPGGA,184030.000,4144.3437,N,06959.5844,W,2,09,0.97,5.8,M,-34.3,M,0000,0000*58 
221.125         GPS_NMEA_FROM_GPS    iGPS            $GPGGA,184031.000,4144.3439,N,06959.5844,W,2,08,1.02,6.1,M,-34.3,M,0000,0000*51 
222.127         GPS_NMEA_FROM_GPS    iGPS            $GPGGA,184032.000,4144.3441,N,06959.5844,W,2,09,0.97,6.3,M,-34.3,M,0000,0000*53 
223.129         GPS_NMEA_FROM_GPS    iGPS            $GPGGA,184033.000,4144.3443,N,06959.5844,W,2,09,0.97,6.5,M,-34.3,M,0000,0000*56 
224.132         GPS_NMEA_FROM_GPS    iGPS            $GPGGA,184034.000,4144.3445,N,06959.5844,W,2,09,0.97,6.7,M,-34.3,M,0000,0000*55 
225.134         GPS_NMEA_FROM_GPS    iGPS            $GPRMC,184035.000,A,4144.3446,N,06959.5844,W,0.60,353.42,220321,,,D*79 
226.136         GPS_NMEA_FROM_GPS    iGPS            $GPGGA,184036.000,4144.3448,N,06959.5843,W,2,08,1.02,6.9,M,-34.3,M,0000,0000*5F 
227.138         GPS_NMEA_FROM_GPS    iGPS            $GPGGA,184037.000,4144.3449,N,06959.5843,W,2,09,0.97,7.0,M,-34.3,M,0000,0000*5B 
228.040         GPS_NMEA_FROM_GPS    iGPS            $GPGGA,184038.000,4144.3451,N,06959.5843,W,2,09,0.97,7.0,M,-34.3,M,0000,0000*5D 
229.143         GPS_NMEA_FROM_GPS    iGPS            $GPGGA,184039.000,4144.3452,N,06959.5843,W,2,09,0.97,7.1,M,-34.3,M,0000,0000*5E 
230.145         GPS_NMEA_FROM_GPS    iGPS            $GPGGA,184040.000,4144.3453,N,06959.5843,W,2,09,0.97,7.2,M,-34.3,M,0000,0000*52 
231.148         GPS_NMEA_FROM_GPS    iGPS            $GPGGA,184041.000,4144.3455,N,06959.5842,W,2,09,0.97,7.2,M,-34.3,M,0000,0000*54 
232.150         GPS_NMEA_FROM_GPS    iGPS            $GPRMC,184042.000,A,4144.3456,N,06959.5842,W,0.63,3.61,220321,,,D*7A 
233.152         GPS_NMEA_FROM_GPS    iGPS            $GPGGA,184043.000,4144.3458,N,06959.5841,W,2,09,0.97,7.3,M,-34.3,M,0000,0000*59 
234.155         GPS_NMEA_FROM_GPS    iGPS            $GPRMC,184044.000,A,4144.3459,N,06959.5840,W,0.66,5.92,220321,,,D*7E 
235.157         GPS_NMEA_FROM_GPS    iGPS            $GPGGA,184045.000,4144.3461,N,06959.5839,W,2,09,0.97,7.5,M,-34.3,M,0000,0000*5C 
236.159         GPS_NMEA_FROM_GPS    iGPS            $GPGGA,184046.000,4144.3462,N,06959.5838,W,2,09,0.97,7.6,M,-34.3,M,0000,0000*5E 
237.162         GPS_NMEA_FROM_GPS    iGPS            $GPGGA,184047.000,4144.3463,N,06959.5837,W,2,09,0.97,7.6,M,-34.3,M,0000,0000*51 
238.165         GPS_NMEA_FROM_GPS    iGPS            $GPRMC,184048.000,A,4144.3464,N,06959.5836,W,0.65,12.36,220321,,,D*46 
239.167         GPS_NMEA_FROM_GPS    iGPS            $GPGGA,184049.000,4144.3466,N,06959.5835,W,2,09,0.97,7.8,M,-34.3,M,0000,0000*56 
240.069         GPS_NMEA_FROM_GPS    iGPS            $GPGGA,184050.000,4144.3467,N,06959.5834,W,2,09,0.97,7.8,M,-34.3,M,0000,0000*5E 
241.172         GPS_NMEA_FROM_GPS    iGPS            $GPGGA,184051.000,4144.3468,N,06959.5833,W,2,09,0.97,7.9,M,-34.3,M,0000,0000*56 
242.174         GPS_NMEA_FROM_GPS    iGPS            $GPRMC,184052.000,A,4144.3470,N,06959.5832,W,0.60,16.29,220321,,,D*43 
243.076         GPS_NMEA_FROM_GPS    iGPS            $GPGGA,184053.000,4144.3471,N,06959.5831,W,2,09,0.97,8.1,M,-34.3,M,0000,0000*59 
244.180         GPS_NMEA_FROM_GPS    iGPS            $GPRMC,184054.000,A,4144.3472,N,06959.5830,W,0.58,17.24,220321,,,D*42 
245.082         GPS_NMEA_FROM_GPS    iGPS            $GPGGA,184055.000,4144.3473,N,06959.5829,W,2,09,0.97,8.2,M,-34.3,M,0000,0000*57 
246.084         GPS_NMEA_FROM_GPS    iGPS            $GPGGA,184056.000,4144.3475,N,06959.5829,W,2,09,0.97,8.3,M,-34.3,M,0000,0000*53 
247.187         GPS_NMEA_FROM_GPS    iGPS            $GPGGA,184057.000,4144.3476,N,06959.5828,W,2,09,0.97,8.4,M,-34.3,M,0000,0000*57 
248.190         GPS_NMEA_FROM_GPS    iGPS            $GPRMC,184058.000,A,4144.3477,N,06959.5827,W,0.59,18.87,220321,,,D*4A 
249.092         GPS_NMEA_FROM_GPS    iGPS            $GPGGA,184059.000,4144.3478,N,06959.5826,W,2,09,0.97,8.6,M,-34.3,M,0000,0000*5B 
250.194         GPS_NMEA_FROM_GPS    iGPS            $GPGGA,184100.000,4144.3479,N,06959.5825,W,2,09,0.97,8.7,M,-34.3,M,0000,0000*55 
251.197         GPS_NMEA_FROM_GPS    iGPS            $GPRMC,184101.000,A,4144.3481,N,06959.5824,W,0.57,19.87,220321,,,D*42 
252.099         GPS_NMEA_FROM_GPS    iGPS            $GPGGA,184102.000,4144.3482,N,06959.5823,W,2,09,0.97,8.9,M,-34.3,M,0000,0000*5B 
253.201         GPS_NMEA_FROM_GPS    iGPS            $GPRMC,184103.000,A,4144.3483,N,06959.5822,W,0.54,19.36,220321,,,D*4D 
254.204         GPS_NMEA_FROM_GPS    iGPS            $GPRMC,184104.000,A,4144.3485,N,06959.5821,W,0.56,19.20,220321,,,D*4A 
255.105         GPS_NMEA_FROM_GPS    iGPS            $GPGGA,184105.000,4144.3486,N,06959.5821,W,2,09,0.97,8.9,M,-34.3,M,0000,0000*5A 
256.209         GPS_NMEA_FROM_GPS    iGPS            $GPRMC,184106.000,A,4144.3487,N,06959.5820,W,0.53,19.39,220321,,,D*46 
257.112         GPS_NMEA_FROM_GPS    iGPS            $GPGGA,184107.000,4144.3489,N,06959.5819,W,2,09,0.97,8.9,M,-34.3,M,0000,0000*5C 
258.214         GPS_NMEA_FROM_GPS    iGPS            $GPRMC,184108.000,A,4144.3490,N,06959.5818,W,0.51,19.35,220321,,,D*4B 
259.116         GPS_NMEA_FROM_GPS    iGPS            $GPGGA,184109.000,4144.3492,N,06959.5818,W,2,09,0.97,8.9,M,-34.3,M,0000,0000*59 
260.119         GPS_NMEA_FROM_GPS    iGPS            $GPGGA,184110.000,4144.3493,N,06959.5817,W,2,09,0.97,8.9,M,-34.3,M,0000,0000*5F 
261.122         GPS_NMEA_FROM_GPS    iGPS            $GPGGA,184111.000,4144.3494,N,06959.5817,W,2,09,0.97,8.9,M,-34.3,M,0000,0000*59 
262.124         GPS_NMEA_FROM_GPS    iGPS            $GPGGA,184112.000,4144.3496,N,06959.5816,W,2,09,0.97,8.9,M,-34.3,M,0000,0000*59 
263.127         GPS_NMEA_FROM_GPS    iGPS            $GPGGA,184113.000,4144.3497,N,06959.5815,W,2,09,0.97,8.9,M,-34.3,M,0000,0000*5A 
264.129         GPS_NMEA_FROM_GPS    iGPS            $GPGGA,184114.000,4144.3499,N,06959.5815,W,2,09,0.97,8.9,M,-34.3,M,0000,0000*53 
265.131         GPS_NMEA_FROM_GPS    iGPS            $GPGGA,184115.000,4144.3500,N,06959.5814,W,2,09,0.97,8.9,M,-34.3,M,0000,0000*52 
266.134         GPS_NMEA_FROM_GPS    iGPS            $GPGGA,184116.000,4144.3501,N,06959.5814,W,2,09,0.97,8.9,M,-34.3,M,0000,0000*50 
267.137         GPS_NMEA_FROM_GPS    iGPS            $GPGGA,184117.000,4144.3503,N,06959.5813,W,2,09,0.97,8.9,M,-34.3,M,0000,0000*54 
267.137         GPS_NMEA_FROM_GPS    iGPS            $GPGGA,184117.000,4144.3503,N,06959.5813,W,2,09,0.97,8.9,M,-34.3,M,0000,0000*54 
268.139         GPS_NMEA_FROM_GPS    iGPS            $GPGGA,184118.000,4144.3504,N,06959.5813,W,2,09,0.97,8.9,M,-34.3,M,0000,0000*5C 
268.139         GPS_NMEA_FROM_GPS    iGPS            $GPGGA,184118.000,4144.3504,N,06959.5813,W,2,09,0.97,8.9,M,-34.3,M,0000,0000*5C 
269.142         GPS_NMEA_FROM_GPS    iGPS            $GPRMC,184119.000,A,4144.3506,N,06959.5812,W,0.47,16.43,220321,,,D*46 
270.144         GPS_NMEA_FROM_GPS    iGPS            $GPGGA,184120.000,4144.3507,N,06959.5812,W,2,09,0.98,8.9,M,-34.3,M,0000,0000*5A 
271.146         GPS_NMEA_FROM_GPS    iGPS            $GPGGA,184121.000,4144.3508,N,06959.5811,W,2,09,0.98,8.9,M,-34.3,M,0000,0000*57 
272.148         GPS_NMEA_FROM_GPS    iGPS            $GPGGA,184122.000,4144.3509,N,06959.5811,W,2,09,0.98,8.9,M,-34.3,M,0000,0000*55 
273.154         GPS_NMEA_FROM_GPS    iGPS            $GPGGA,184123.000,4144.3509,N,06959.5811,W,2,09,0.98,8.9,M,-34.3,M,0000,0000*54 
274.157         GPS_NMEA_FROM_GPS    iGPS            $GPGGA,184124.000,4144.3510,N,06959.5811,W,2,09,0.98,8.9,M,-34.3,M,0000,0000*5B 
275.159         GPS_NMEA_FROM_GPS    iGPS            $GPGGA,184125.000,4144.3510,N,06959.5812,W,2,09,0.97,8.9,M,-34.3,M,0000,0000*56 
276.161         GPS_NMEA_FROM_GPS    iGPS            $GPRMC,184126.000,A,4144.3511,N,06959.5812,W,0.16,351.66,220321,,,D*7F 
277.064         GPS_NMEA_FROM_GPS    iGPS            $GPGGA,184127.000,4144.3511,N,06959.5812,W,2,09,0.97,8.9,M,-34.3,M,0000,0000*55 
278.166         GPS_NMEA_FROM_GPS    iGPS            $GPGGA,184128.000,4144.3511,N,06959.5813,W,2,09,0.97,8.9,M,-34.3,M,0000,0000*5B 
279.169         GPS_NMEA_FROM_GPS    iGPS            $GPGGA,184129.000,4144.3512,N,06959.5813,W,2,09,0.97,8.9,M,-34.3,M,0000,0000*59 
280.071         GPS_NMEA_FROM_GPS    iGPS            $GPGGA,184130.000,4144.3512,N,06959.5814,W,2,09,0.97,8.9,M,-34.3,M,0000,0000*56 
281.174         GPS_NMEA_FROM_GPS    iGPS            $GPGGA,184131.000,4144.3512,N,06959.5814,W,2,09,0.97,8.9,M,-34.3,M,0000,0000*57 
282.176         GPS_NMEA_FROM_GPS    iGPS            $GPRMC,184132.000,A,4144.3512,N,06959.5814,W,0.14,295.66,220321,,,D*74 
283.178         GPS_NMEA_FROM_GPS    iGPS            $GPGGA,184133.000,4144.3512,N,06959.5815,W,2,09,0.97,8.9,M,-34.3,M,0000,0000*54 
284.080         GPS_NMEA_FROM_GPS    iGPS            $GPGGA,184134.000,4144.3512,N,06959.5815,W,2,09,0.97,8.9,M,-34.3,M,0000,0000*53 
285.183         GPS_NMEA_FROM_GPS    iGPS            $GPRMC,184135.000,A,4144.3513,N,06959.5816,W,0.16,288.21,220321,,,D*7D 
286.085         GPS_NMEA_FROM_GPS    iGPS            $GPGGA,184136.000,4144.3513,N,06959.5816,W,2,09,0.97,8.9,M,-34.3,M,0000,0000*53 
287.188         GPS_NMEA_FROM_GPS    iGPS            $GPRMC,184137.000,A,4144.3513,N,06959.5817,W,0.16,294.93,220321,,,D*7A 
288.090         GPS_NMEA_FROM_GPS    iGPS            $GPGGA,184138.000,4144.3513,N,06959.5817,W,2,09,0.97,8.9,M,-34.3,M,0000,0000*5C 
289.093         GPS_NMEA_FROM_GPS    iGPS            $GPGGA,184139.000,4144.3513,N,06959.5818,W,2,09,0.97,8.9,M,-34.3,M,0000,0000*52 
290.095         GPS_NMEA_FROM_GPS    iGPS            $GPGGA,184140.000,4144.3513,N,06959.5819,W,2,09,0.97,8.9,M,-34.3,M,0000,0000*5D 
291.098         GPS_NMEA_FROM_GPS    iGPS            $GPGGA,184141.000,4144.3513,N,06959.5819,W,2,09,0.97,8.9,M,-34.3,M,0000,0000*5C 
292.102         GPS_NMEA_FROM_GPS    iGPS            $GPGGA,184142.000,4144.3514,N,06959.5820,W,2,09,0.97,8.9,M,-34.3,M,0000,0000*52 
293.105         GPS_NMEA_FROM_GPS    iGPS            $GPGGA,184143.000,4144.3514,N,06959.5820,W,2,09,0.97,8.9,M,-34.3,M,0000,0000*53 
294.207         GPS_NMEA_FROM_GPS    iGPS            $GPRMC,184144.000,A,4144.3514,N,06959.5821,W,0.15,274.43,220321,,,D*7C 
295.209         GPS_NMEA_FROM_GPS    iGPS            $GPRMC,184145.000,A,4144.3514,N,06959.5821,W,0.15,273.68,220321,,,D*73 
296.111         GPS_NMEA_FROM_GPS    iGPS            $GPRMC,184146.000,A,4144.3514,N,06959.5822,W,0.15,280.42,220321,,,D*77 
297.114         GPS_NMEA_FROM_GPS    iGPS            $GPGGA,184147.000,4144.3514,N,06959.5822,W,2,09,0.97,8.9,M,-34.3,M,0000,0000*55 
298.116         GPS_NMEA_FROM_GPS    iGPS            $GPGGA,184148.000,4144.3514,N,06959.5823,W,2,09,0.97,8.9,M,-34.3,M,0000,0000*5B 
299.118         GPS_NMEA_FROM_GPS    iGPS            $GPGGA,184149.000,4144.3514,N,06959.5823,W,2,09,0.98,8.9,M,-34.3,M,0000,0000*55 
300.120         GPS_NMEA_FROM_GPS    iGPS            $GPGGA,184150.000,4144.3514,N,06959.5824,W,2,09,0.97,8.9,M,-34.3,M,0000,0000*55 
301.125         GPS_NMEA_FROM_GPS    iGPS            $GPRMC,184151.000,A,4144.3514,N,06959.5824,W,0.15,262.64,220321,,,D*7F 
302.126         GPS_NMEA_FROM_GPS    iGPS            $GPGGA,184152.000,4144.3514,N,06959.5825,W,2,09,0.98,8.9,M,-34.3,M,0000,0000*59 
303.129         GPS_NMEA_FROM_GPS    iGPS            $GPGGA,184153.000,4144.3514,N,06959.5825,W,2,09,0.97,8.9,M,-34.3,M,0000,0000*57 
304.133         GPS_NMEA_FROM_GPS    iGPS            $GPGGA,184154.000,4144.3514,N,06959.5826,W,2,09,0.98,8.9,M,-34.3,M,0000,0000*5C 
305.135         GPS_NMEA_FROM_GPS    iGPS            $GPGGA,184155.000,4144.3514,N,06959.5826,W,2,09,0.98,8.9,M,-34.3,M,0000,0000*5D 
306.137         GPS_NMEA_FROM_GPS    iGPS            $GPGGA,184156.000,4144.3514,N,06959.5827,W,2,09,0.98,8.9,M,-34.3,M,0000,0000*5F 
307.140         GPS_NMEA_FROM_GPS    iGPS            $GPRMC,184157.000,A,4144.3514,N,06959.5827,W,0.13,275.16,220321,,,D*7F 
