2.179           GPS_NMEA_FROM_GPS    iGPS            $GPRMC,182335.000,A,4144.3518,N,06959.5262,W,0.11,268.47,240321,,,D*74 
3.182           GPS_NMEA_FROM_GPS    iGPS            $GPGGA,182336.000,4144.3518,N,06959.5262,W,2,10,0.83,3.9,M,-34.3,M,0000,0000*53 
3.182           GPS_NMEA_FROM_GPS    iGPS            $GPGGA,182336.000,4144.3518,N,06959.5262,W,2,10,0.83,3.9,M,-34.3,M,0000,0000*53 
4.184           GPS_NMEA_FROM_GPS    iGPS            $GPGGA,182337.000,4144.3518,N,06959.5262,W,2,10,0.84,3.9,M,-34.3,M,0000,0000*55 
5.086           GPS_NMEA_FROM_GPS    iGPS            $GPGGA,182338.000,4144.3518,N,06959.5262,W,2,09,0.89,3.9,M,-34.3,M,0000,0000*5F 
6.189           GPS_NMEA_FROM_GPS    iGPS            $GPGGA,182339.000,4144.3518,N,06959.5262,W,2,09,0.89,3.9,M,-34.3,M,0000,0000*5E 
7.191           GPS_NMEA_FROM_GPS    iGPS            $GPGGA,182340.000,4144.3518,N,06959.5263,W,2,09,0.89,3.9,M,-34.3,M,0000,0000*51 
8.094           GPS_NMEA_FROM_GPS    iGPS            $GPGGA,182341.000,4144.3518,N,06959.5263,W,2,08,1.04,3.9,M,-34.3,M,0000,0000*55 
9.096           GPS_NMEA_FROM_GPS    iGPS            $GPGGA,182342.000,4144.3518,N,06959.5263,W,2,08,1.04,3.9,M,-34.3,M,0000,0000*56 
10.099          GPS_NMEA_FROM_GPS    iGPS            $GPGGA,182343.000,4144.3518,N,06959.5263,W,2,09,0.89,3.9,M,-34.3,M,0000,0000*52 
11.102          GPS_NMEA_FROM_GPS    iGPS            $GPGGA,182344.000,4144.3518,N,06959.5263,W,2,08,1.04,3.9,M,-34.3,M,0000,0000*50 
11.102          GPS_NMEA_FROM_GPS    iGPS            $GPGGA,182344.000,4144.3518,N,06959.5263,W,2,08,1.04,3.9,M,-34.3,M,0000,0000*50 
12.105          GPS_NMEA_FROM_GPS    iGPS            $GPGGA,182345.000,4144.3518,N,06959.5263,W,2,08,0.99,3.9,M,-34.3,M,0000,0000*54 
12.105          GPS_NMEA_FROM_GPS    iGPS            $GPGGA,182345.000,4144.3518,N,06959.5263,W,2,08,0.99,3.9,M,-34.3,M,0000,0000*54 
13.209          GPS_NMEA_FROM_GPS    iGPS            $GPRMC,182346.000,A,4144.3518,N,06959.5263,W,0.10,277.79,240321,,,D*73 
14.211          GPS_NMEA_FROM_GPS    iGPS            $GPGGA,182347.000,4144.3518,N,06959.5264,W,2,09,0.87,3.9,M,-34.3,M,0000,0000*5F 
15.214          GPS_NMEA_FROM_GPS    iGPS            $GPRMC,182348.000,A,4144.3518,N,06959.5264,W,0.11,275.89,240321,,,D*76 
16.116          GPS_NMEA_FROM_GPS    iGPS            $GPGGA,182349.000,4144.3518,N,06959.5264,W,2,08,0.99,4.0,M,-34.3,M,0000,0000*51 
17.118          GPS_NMEA_FROM_GPS    iGPS            $GPGGA,182350.000,4144.3518,N,06959.5264,W,2,08,0.99,4.0,M,-34.3,M,0000,0000*59 
18.120          GPS_NMEA_FROM_GPS    iGPS            $GPGGA,182351.000,4144.3518,N,06959.5265,W,2,08,0.99,4.0,M,-34.3,M,0000,0000*59 
19.122          GPS_NMEA_FROM_GPS    iGPS            $GPGGA,182352.000,4144.3518,N,06959.5265,W,2,10,0.84,4.0,M,-34.3,M,0000,0000*5F 
20.126          GPS_NMEA_FROM_GPS    iGPS            $GPGGA,182353.000,4144.3518,N,06959.5265,W,2,09,0.89,4.0,M,-34.3,M,0000,0000*5B 
21.229          GPS_NMEA_FROM_GPS    iGPS            $GPRMC,182354.000,A,4144.3518,N,06959.5265,W,0.08,280.99,240321,,,D*79 
22.231          GPS_NMEA_FROM_GPS    iGPS            $GPRMC,182355.000,A,4144.3518,N,06959.5265,W,0.10,277.48,240321,,,D*75 
23.133          GPS_NMEA_FROM_GPS    iGPS            $GPGGA,182356.000,4144.3518,N,06959.5265,W,2,09,0.96,4.0,M,-34.3,M,0000,0000*50 
24.136          GPS_NMEA_FROM_GPS    iGPS            $GPGGA,182357.000,4144.3518,N,06959.5265,W,2,09,0.96,4.0,M,-34.3,M,0000,0000*51 
25.239          GPS_NMEA_FROM_GPS    iGPS            $GPRMC,182358.000,A,4144.3518,N,06959.5266,W,0.07,277.76,240321,,,D*70 
26.142          GPS_NMEA_FROM_GPS    iGPS            $GPGGA,182359.000,4144.3518,N,06959.5266,W,2,10,0.84,4.0,M,-34.3,M,0000,0000*57 
27.244          GPS_NMEA_FROM_GPS    iGPS            $GPRMC,182400.000,A,4144.3518,N,06959.5266,W,0.08,276.49,240321,,,D*78 
28.247          GPS_NMEA_FROM_GPS    iGPS            $GPRMC,182401.000,A,4144.3518,N,06959.5266,W,0.09,267.80,240321,,,D*7D 
29.148          GPS_NMEA_FROM_GPS    iGPS            $GPGGA,182402.000,4144.3518,N,06959.5266,W,2,10,0.84,4.0,M,-34.3,M,0000,0000*5E 
30.151          GPS_NMEA_FROM_GPS    iGPS            $GPGGA,182403.000,4144.3518,N,06959.5266,W,2,10,0.84,4.0,M,-34.3,M,0000,0000*5F 
31.153          GPS_NMEA_FROM_GPS    iGPS            $GPGGA,182404.000,4144.3518,N,06959.5266,W,2,10,0.84,4.0,M,-34.3,M,0000,0000*58 
31.153          GPS_NMEA_FROM_GPS    iGPS            $GPGGA,182404.000,4144.3518,N,06959.5266,W,2,10,0.84,4.0,M,-34.3,M,0000,0000*58 
32.156          GPS_NMEA_FROM_GPS    iGPS            $GPGGA,182405.000,4144.3518,N,06959.5266,W,2,10,0.84,4.0,M,-34.3,M,0000,0000*59 
33.158          GPS_NMEA_FROM_GPS    iGPS            $GPGGA,182406.000,4144.3518,N,06959.5266,W,2,10,0.84,4.0,M,-34.3,M,0000,0000*5A 
34.261          GPS_NMEA_FROM_GPS    iGPS            $GPRMC,182407.000,A,4144.3518,N,06959.5266,W,0.09,271.79,240321,,,D*7A 
34.261          GPS_NMEA_FROM_GPS    iGPS            $GPRMC,182407.000,A,4144.3518,N,06959.5266,W,0.09,271.79,240321,,,D*7A 
35.163          GPS_NMEA_FROM_GPS    iGPS            $GPGGA,182408.000,4144.3519,N,06959.5266,W,2,10,0.83,4.0,M,-34.3,M,0000,0000*52 
36.165          GPS_NMEA_FROM_GPS    iGPS            $GPGGA,182409.000,4144.3518,N,06959.5266,W,2,10,0.84,4.0,M,-34.3,M,0000,0000*55 
37.167          GPS_NMEA_FROM_GPS    iGPS            $GPGGA,182410.000,4144.3518,N,06959.5267,W,2,10,0.84,4.0,M,-34.3,M,0000,0000*5C 
38.169          GPS_NMEA_FROM_GPS    iGPS            $GPGGA,182411.000,4144.3519,N,06959.5267,W,2,10,0.83,4.0,M,-34.3,M,0000,0000*5B 
39.172          GPS_NMEA_FROM_GPS    iGPS            $GPGGA,182412.000,4144.3519,N,06959.5268,W,2,10,0.83,4.0,M,-34.3,M,0000,0000*57 
40.174          GPS_NMEA_FROM_GPS    iGPS            $GPGGA,182413.000,4144.3519,N,06959.5268,W,2,10,0.83,4.0,M,-34.3,M,0000,0000*56 
41.177          GPS_NMEA_FROM_GPS    iGPS            $GPGGA,182414.000,4144.3519,N,06959.5270,W,2,10,0.83,4.0,M,-34.3,M,0000,0000*58 
42.180          GPS_NMEA_FROM_GPS    iGPS            $GPRMC,182415.000,A,4144.3519,N,06959.5271,W,0.43,285.11,240321,,,D*75 
43.182          GPS_NMEA_FROM_GPS    iGPS            $GPGGA,182416.000,4144.3520,N,06959.5272,W,2,10,0.83,4.0,M,-34.3,M,0000,0000*52 
44.185          GPS_NMEA_FROM_GPS    iGPS            $GPGGA,182417.000,4144.3520,N,06959.5274,W,2,10,0.83,4.0,M,-34.3,M,0000,0000*55 
45.187          GPS_NMEA_FROM_GPS    iGPS            $GPGGA,182418.000,4144.3521,N,06959.5275,W,2,10,0.83,4.0,M,-34.3,M,0000,0000*5A 
46.190          GPS_NMEA_FROM_GPS    iGPS            $GPGGA,182419.000,4144.3521,N,06959.5276,W,2,10,0.83,4.1,M,-34.3,M,0000,0000*59 
47.193          GPS_NMEA_FROM_GPS    iGPS            $GPRMC,182420.000,A,4144.3522,N,06959.5277,W,0.34,312.43,240321,,,D*75 
48.196          GPS_NMEA_FROM_GPS    iGPS            $GPGGA,182421.000,4144.3523,N,06959.5277,W,2,09,0.87,4.1,M,-34.3,M,0000,0000*5D 
49.098          GPS_NMEA_FROM_GPS    iGPS            $GPGGA,182422.000,4144.3524,N,06959.5278,W,2,10,0.83,4.1,M,-34.3,M,0000,0000*5A 
50.201          GPS_NMEA_FROM_GPS    iGPS            $GPGGA,182423.000,4144.3525,N,06959.5278,W,2,10,0.83,4.1,M,-34.3,M,0000,0000*5A 
51.103          GPS_NMEA_FROM_GPS    iGPS            $GPGGA,182424.000,4144.3526,N,06959.5278,W,2,09,0.89,4.1,M,-34.3,M,0000,0000*5C 
52.206          GPS_NMEA_FROM_GPS    iGPS            $GPGGA,182425.000,4144.3527,N,06959.5278,W,2,08,1.04,4.0,M,-34.3,M,0000,0000*58 
53.209          GPS_NMEA_FROM_GPS    iGPS            $GPGGA,182426.000,4144.3528,N,06959.5278,W,2,09,0.89,4.0,M,-34.3,M,0000,0000*51 
54.111          GPS_NMEA_FROM_GPS    iGPS            $GPGGA,182427.000,4144.3529,N,06959.5277,W,2,10,0.83,4.0,M,-34.3,M,0000,0000*5C 
55.114          GPS_NMEA_FROM_GPS    iGPS            $GPGGA,182428.000,4144.3530,N,06959.5276,W,2,10,0.83,4.1,M,-34.3,M,0000,0000*5B 
56.217          GPS_NMEA_FROM_GPS    iGPS            $GPRMC,182429.000,A,4144.3531,N,06959.5275,W,0.48,23.53,240321,,,D*47 
57.220          GPS_NMEA_FROM_GPS    iGPS            $GPRMC,182430.000,A,4144.3532,N,06959.5274,W,0.51,29.10,240321,,,D*48 
58.223          GPS_NMEA_FROM_GPS    iGPS            $GPRMC,182431.000,A,4144.3533,N,06959.5273,W,0.50,32.37,240321,,,D*41 
59.226          GPS_NMEA_FROM_GPS    iGPS            $GPRMC,182432.000,A,4144.3535,N,06959.5272,W,0.57,35.81,240321,,,D*48 
60.228          GPS_NMEA_FROM_GPS    iGPS            $GPRMC,182433.000,A,4144.3536,N,06959.5270,W,0.55,37.42,240321,,,D*47 
61.130          GPS_NMEA_FROM_GPS    iGPS            $GPGGA,182434.000,4144.3537,N,06959.5269,W,2,09,0.87,4.0,M,-34.3,M,0000,0000*52 
62.233          GPS_NMEA_FROM_GPS    iGPS            $GPRMC,182435.000,A,4144.3538,N,06959.5269,W,0.62,40.56,240321,,,D*46 
63.135          GPS_NMEA_FROM_GPS    iGPS            $GPGGA,182436.000,4144.3539,N,06959.5267,W,2,10,0.83,4.0,M,-34.3,M,0000,0000*5C 
64.138          GPS_NMEA_FROM_GPS    iGPS            $GPGGA,182437.000,4144.3540,N,06959.5266,W,2,10,0.83,4.1,M,-34.3,M,0000,0000*53 
65.140          GPS_NMEA_FROM_GPS    iGPS            $GPGGA,182438.000,4144.3541,N,06959.5265,W,2,10,0.83,4.1,M,-34.3,M,0000,0000*5E 
66.143          GPS_NMEA_FROM_GPS    iGPS            $GPGGA,182439.000,4144.3542,N,06959.5264,W,2,10,0.83,4.0,M,-34.3,M,0000,0000*5C 
67.145          GPS_NMEA_FROM_GPS    iGPS            $GPGGA,182440.000,4144.3543,N,06959.5262,W,2,10,0.83,4.0,M,-34.3,M,0000,0000*55 
68.248          GPS_NMEA_FROM_GPS    iGPS            $GPRMC,182441.000,A,4144.3544,N,06959.5260,W,0.72,52.77,240321,,,D*46 
69.150          GPS_NMEA_FROM_GPS    iGPS            $GPGGA,182442.000,4144.3545,N,06959.5258,W,2,10,0.83,3.9,M,-34.3,M,0000,0000*56 
70.254          GPS_NMEA_FROM_GPS    iGPS            $GPRMC,182443.000,A,4144.3546,N,06959.5256,W,0.68,57.78,240321,,,D*42 
71.256          GPS_NMEA_FROM_GPS    iGPS            $GPRMC,182444.000,A,4144.3547,N,06959.5254,W,0.72,60.14,240321,,,D*43 
72.158          GPS_NMEA_FROM_GPS    iGPS            $GPGGA,182445.000,4144.3547,N,06959.5252,W,2,10,0.83,3.8,M,-34.3,M,0000,0000*58 
73.161          GPS_NMEA_FROM_GPS    iGPS            $GPGGA,182446.000,4144.3548,N,06959.5249,W,2,10,0.83,3.8,M,-34.3,M,0000,0000*5E 
74.264          GPS_NMEA_FROM_GPS    iGPS            $GPRMC,182447.000,A,4144.3549,N,06959.5248,W,0.70,66.50,240321,,,D*47 
75.166          GPS_NMEA_FROM_GPS    iGPS            $GPGGA,182448.000,4144.3549,N,06959.5246,W,2,10,0.83,3.7,M,-34.3,M,0000,0000*51 
76.168          GPS_NMEA_FROM_GPS    iGPS            $GPGGA,182449.000,4144.3550,N,06959.5244,W,2,10,0.83,3.7,M,-34.3,M,0000,0000*5A 
77.171          GPS_NMEA_FROM_GPS    iGPS            $GPGGA,182450.000,4144.3550,N,06959.5242,W,2,10,0.83,3.7,M,-34.3,M,0000,0000*54 
78.174          GPS_NMEA_FROM_GPS    iGPS            $GPGGA,182451.000,4144.3551,N,06959.5240,W,2,10,0.83,3.6,M,-34.3,M,0000,0000*57 
79.176          GPS_NMEA_FROM_GPS    iGPS            $GPGGA,182452.000,4144.3551,N,06959.5239,W,2,10,0.83,3.6,M,-34.3,M,0000,0000*5A 
80.180          GPS_NMEA_FROM_GPS    iGPS            $GPGGA,182453.000,4144.3552,N,06959.5236,W,2,10,0.83,3.6,M,-34.3,M,0000,0000*57 
81.182          GPS_NMEA_FROM_GPS    iGPS            $GPGGA,182454.000,4144.3552,N,06959.5235,W,2,10,0.83,3.6,M,-34.3,M,0000,0000*53 
82.185          GPS_NMEA_FROM_GPS    iGPS            $GPGGA,182455.000,4144.3553,N,06959.5232,W,2,10,0.83,3.6,M,-34.3,M,0000,0000*54 
83.187          GPS_NMEA_FROM_GPS    iGPS            $GPGGA,182456.000,4144.3554,N,06959.5230,W,2,10,0.83,3.6,M,-34.3,M,0000,0000*52 
84.190          GPS_NMEA_FROM_GPS    iGPS            $GPRMC,182457.000,A,4144.3554,N,06959.5228,W,0.74,71.48,240321,,,D*47 
85.192          GPS_NMEA_FROM_GPS    iGPS            $GPGGA,182458.000,4144.3555,N,06959.5226,W,2,10,0.83,3.6,M,-34.3,M,0000,0000*5A 
86.196          GPS_NMEA_FROM_GPS    iGPS            $GPRMC,182459.000,A,4144.3555,N,06959.5224,W,0.69,71.88,240321,,,D*44 
87.198          GPS_NMEA_FROM_GPS    iGPS            $GPRMC,182500.000,A,4144.3556,N,06959.5221,W,0.71,72.38,240321,,,D*4E 
88.200          GPS_NMEA_FROM_GPS    iGPS            $GPGGA,182501.000,4144.3556,N,06959.5219,W,2,10,0.83,3.6,M,-34.3,M,0000,0000*58 
89.203          GPS_NMEA_FROM_GPS    iGPS            $GPGGA,182502.000,4144.3557,N,06959.5217,W,2,10,0.84,3.6,M,-34.3,M,0000,0000*53 
90.206          GPS_NMEA_FROM_GPS    iGPS            $GPRMC,182503.000,A,4144.3559,N,06959.5215,W,0.71,72.58,240321,,,D*43 
91.208          GPS_NMEA_FROM_GPS    iGPS            $GPGGA,182504.000,4144.3560,N,06959.5213,W,2,10,0.83,3.5,M,-34.3,M,0000,0000*51 
92.211          GPS_NMEA_FROM_GPS    iGPS            $GPGGA,182505.000,4144.3561,N,06959.5210,W,2,10,0.83,3.5,M,-34.3,M,0000,0000*52 
93.113          GPS_NMEA_FROM_GPS    iGPS            $GPGGA,182506.000,4144.3563,N,06959.5208,W,2,10,0.83,3.5,M,-34.3,M,0000,0000*5A 
94.117          GPS_NMEA_FROM_GPS    iGPS            $GPGGA,182507.000,4144.3564,N,06959.5206,W,2,10,0.83,3.5,M,-34.3,M,0000,0000*52 
95.220          GPS_NMEA_FROM_GPS    iGPS            $GPRMC,182508.000,A,4144.3565,N,06959.5203,W,0.80,72.02,240321,,,D*41 
96.122          GPS_NMEA_FROM_GPS    iGPS            $GPGGA,182509.000,4144.3566,N,06959.5201,W,2,09,0.96,3.5,M,-34.3,M,0000,0000*55 
97.125          GPS_NMEA_FROM_GPS    iGPS            $GPGGA,182510.000,4144.3567,N,06959.5199,W,2,10,0.83,3.5,M,-34.3,M,0000,0000*52 
98.228          GPS_NMEA_FROM_GPS    iGPS            $GPGGA,182511.000,4144.3568,N,06959.5197,W,2,10,0.84,3.5,M,-34.3,M,0000,0000*55 
99.231          GPS_NMEA_FROM_GPS    iGPS            $GPRMC,182512.000,A,4144.3569,N,06959.5195,W,0.70,77.97,240321,,,D*4C 
100.234         GPS_NMEA_FROM_GPS    iGPS            $GPRMC,182513.000,A,4144.3570,N,06959.5193,W,0.69,78.47,240321,,,D*49 
101.136         GPS_NMEA_FROM_GPS    iGPS            $GPGGA,182514.000,4144.3570,N,06959.5191,W,2,10,0.84,3.7,M,-34.3,M,0000,0000*5D 
102.240         GPS_NMEA_FROM_GPS    iGPS            $GPRMC,182515.000,A,4144.3571,N,06959.5189,W,0.76,79.40,240321,,,D*4D 
103.141         GPS_NMEA_FROM_GPS    iGPS            $GPGGA,182516.000,4144.3572,N,06959.5187,W,2,09,0.96,3.8,M,-34.3,M,0000,0000*5E 
104.144         GPS_NMEA_FROM_GPS    iGPS            $GPGGA,182517.000,4144.3573,N,06959.5185,W,2,10,0.83,3.9,M,-34.3,M,0000,0000*51 
105.246         GPS_NMEA_FROM_GPS    iGPS            $GPRMC,182518.000,A,4144.3574,N,06959.5182,W,0.78,75.90,240321,,,D*41 
106.148         GPS_NMEA_FROM_GPS    iGPS            $GPGGA,182519.000,4144.3576,N,06959.5180,W,2,10,0.83,3.9,M,-34.3,M,0000,0000*5F 
107.151         GPS_NMEA_FROM_GPS    iGPS            $GPGGA,182520.000,4144.3577,N,06959.5177,W,2,09,0.96,4.0,M,-34.3,M,0000,0000*5E 
108.154         GPS_NMEA_FROM_GPS    iGPS            $GPGGA,182521.000,4144.3577,N,06959.5175,W,2,09,0.96,4.0,M,-34.3,M,0000,0000*5D 
109.157         GPS_NMEA_FROM_GPS    iGPS            $GPGGA,182522.000,4144.3578,N,06959.5173,W,2,10,0.84,4.0,M,-34.3,M,0000,0000*5C 
110.160         GPS_NMEA_FROM_GPS    iGPS            $GPGGA,182523.000,4144.3579,N,06959.5170,W,2,10,0.83,4.1,M,-34.3,M,0000,0000*59 
111.162         GPS_NMEA_FROM_GPS    iGPS            $GPRMC,182524.000,A,4144.3579,N,06959.5168,W,0.71,78.27,240321,,,D*4F 
112.165         GPS_NMEA_FROM_GPS    iGPS            $GPGGA,182525.000,4144.3580,N,06959.5166,W,2,09,0.96,4.3,M,-34.3,M,0000,0000*50 
113.167         GPS_NMEA_FROM_GPS    iGPS            $GPGGA,182526.000,4144.3581,N,06959.5164,W,2,09,0.96,4.4,M,-34.3,M,0000,0000*57 
114.170         GPS_NMEA_FROM_GPS    iGPS            $GPRMC,182527.000,A,4144.3582,N,06959.5162,W,0.73,79.60,240321,,,D*42 
115.173         GPS_NMEA_FROM_GPS    iGPS            $GPRMC,182528.000,A,4144.3583,N,06959.5159,W,0.71,78.68,240321,,,D*4F 
116.175         GPS_NMEA_FROM_GPS    iGPS            $GPGGA,182529.000,4144.3584,N,06959.5157,W,2,10,0.83,4.5,M,-34.3,M,0000,0000*50 
117.178         GPS_NMEA_FROM_GPS    iGPS            $GPGGA,182530.000,4144.3585,N,06959.5155,W,2,10,0.83,4.5,M,-34.3,M,0000,0000*5B 
118.180         GPS_NMEA_FROM_GPS    iGPS            $GPGGA,182531.000,4144.3586,N,06959.5152,W,2,10,0.83,4.5,M,-34.3,M,0000,0000*5E 
119.183         GPS_NMEA_FROM_GPS    iGPS            $GPGGA,182532.000,4144.3587,N,06959.5150,W,2,10,0.84,4.5,M,-34.3,M,0000,0000*59 
120.185         GPS_NMEA_FROM_GPS    iGPS            $GPGGA,182533.000,4144.3587,N,06959.5148,W,2,10,0.83,4.6,M,-34.3,M,0000,0000*55 
121.188         GPS_NMEA_FROM_GPS    iGPS            $GPGGA,182534.000,4144.3588,N,06959.5145,W,2,10,0.83,4.6,M,-34.3,M,0000,0000*50 
122.191         GPS_NMEA_FROM_GPS    iGPS            $GPRMC,182535.000,A,4144.3588,N,06959.5144,W,0.58,82.15,240321,,,D*40 
123.193         GPS_NMEA_FROM_GPS    iGPS            $GPGGA,182536.000,4144.3589,N,06959.5143,W,2,10,0.84,4.6,M,-34.3,M,0000,0000*52 
124.196         GPS_NMEA_FROM_GPS    iGPS            $GPRMC,182537.000,A,4144.3589,N,06959.5142,W,0.52,87.35,240321,,,D*48 
125.098         GPS_NMEA_FROM_GPS    iGPS            $GPGGA,182538.000,4144.3589,N,06959.5142,W,2,10,0.84,4.3,M,-34.3,M,0000,0000*58 
126.201         GPS_NMEA_FROM_GPS    iGPS            $GPRMC,182539.000,A,4144.3588,N,06959.5141,W,0.43,97.98,240321,,,D*42 
127.203         GPS_NMEA_FROM_GPS    iGPS            $GPGGA,182540.000,4144.3588,N,06959.5139,W,2,10,0.84,4.3,M,-34.3,M,0000,0000*5A 
128.106         GPS_NMEA_FROM_GPS    iGPS            $GPGGA,182541.000,4144.3587,N,06959.5138,W,2,09,0.96,4.2,M,-34.3,M,0000,0000*5F 
129.108         GPS_NMEA_FROM_GPS    iGPS            $GPGGA,182542.000,4144.3586,N,06959.5137,W,2,10,0.84,4.2,M,-34.3,M,0000,0000*59 
130.211         GPS_NMEA_FROM_GPS    iGPS            $GPGGA,182543.000,4144.3585,N,06959.5137,W,2,10,0.84,4.2,M,-34.3,M,0000,0000*5B 
131.214         GPS_NMEA_FROM_GPS    iGPS            $GPGGA,182544.000,4144.3584,N,06959.5137,W,2,10,0.84,4.1,M,-34.3,M,0000,0000*5E 
132.116         GPS_NMEA_FROM_GPS    iGPS            $GPGGA,182545.000,4144.3582,N,06959.5137,W,2,10,0.84,4.1,M,-34.3,M,0000,0000*59 
133.220         GPS_NMEA_FROM_GPS    iGPS            $GPRMC,182546.000,A,4144.3581,N,06959.5138,W,0.54,181.50,240321,,,D*79 
134.221         GPS_NMEA_FROM_GPS    iGPS            $GPGGA,182547.000,4144.3580,N,06959.5139,W,2,10,0.84,4.0,M,-34.3,M,0000,0000*56 
135.224         GPS_NMEA_FROM_GPS    iGPS            $GPGGA,182548.000,4144.3579,N,06959.5141,W,2,10,0.84,4.0,M,-34.3,M,0000,0000*50 
136.126         GPS_NMEA_FROM_GPS    iGPS            $GPGGA,182549.000,4144.3578,N,06959.5144,W,2,10,0.83,4.0,M,-34.3,M,0000,0000*52 
137.228         GPS_NMEA_FROM_GPS    iGPS            $GPRMC,182550.000,A,4144.3577,N,06959.5146,W,0.62,220.84,240321,,,D*7A 
138.131         GPS_NMEA_FROM_GPS    iGPS            $GPGGA,182551.000,4144.3577,N,06959.5148,W,2,10,0.84,4.1,M,-34.3,M,0000,0000*5E 
139.134         GPS_NMEA_FROM_GPS    iGPS            $GPGGA,182552.000,4144.3576,N,06959.5151,W,2,10,0.84,4.0,M,-34.3,M,0000,0000*55 
140.237         GPS_NMEA_FROM_GPS    iGPS            $GPRMC,182553.000,A,4144.3576,N,06959.5153,W,0.67,234.46,240321,,,D*72 
141.138         GPS_NMEA_FROM_GPS    iGPS            $GPGGA,182554.000,4144.3575,N,06959.5156,W,2,10,0.83,4.1,M,-34.3,M,0000,0000*51 
142.241         GPS_NMEA_FROM_GPS    iGPS            $GPRMC,182555.000,A,4144.3575,N,06959.5159,W,0.66,239.25,240321,,,D*74 
143.143         GPS_NMEA_FROM_GPS    iGPS            $GPGGA,182556.000,4144.3574,N,06959.5162,W,2,10,0.83,4.0,M,-34.3,M,0000,0000*54 
144.147         GPS_NMEA_FROM_GPS    iGPS            $GPGGA,182557.000,4144.3573,N,06959.5165,W,2,10,0.83,3.9,M,-34.3,M,0000,0000*5B 
145.250         GPS_NMEA_FROM_GPS    iGPS            $GPRMC,182558.000,A,4144.3573,N,06959.5168,W,0.76,241.53,240321,,,D*72 
146.152         GPS_NMEA_FROM_GPS    iGPS            $GPGGA,182559.000,4144.3572,N,06959.5171,W,2,10,0.83,4.0,M,-34.3,M,0000,0000*5F 
147.154         GPS_NMEA_FROM_GPS    iGPS            $GPGGA,182600.000,4144.3572,N,06959.5174,W,2,10,0.83,4.1,M,-34.3,M,0000,0000*54 
148.157         GPS_NMEA_FROM_GPS    iGPS            $GPGGA,182601.000,4144.3571,N,06959.5177,W,2,09,0.96,4.2,M,-34.3,M,0000,0000*5A 
149.159         GPS_NMEA_FROM_GPS    iGPS            $GPGGA,182602.000,4144.3571,N,06959.5180,W,2,09,0.96,4.3,M,-34.3,M,0000,0000*50 
150.162         GPS_NMEA_FROM_GPS    iGPS            $GPGGA,182603.000,4144.3571,N,06959.5183,W,2,09,0.96,4.5,M,-34.3,M,0000,0000*54 
151.164         GPS_NMEA_FROM_GPS    iGPS            $GPGGA,182604.000,4144.3571,N,06959.5186,W,2,09,0.96,4.6,M,-34.3,M,0000,0000*55 
152.167         GPS_NMEA_FROM_GPS    iGPS            $GPGGA,182605.000,4144.3571,N,06959.5189,W,2,09,0.96,4.6,M,-34.3,M,0000,0000*5B 
153.169         GPS_NMEA_FROM_GPS    iGPS            $GPGGA,182606.000,4144.3571,N,06959.5192,W,2,09,0.96,4.7,M,-34.3,M,0000,0000*53 
154.172         GPS_NMEA_FROM_GPS    iGPS            $GPGGA,182607.000,4144.3571,N,06959.5195,W,2,09,0.96,4.8,M,-34.3,M,0000,0000*5A 
155.174         GPS_NMEA_FROM_GPS    iGPS            $GPRMC,182608.000,A,4144.3571,N,06959.5198,W,0.74,253.63,240321,,,D*7B 
156.176         GPS_NMEA_FROM_GPS    iGPS            $GPGGA,182609.000,4144.3571,N,06959.5201,W,2,08,1.00,5.0,M,-34.3,M,0000,0000*5C 
157.078         GPS_NMEA_FROM_GPS    iGPS            $GPGGA,182610.000,4144.3571,N,06959.5203,W,2,09,0.88,5.1,M,-34.3,M,0000,0000*57 
158.181         GPS_NMEA_FROM_GPS    iGPS            $GPGGA,182611.000,4144.3570,N,06959.5206,W,2,10,0.83,5.1,M,-34.3,M,0000,0000*51 
159.184         GPS_NMEA_FROM_GPS    iGPS            $GPGGA,182612.000,4144.3570,N,06959.5209,W,2,10,0.83,5.2,M,-34.3,M,0000,0000*5E 
160.187         GPS_NMEA_FROM_GPS    iGPS            $GPGGA,182613.000,4144.3570,N,06959.5211,W,2,10,0.83,5.3,M,-34.3,M,0000,0000*57 
161.189         GPS_NMEA_FROM_GPS    iGPS            $GPRMC,182614.000,A,4144.3569,N,06959.5214,W,0.82,251.45,240321,,,D*77 
162.192         GPS_NMEA_FROM_GPS    iGPS            $GPRMC,182615.000,A,4144.3569,N,06959.5217,W,0.81,251.44,240321,,,D*77 
163.194         GPS_NMEA_FROM_GPS    iGPS            $GPGGA,182616.000,4144.3569,N,06959.5220,W,2,09,0.88,5.6,M,-34.3,M,0000,0000*5E 
164.196         GPS_NMEA_FROM_GPS    iGPS            $GPGGA,182617.000,4144.3568,N,06959.5223,W,2,08,1.00,5.7,M,-34.3,M,0000,0000*5C 
165.199         GPS_NMEA_FROM_GPS    iGPS            $GPGGA,182618.000,4144.3568,N,06959.5225,W,2,09,0.96,5.7,M,-34.3,M,0000,0000*5A 
166.201         GPS_NMEA_FROM_GPS    iGPS            $GPGGA,182619.000,4144.3568,N,06959.5228,W,2,10,0.83,5.8,M,-34.3,M,0000,0000*55 
167.104         GPS_NMEA_FROM_GPS    iGPS            $GPGGA,182620.000,4144.3567,N,06959.5231,W,2,09,0.96,5.9,M,-34.3,M,0000,0000*55 
168.206         GPS_NMEA_FROM_GPS    iGPS            $GPGGA,182621.000,4144.3567,N,06959.5234,W,2,09,0.96,6.0,M,-34.3,M,0000,0000*5B 
169.109         GPS_NMEA_FROM_GPS    iGPS            $GPGGA,182622.000,4144.3567,N,06959.5236,W,2,10,0.83,6.0,M,-34.3,M,0000,0000*56 
170.212         GPS_NMEA_FROM_GPS    iGPS            $GPGGA,182623.000,4144.3566,N,06959.5239,W,2,10,0.83,6.1,M,-34.3,M,0000,0000*58 
171.114         GPS_NMEA_FROM_GPS    iGPS            $GPGGA,182624.000,4144.3566,N,06959.5241,W,2,10,0.83,6.2,M,-34.3,M,0000,0000*53 
172.217         GPS_NMEA_FROM_GPS    iGPS            $GPGGA,182625.000,4144.3565,N,06959.5244,W,2,10,0.83,6.2,M,-34.3,M,0000,0000*54 
173.119         GPS_NMEA_FROM_GPS    iGPS            $GPGGA,182626.000,4144.3565,N,06959.5246,W,2,10,0.83,6.3,M,-34.3,M,0000,0000*54 
174.222         GPS_NMEA_FROM_GPS    iGPS            $GPRMC,182627.000,A,4144.3564,N,06959.5249,W,0.79,250.13,240321,,,D*74 
175.124         GPS_NMEA_FROM_GPS    iGPS            $GPGGA,182628.000,4144.3563,N,06959.5253,W,2,10,0.83,6.2,M,-34.3,M,0000,0000*59 
176.228         GPS_NMEA_FROM_GPS    iGPS            $GPGGA,182629.000,4144.3562,N,06959.5256,W,2,10,0.83,6.1,M,-34.3,M,0000,0000*5F 
177.232         GPS_NMEA_FROM_GPS    iGPS            $GPRMC,182630.000,A,4144.3561,N,06959.5259,W,0.78,248.11,240321,,,D*7C 
178.132         GPS_NMEA_FROM_GPS    iGPS            $GPGGA,182631.000,4144.3560,N,06959.5263,W,2,10,0.83,5.9,M,-34.3,M,0000,0000*59 
179.134         GPS_NMEA_FROM_GPS    iGPS            $GPGGA,182632.000,4144.3559,N,06959.5266,W,2,10,0.83,5.9,M,-34.3,M,0000,0000*55 
180.137         GPS_NMEA_FROM_GPS    iGPS            $GPGGA,182633.000,4144.3558,N,06959.5269,W,2,10,0.83,5.9,M,-34.3,M,0000,0000*5A 
181.140         GPS_NMEA_FROM_GPS    iGPS            $GPGGA,182634.000,4144.3557,N,06959.5272,W,2,10,0.83,5.9,M,-34.3,M,0000,0000*58 
182.142         GPS_NMEA_FROM_GPS    iGPS            $GPGGA,182635.000,4144.3556,N,06959.5275,W,2,10,0.83,5.9,M,-34.3,M,0000,0000*5F 
183.145         GPS_NMEA_FROM_GPS    iGPS            $GPGGA,182636.000,4144.3556,N,06959.5278,W,2,10,0.83,6.0,M,-34.3,M,0000,0000*5B 
184.248         GPS_NMEA_FROM_GPS    iGPS            $GPRMC,182637.000,A,4144.3555,N,06959.5281,W,0.82,247.34,240321,,,D*74 
185.150         GPS_NMEA_FROM_GPS    iGPS            $GPGGA,182638.000,4144.3554,N,06959.5284,W,2,10,0.83,6.1,M,-34.3,M,0000,0000*55 
186.153         GPS_NMEA_FROM_GPS    iGPS            $GPGGA,182639.000,4144.3554,N,06959.5286,W,2,10,0.83,6.2,M,-34.3,M,0000,0000*55 
187.156         GPS_NMEA_FROM_GPS    iGPS            $GPGGA,182640.000,4144.3553,N,06959.5289,W,2,10,0.83,6.3,M,-34.3,M,0000,0000*52 
188.158         GPS_NMEA_FROM_GPS    iGPS            $GPGGA,182641.000,4144.3553,N,06959.5292,W,2,10,0.83,6.3,M,-34.3,M,0000,0000*59 
189.161         GPS_NMEA_FROM_GPS    iGPS            $GPGGA,182642.000,4144.3552,N,06959.5295,W,2,10,0.83,6.4,M,-34.3,M,0000,0000*5B 
190.164         GPS_NMEA_FROM_GPS    iGPS            $GPRMC,182643.000,A,4144.3551,N,06959.5297,W,0.78,248.54,240321,,,D*78 
191.166         GPS_NMEA_FROM_GPS    iGPS            $GPGGA,182644.000,4144.3550,N,06959.5300,W,2,10,0.83,6.4,M,-34.3,M,0000,0000*52 
192.169         GPS_NMEA_FROM_GPS    iGPS            $GPRMC,182645.000,A,4144.3549,N,06959.5304,W,0.81,247.95,240321,,,D*78 
193.071         GPS_NMEA_FROM_GPS    iGPS            $GPGGA,182646.000,4144.3548,N,06959.5307,W,2,10,0.83,6.3,M,-34.3,M,0000,0000*59 
194.174         GPS_NMEA_FROM_GPS    iGPS            $GPGGA,182647.000,4144.3547,N,06959.5311,W,2,10,0.83,6.2,M,-34.3,M,0000,0000*51 
195.179         GPS_NMEA_FROM_GPS    iGPS            $GPGGA,182648.000,4144.3546,N,06959.5314,W,2,10,0.83,6.1,M,-34.3,M,0000,0000*59 
196.182         GPS_NMEA_FROM_GPS    iGPS            $GPGGA,182649.000,4144.3545,N,06959.5318,W,2,10,0.83,6.0,M,-34.3,M,0000,0000*56 
197.184         GPS_NMEA_FROM_GPS    iGPS            $GPGGA,182650.000,4144.3544,N,06959.5321,W,2,10,0.83,6.0,M,-34.3,M,0000,0000*55 
198.187         GPS_NMEA_FROM_GPS    iGPS            $GPGGA,182651.000,4144.3543,N,06959.5324,W,2,09,0.96,6.0,M,-34.3,M,0000,0000*5A 
199.190         GPS_NMEA_FROM_GPS    iGPS            $GPGGA,182652.000,4144.3542,N,06959.5328,W,2,09,0.96,5.9,M,-34.3,M,0000,0000*5E 
200.093         GPS_NMEA_FROM_GPS    iGPS            $GPGGA,182653.000,4144.3541,N,06959.5331,W,2,09,0.96,5.8,M,-34.3,M,0000,0000*55 
201.095         GPS_NMEA_FROM_GPS    iGPS            $GPGGA,182654.000,4144.3540,N,06959.5334,W,2,09,0.96,5.7,M,-34.3,M,0000,0000*59 
202.198         GPS_NMEA_FROM_GPS    iGPS            $GPGGA,182655.000,4144.3539,N,06959.5337,W,2,09,0.96,5.7,M,-34.3,M,0000,0000*55 
203.101         GPS_NMEA_FROM_GPS    iGPS            $GPGGA,182656.000,4144.3538,N,06959.5341,W,2,09,0.96,5.6,M,-34.3,M,0000,0000*57 
204.204         GPS_NMEA_FROM_GPS    iGPS            $GPRMC,182657.000,A,4144.3538,N,06959.5344,W,0.71,244.54,240321,,,D*78 
205.206         GPS_NMEA_FROM_GPS    iGPS            $GPGGA,182658.000,4144.3537,N,06959.5348,W,2,09,0.96,5.4,M,-34.3,M,0000,0000*5D 
206.209         GPS_NMEA_FROM_GPS    iGPS            $GPRMC,182659.000,A,4144.3536,N,06959.5351,W,0.84,240.71,240321,,,D*75 
207.112         GPS_NMEA_FROM_GPS    iGPS            $GPGGA,182700.000,4144.3535,N,06959.5355,W,2,09,0.96,5.4,M,-34.3,M,0000,0000*5F 
208.215         GPS_NMEA_FROM_GPS    iGPS            $GPGGA,182701.000,4144.3534,N,06959.5357,W,2,10,0.84,5.4,M,-34.3,M,0000,0000*56 
209.117         GPS_NMEA_FROM_GPS    iGPS            $GPGGA,182702.000,4144.3533,N,06959.5360,W,2,10,0.83,5.3,M,-34.3,M,0000,0000*56 
210.120         GPS_NMEA_FROM_GPS    iGPS            $GPGGA,182703.000,4144.3532,N,06959.5363,W,2,10,0.83,5.3,M,-34.3,M,0000,0000*55 
211.224         GPS_NMEA_FROM_GPS    iGPS            $GPRMC,182704.000,A,4144.3532,N,06959.5365,W,0.57,238.85,240321,,,D*75 
212.126         GPS_NMEA_FROM_GPS    iGPS            $GPGGA,182705.000,4144.3532,N,06959.5367,W,2,10,0.84,5.3,M,-34.3,M,0000,0000*50 
213.228         GPS_NMEA_FROM_GPS    iGPS            $GPGGA,182706.000,4144.3532,N,06959.5370,W,2,10,0.84,5.3,M,-34.3,M,0000,0000*55 
214.131         GPS_NMEA_FROM_GPS    iGPS            $GPGGA,182707.000,4144.3532,N,06959.5372,W,2,10,0.83,5.4,M,-34.3,M,0000,0000*56 
215.234         GPS_NMEA_FROM_GPS    iGPS            $GPRMC,182708.000,A,4144.3532,N,06959.5374,W,0.51,253.13,240321,,,D*7D 
216.236         GPS_NMEA_FROM_GPS    iGPS            $GPRMC,182709.000,A,4144.3532,N,06959.5376,W,0.57,258.83,240321,,,D*7A 
217.138         GPS_NMEA_FROM_GPS    iGPS            $GPGGA,182710.000,4144.3532,N,06959.5378,W,2,10,0.84,5.4,M,-34.3,M,0000,0000*5D 
218.241         GPS_NMEA_FROM_GPS    iGPS            $GPRMC,182711.000,A,4144.3533,N,06959.5381,W,0.56,272.77,240321,,,D*78 
219.143         GPS_NMEA_FROM_GPS    iGPS            $GPGGA,182712.000,4144.3534,N,06959.5383,W,2,10,0.84,5.1,M,-34.3,M,0000,0000*58 
220.146         GPS_NMEA_FROM_GPS    iGPS            $GPGGA,182713.000,4144.3535,N,06959.5386,W,2,10,0.84,5.0,M,-34.3,M,0000,0000*5C 
221.148         GPS_NMEA_FROM_GPS    iGPS            $GPGGA,182714.000,4144.3536,N,06959.5387,W,2,10,0.83,4.8,M,-34.3,M,0000,0000*57 
222.151         GPS_NMEA_FROM_GPS    iGPS            $GPRMC,182715.000,A,4144.3537,N,06959.5389,W,0.54,306.58,240321,,,D*7D 
223.154         GPS_NMEA_FROM_GPS    iGPS            $GPGGA,182716.000,4144.3538,N,06959.5390,W,2,10,0.84,4.8,M,-34.3,M,0000,0000*5A 
224.156         GPS_NMEA_FROM_GPS    iGPS            $GPGGA,182717.000,4144.3540,N,06959.5391,W,2,10,0.84,4.7,M,-34.3,M,0000,0000*5A 
225.159         GPS_NMEA_FROM_GPS    iGPS            $GPGGA,182718.000,4144.3541,N,06959.5391,W,2,10,0.84,4.7,M,-34.3,M,0000,0000*54 
226.262         GPS_NMEA_FROM_GPS    iGPS            $GPRMC,182719.000,A,4144.3543,N,06959.5392,W,0.62,330.59,240321,,,D*79 
227.164         GPS_NMEA_FROM_GPS    iGPS            $GPGGA,182720.000,4144.3544,N,06959.5392,W,2,10,0.83,4.6,M,-34.3,M,0000,0000*5F 
228.166         GPS_NMEA_FROM_GPS    iGPS            $GPGGA,182721.000,4144.3544,N,06959.5393,W,2,10,0.83,4.5,M,-34.3,M,0000,0000*5C 
229.169         GPS_NMEA_FROM_GPS    iGPS            $GPGGA,182722.000,4144.3546,N,06959.5394,W,2,10,0.84,4.5,M,-34.3,M,0000,0000*5D 
230.172         GPS_NMEA_FROM_GPS    iGPS            $GPGGA,182723.000,4144.3548,N,06959.5395,W,2,10,0.84,4.5,M,-34.3,M,0000,0000*53 
231.174         GPS_NMEA_FROM_GPS    iGPS            $GPRMC,182724.000,A,4144.3549,N,06959.5397,W,0.71,334.49,240321,,,D*7F 
232.177         GPS_NMEA_FROM_GPS    iGPS            $GPGGA,182725.000,4144.3551,N,06959.5398,W,2,10,0.83,4.4,M,-34.3,M,0000,0000*56 
233.180         GPS_NMEA_FROM_GPS    iGPS            $GPGGA,182726.000,4144.3553,N,06959.5400,W,2,10,0.83,4.4,M,-34.3,M,0000,0000*51 
234.183         GPS_NMEA_FROM_GPS    iGPS            $GPGGA,182727.000,4144.3555,N,06959.5401,W,2,10,0.83,4.4,M,-34.3,M,0000,0000*57 
235.186         GPS_NMEA_FROM_GPS    iGPS            $GPGGA,182728.000,4144.3557,N,06959.5403,W,2,10,0.83,4.4,M,-34.3,M,0000,0000*58 
236.189         GPS_NMEA_FROM_GPS    iGPS            $GPRMC,182729.000,A,4144.3559,N,06959.5405,W,0.82,332.93,240321,,,D*72 
237.192         GPS_NMEA_FROM_GPS    iGPS            $GPRMC,182730.000,A,4144.3560,N,06959.5406,W,0.76,333.03,240321,,,D*70 
238.195         GPS_NMEA_FROM_GPS    iGPS            $GPRMC,182731.000,A,4144.3562,N,06959.5408,W,0.78,333.29,240321,,,D*7B 
239.198         GPS_NMEA_FROM_GPS    iGPS            $GPRMC,182732.000,A,4144.3564,N,06959.5409,W,0.82,333.83,240321,,,D*7A 
240.199         GPS_NMEA_FROM_GPS    iGPS            $GPRMC,182733.000,A,4144.3566,N,06959.5410,W,0.80,334.23,240321,,,D*7E 
241.202         GPS_NMEA_FROM_GPS    iGPS            $GPGGA,182734.000,4144.3568,N,06959.5411,W,2,10,0.84,4.2,M,-34.3,M,0000,0000*5B 
242.205         GPS_NMEA_FROM_GPS    iGPS            $GPRMC,182735.000,A,4144.3569,N,06959.5412,W,0.73,334.76,240321,,,D*79 
243.207         GPS_NMEA_FROM_GPS    iGPS            $GPRMC,182736.000,A,4144.3570,N,06959.5413,W,0.70,335.17,240321,,,D*76 
244.209         GPS_NMEA_FROM_GPS    iGPS            $GPGGA,182737.000,4144.3572,N,06959.5413,W,2,10,0.84,4.0,M,-34.3,M,0000,0000*53 
245.112         GPS_NMEA_FROM_GPS    iGPS            $GPGGA,182738.000,4144.3574,N,06959.5414,W,2,10,0.83,3.9,M,-34.3,M,0000,0000*54 
246.114         GPS_NMEA_FROM_GPS    iGPS            $GPGGA,182739.000,4144.3575,N,06959.5415,W,2,10,0.83,3.9,M,-34.3,M,0000,0000*55 
247.117         GPS_NMEA_FROM_GPS    iGPS            $GPGGA,182740.000,4144.3577,N,06959.5416,W,2,10,0.83,3.9,M,-34.3,M,0000,0000*5A 
248.220         GPS_NMEA_FROM_GPS    iGPS            $GPGGA,182741.000,4144.3579,N,06959.5416,W,2,10,0.83,3.9,M,-34.3,M,0000,0000*55 
249.224         GPS_NMEA_FROM_GPS    iGPS            $GPGGA,182742.000,4144.3581,N,06959.5417,W,2,10,0.83,3.9,M,-34.3,M,0000,0000*50 
250.227         GPS_NMEA_FROM_GPS    iGPS            $GPRMC,182743.000,A,4144.3583,N,06959.5417,W,0.78,341.24,240321,,,D*77 
251.129         GPS_NMEA_FROM_GPS    iGPS            $GPGGA,182744.000,4144.3584,N,06959.5418,W,2,10,0.84,3.9,M,-34.3,M,0000,0000*5B 
252.131         GPS_NMEA_FROM_GPS    iGPS            $GPGGA,182745.000,4144.3586,N,06959.5419,W,2,10,0.83,4.0,M,-34.3,M,0000,0000*50 
253.134         GPS_NMEA_FROM_GPS    iGPS            $GPGGA,182746.000,4144.3587,N,06959.5420,W,2,10,0.83,4.0,M,-34.3,M,0000,0000*58 
254.137         GPS_NMEA_FROM_GPS    iGPS            $GPGGA,182747.000,4144.3589,N,06959.5421,W,2,10,0.83,4.0,M,-34.3,M,0000,0000*56 
255.240         GPS_NMEA_FROM_GPS    iGPS            $GPRMC,182748.000,A,4144.3591,N,06959.5422,W,0.71,336.08,240321,,,D*7E 
256.142         GPS_NMEA_FROM_GPS    iGPS            $GPGGA,182749.000,4144.3592,N,06959.5424,W,2,09,0.96,4.0,M,-34.3,M,0000,0000*5B 
257.144         GPS_NMEA_FROM_GPS    iGPS            $GPGGA,182750.000,4144.3594,N,06959.5425,W,2,09,0.96,4.0,M,-34.3,M,0000,0000*54 
258.247         GPS_NMEA_FROM_GPS    iGPS            $GPRMC,182751.000,A,4144.3596,N,06959.5427,W,0.73,332.45,240321,,,D*7B 
259.250         GPS_NMEA_FROM_GPS    iGPS            $GPRMC,182752.000,A,4144.3597,N,06959.5428,W,0.71,331.88,240321,,,D*76 
260.152         GPS_NMEA_FROM_GPS    iGPS            $GPGGA,182753.000,4144.3599,N,06959.5430,W,2,09,0.96,4.1,M,-34.3,M,0000,0000*5F 
261.154         GPS_NMEA_FROM_GPS    iGPS            $GPGGA,182754.000,4144.3601,N,06959.5432,W,2,09,0.96,4.1,M,-34.3,M,0000,0000*58 
262.157         GPS_NMEA_FROM_GPS    iGPS            $GPGGA,182755.000,4144.3602,N,06959.5434,W,2,09,0.96,4.1,M,-34.3,M,0000,0000*5C 
263.059         GPS_NMEA_FROM_GPS    iGPS            $GPGGA,182756.000,4144.3604,N,06959.5436,W,2,09,0.96,4.1,M,-34.3,M,0000,0000*5B 
264.163         GPS_NMEA_FROM_GPS    iGPS            $GPGGA,182757.000,4144.3606,N,06959.5437,W,2,10,0.83,4.1,M,-34.3,M,0000,0000*55 
265.165         GPS_NMEA_FROM_GPS    iGPS            $GPGGA,182758.000,4144.3608,N,06959.5438,W,2,10,0.83,4.1,M,-34.3,M,0000,0000*5B 
266.168         GPS_NMEA_FROM_GPS    iGPS            $GPGGA,182759.000,4144.3610,N,06959.5440,W,2,10,0.83,4.1,M,-34.3,M,0000,0000*5C 
267.171         GPS_NMEA_FROM_GPS    iGPS            $GPGGA,182800.000,4144.3612,N,06959.5442,W,2,10,0.83,4.0,M,-34.3,M,0000,0000*5E 
268.173         GPS_NMEA_FROM_GPS    iGPS            $GPGGA,182801.000,4144.3613,N,06959.5443,W,2,10,0.83,4.0,M,-34.3,M,0000,0000*5F 
269.176         GPS_NMEA_FROM_GPS    iGPS            $GPGGA,182802.000,4144.3615,N,06959.5444,W,2,10,0.83,3.9,M,-34.3,M,0000,0000*53 
270.178         GPS_NMEA_FROM_GPS    iGPS            $GPGGA,182803.000,4144.3617,N,06959.5445,W,2,10,0.83,4.0,M,-34.3,M,0000,0000*5F 
271.181         GPS_NMEA_FROM_GPS    iGPS            $GPGGA,182804.000,4144.3619,N,06959.5446,W,2,10,0.83,3.9,M,-34.3,M,0000,0000*5B 
272.183         GPS_NMEA_FROM_GPS    iGPS            $GPGGA,182805.000,4144.3621,N,06959.5447,W,2,10,0.83,3.9,M,-34.3,M,0000,0000*50 
273.186         GPS_NMEA_FROM_GPS    iGPS            $GPRMC,182806.000,A,4144.3624,N,06959.5448,W,0.74,336.40,240321,,,D*73 
274.188         GPS_NMEA_FROM_GPS    iGPS            $GPGGA,182807.000,4144.3626,N,06959.5449,W,2,10,0.83,3.9,M,-34.3,M,0000,0000*5B 
275.191         GPS_NMEA_FROM_GPS    iGPS            $GPRMC,182808.000,A,4144.3627,N,06959.5450,W,0.70,335.49,240321,,,D*79 
276.194         GPS_NMEA_FROM_GPS    iGPS            $GPRMC,182809.000,A,4144.3629,N,06959.5451,W,0.70,334.43,240321,,,D*7C 
277.196         GPS_NMEA_FROM_GPS    iGPS            $GPRMC,182810.000,A,4144.3631,N,06959.5452,W,0.74,333.06,240321,,,D*7C 
278.098         GPS_NMEA_FROM_GPS    iGPS            $GPGGA,182811.000,4144.3633,N,06959.5454,W,2,09,0.96,3.8,M,-34.3,M,0000,0000*59 
279.100         GPS_NMEA_FROM_GPS    iGPS            $GPGGA,182812.000,4144.3635,N,06959.5456,W,2,08,1.01,3.8,M,-34.3,M,0000,0000*50 
280.203         GPS_NMEA_FROM_GPS    iGPS            $GPGGA,182813.000,4144.3636,N,06959.5457,W,2,09,0.88,3.7,M,-34.3,M,0000,0000*5D 
281.206         GPS_NMEA_FROM_GPS    iGPS            $GPRMC,182814.000,A,4144.3638,N,06959.5459,W,0.57,325.99,240321,,,D*7A 
282.208         GPS_NMEA_FROM_GPS    iGPS            $GPGGA,182815.000,4144.3638,N,06959.5460,W,2,09,0.88,3.7,M,-34.3,M,0000,0000*51 
283.216         GPS_NMEA_FROM_GPS    iGPS            $GPRMC,182816.000,A,4144.3639,N,06959.5462,W,0.52,319.87,240321,,,D*74 
284.219         GPS_NMEA_FROM_GPS    iGPS            $GPRMC,182817.000,A,4144.3640,N,06959.5464,W,0.52,315.66,240321,,,D*7E 
285.121         GPS_NMEA_FROM_GPS    iGPS            $GPGGA,182818.000,4144.3641,N,06959.5466,W,2,08,1.01,3.7,M,-34.3,M,0000,0000*55 
286.224         GPS_NMEA_FROM_GPS    iGPS            $GPRMC,182819.000,A,4144.3642,N,06959.5467,W,0.45,304.99,240321,,,D*77 
287.226         GPS_NMEA_FROM_GPS    iGPS            $GPGGA,182820.000,4144.3642,N,06959.5468,W,2,08,1.00,3.7,M,-34.3,M,0000,0000*52 
288.129         GPS_NMEA_FROM_GPS    iGPS            $GPGGA,182821.000,4144.3642,N,06959.5470,W,2,08,1.01,3.8,M,-34.3,M,0000,0000*54 
289.131         GPS_NMEA_FROM_GPS    iGPS            $GPGGA,182822.000,4144.3642,N,06959.5471,W,2,08,1.01,3.8,M,-34.3,M,0000,0000*56 
290.234         GPS_NMEA_FROM_GPS    iGPS            $GPRMC,182823.000,A,4144.3641,N,06959.5472,W,0.41,268.13,240321,,,D*74 
291.136         GPS_NMEA_FROM_GPS    iGPS            $GPGGA,182824.000,4144.3641,N,06959.5473,W,2,09,0.89,3.9,M,-34.3,M,0000,0000*50 
292.139         GPS_NMEA_FROM_GPS    iGPS            $GPGGA,182825.000,4144.3640,N,06959.5474,W,2,09,0.89,3.8,M,-34.3,M,0000,0000*56 
293.141         GPS_NMEA_FROM_GPS    iGPS            $GPGGA,182826.000,4144.3638,N,06959.5475,W,2,09,0.89,3.8,M,-34.3,M,0000,0000*5B 
294.144         GPS_NMEA_FROM_GPS    iGPS            $GPRMC,182827.000,A,4144.3637,N,06959.5476,W,0.54,217.18,240321,,,D*72 
295.147         GPS_NMEA_FROM_GPS    iGPS            $GPGGA,182828.000,4144.3636,N,06959.5476,W,2,08,1.01,3.7,M,-34.3,M,0000,0000*57 
296.149         GPS_NMEA_FROM_GPS    iGPS            $GPRMC,182829.000,A,4144.3634,N,06959.5477,W,0.55,201.40,240321,,,D*75 
297.152         GPS_NMEA_FROM_GPS    iGPS            $GPRMC,182830.000,A,4144.3633,N,06959.5477,W,0.53,196.32,240321,,,D*74 
298.155         GPS_NMEA_FROM_GPS    iGPS            $GPRMC,182831.000,A,4144.3631,N,06959.5477,W,0.58,194.33,240321,,,D*7F 
299.057         GPS_NMEA_FROM_GPS    iGPS            $GPGGA,182832.000,4144.3629,N,06959.5477,W,2,08,1.01,3.7,M,-34.3,M,0000,0000*53 
300.160         GPS_NMEA_FROM_GPS    iGPS            $GPGGA,182833.000,4144.3627,N,06959.5477,W,2,08,1.01,3.8,M,-34.3,M,0000,0000*53 
301.162         GPS_NMEA_FROM_GPS    iGPS            $GPGGA,182834.000,4144.3625,N,06959.5477,W,2,08,1.01,3.9,M,-34.3,M,0000,0000*57 
302.166         GPS_NMEA_FROM_GPS    iGPS            $GPRMC,182835.000,A,4144.3623,N,06959.5477,W,0.67,182.64,240321,,,D*71 
303.168         GPS_NMEA_FROM_GPS    iGPS            $GPGGA,182836.000,4144.3621,N,06959.5477,W,2,08,1.00,4.1,M,-34.3,M,0000,0000*5F 
304.171         GPS_NMEA_FROM_GPS    iGPS            $GPGGA,182837.000,4144.3618,N,06959.5477,W,2,10,0.83,4.3,M,-34.3,M,0000,0000*55 
305.173         GPS_NMEA_FROM_GPS    iGPS            $GPGGA,182838.000,4144.3616,N,06959.5476,W,2,10,0.83,4.5,M,-34.3,M,0000,0000*53 
306.176         GPS_NMEA_FROM_GPS    iGPS            $GPGGA,182839.000,4144.3614,N,06959.5476,W,2,09,0.88,4.6,M,-34.3,M,0000,0000*50 
307.178         GPS_NMEA_FROM_GPS    iGPS            $GPGGA,182840.000,4144.3611,N,06959.5475,W,2,09,0.88,4.7,M,-34.3,M,0000,0000*59 
308.181         GPS_NMEA_FROM_GPS    iGPS            $GPGGA,182841.000,4144.3609,N,06959.5474,W,2,09,0.88,4.8,M,-34.3,M,0000,0000*5F 
309.184         GPS_NMEA_FROM_GPS    iGPS            $GPRMC,182842.000,A,4144.3607,N,06959.5473,W,0.68,159.12,240321,,,D*7B 
310.186         GPS_NMEA_FROM_GPS    iGPS            $GPGGA,182843.000,4144.3605,N,06959.5472,W,2,10,0.83,4.8,M,-34.3,M,0000,0000*54 
311.189         GPS_NMEA_FROM_GPS    iGPS            $GPGGA,182844.000,4144.3603,N,06959.5471,W,2,10,0.83,4.7,M,-34.3,M,0000,0000*59 
312.191         GPS_NMEA_FROM_GPS    iGPS            $GPGGA,182845.000,4144.3602,N,06959.5471,W,2,10,0.84,4.5,M,-34.3,M,0000,0000*5C 
313.094         GPS_NMEA_FROM_GPS    iGPS            $GPGGA,182846.000,4144.3600,N,06959.5470,W,2,10,0.83,4.4,M,-34.3,M,0000,0000*5A 
314.196         GPS_NMEA_FROM_GPS    iGPS            $GPGGA,182847.000,4144.3599,N,06959.5469,W,2,09,0.96,4.3,M,-34.3,M,0000,0000*5B 
315.099         GPS_NMEA_FROM_GPS    iGPS            $GPGGA,182848.000,4144.3597,N,06959.5468,W,2,09,0.96,4.2,M,-34.3,M,0000,0000*5A 
316.202         GPS_NMEA_FROM_GPS    iGPS            $GPRMC,182849.000,A,4144.3595,N,06959.5466,W,0.74,145.73,240321,,,D*7B 
317.204         GPS_NMEA_FROM_GPS    iGPS            $GPRMC,182850.000,A,4144.3593,N,06959.5465,W,0.76,144.35,240321,,,D*77 
318.108         GPS_NMEA_FROM_GPS    iGPS            $GPGGA,182851.000,4144.3592,N,06959.5464,W,2,10,0.83,3.8,M,-34.3,M,0000,0000*5A 
319.110         GPS_NMEA_FROM_GPS    iGPS            $GPGGA,182852.000,4144.3590,N,06959.5462,W,2,10,0.83,3.7,M,-34.3,M,0000,0000*52 
320.113         GPS_NMEA_FROM_GPS    iGPS            $GPGGA,182853.000,4144.3589,N,06959.5461,W,2,10,0.83,3.6,M,-34.3,M,0000,0000*59 
321.116         GPS_NMEA_FROM_GPS    iGPS            $GPGGA,182854.000,4144.3587,N,06959.5460,W,2,10,0.83,3.5,M,-34.3,M,0000,0000*52 
322.219         GPS_NMEA_FROM_GPS    iGPS            $GPRMC,182855.000,A,4144.3586,N,06959.5459,W,0.71,143.04,240321,,,D*7B 
323.121         GPS_NMEA_FROM_GPS    iGPS            $GPGGA,182856.000,4144.3584,N,06959.5458,W,2,10,0.83,3.2,M,-34.3,M,0000,0000*5F 
324.223         GPS_NMEA_FROM_GPS    iGPS            $GPGGA,182857.000,4144.3583,N,06959.5456,W,2,10,0.83,3.1,M,-34.3,M,0000,0000*54 
325.126         GPS_NMEA_FROM_GPS    iGPS            $GPGGA,182858.000,4144.3581,N,06959.5455,W,2,10,0.83,2.9,M,-34.3,M,0000,0000*53 
326.128         GPS_NMEA_FROM_GPS    iGPS            $GPGGA,182859.000,4144.3580,N,06959.5454,W,2,10,0.83,2.9,M,-34.3,M,0000,0000*52 
327.231         GPS_NMEA_FROM_GPS    iGPS            $GPRMC,182900.000,A,4144.3579,N,06959.5452,W,0.76,139.73,240321,,,D*7B 
328.234         GPS_NMEA_FROM_GPS    iGPS            $GPRMC,182901.000,A,4144.3577,N,06959.5451,W,0.76,139.46,240321,,,D*71 
329.136         GPS_NMEA_FROM_GPS    iGPS            $GPGGA,182902.000,4144.3576,N,06959.5450,W,2,10,0.83,2.5,M,-34.3,M,0000,0000*5C 
330.139         GPS_NMEA_FROM_GPS    iGPS            $GPGGA,182903.000,4144.3574,N,06959.5448,W,2,10,0.84,2.4,M,-34.3,M,0000,0000*50 
331.142         GPS_NMEA_FROM_GPS    iGPS            $GPGGA,182904.000,4144.3573,N,06959.5447,W,2,10,0.84,2.2,M,-34.3,M,0000,0000*59 
332.144         GPS_NMEA_FROM_GPS    iGPS            $GPGGA,182905.000,4144.3571,N,06959.5445,W,2,10,0.83,2.1,M,-34.3,M,0000,0000*5C 
333.147         GPS_NMEA_FROM_GPS    iGPS            $GPGGA,182906.000,4144.3570,N,06959.5444,W,2,10,0.83,2.0,M,-34.3,M,0000,0000*5E 
334.149         GPS_NMEA_FROM_GPS    iGPS            $GPGGA,182907.000,4144.3568,N,06959.5443,W,2,10,0.83,1.8,M,-34.3,M,0000,0000*5A 
335.152         GPS_NMEA_FROM_GPS    iGPS            $GPGGA,182908.000,4144.3567,N,06959.5441,W,2,10,0.83,1.7,M,-34.3,M,0000,0000*57 
336.155         GPS_NMEA_FROM_GPS    iGPS            $GPRMC,182909.000,A,4144.3565,N,06959.5440,W,0.75,140.12,240321,,,D*76 
337.158         GPS_NMEA_FROM_GPS    iGPS            $GPRMC,182910.000,A,4144.3564,N,06959.5439,W,0.72,140.53,240321,,,D*73 
338.160         GPS_NMEA_FROM_GPS    iGPS            $GPGGA,182911.000,4144.3562,N,06959.5437,W,2,10,0.83,1.4,M,-34.3,M,0000,0000*58 
339.163         GPS_NMEA_FROM_GPS    iGPS            $GPGGA,182912.000,4144.3561,N,06959.5436,W,2,10,0.83,1.3,M,-34.3,M,0000,0000*5E 
340.165         GPS_NMEA_FROM_GPS    iGPS            $GPGGA,182913.000,4144.3559,N,06959.5435,W,2,10,0.83,1.2,M,-34.3,M,0000,0000*56 
341.168         GPS_NMEA_FROM_GPS    iGPS            $GPGGA,182914.000,4144.3557,N,06959.5433,W,2,10,0.83,1.1,M,-34.3,M,0000,0000*5A 
342.170         GPS_NMEA_FROM_GPS    iGPS            $GPGGA,182915.000,4144.3556,N,06959.5432,W,2,09,0.97,1.2,M,-34.3,M,0000,0000*55 
343.173         GPS_NMEA_FROM_GPS    iGPS            $GPGGA,182916.000,4144.3554,N,06959.5430,W,2,09,0.97,1.2,M,-34.3,M,0000,0000*56 
344.175         GPS_NMEA_FROM_GPS    iGPS            $GPRMC,182917.000,A,4144.3552,N,06959.5429,W,0.76,142.97,240321,,,D*7E 
345.177         GPS_NMEA_FROM_GPS    iGPS            $GPGGA,182918.000,4144.3551,N,06959.5427,W,2,09,0.97,1.2,M,-34.3,M,0000,0000*5B 
346.180         GPS_NMEA_FROM_GPS    iGPS            $GPGGA,182919.000,4144.3549,N,06959.5426,W,2,09,0.96,1.2,M,-34.3,M,0000,0000*53 
347.183         GPS_NMEA_FROM_GPS    iGPS            $GPGGA,182920.000,4144.3548,N,06959.5424,W,2,09,0.97,1.2,M,-34.3,M,0000,0000*5B 
348.185         GPS_NMEA_FROM_GPS    iGPS            $GPGGA,182921.000,4144.3546,N,06959.5423,W,2,09,0.96,1.2,M,-34.3,M,0000,0000*52 
349.188         GPS_NMEA_FROM_GPS    iGPS            $GPGGA,182922.000,4144.3545,N,06959.5421,W,2,09,0.97,1.2,M,-34.3,M,0000,0000*51 
350.190         GPS_NMEA_FROM_GPS    iGPS            $GPGGA,182923.000,4144.3543,N,06959.5419,W,2,09,0.97,1.2,M,-34.3,M,0000,0000*5D 
351.093         GPS_NMEA_FROM_GPS    iGPS            $GPGGA,182924.000,4144.3541,N,06959.5417,W,2,09,0.96,1.2,M,-34.3,M,0000,0000*57 
352.195         GPS_NMEA_FROM_GPS    iGPS            $GPGGA,182925.000,4144.3540,N,06959.5416,W,2,09,0.97,1.2,M,-34.3,M,0000,0000*57 
353.198         GPS_NMEA_FROM_GPS    iGPS            $GPRMC,182926.000,A,4144.3539,N,06959.5414,W,0.79,139.02,240321,,,D*70 
354.200         GPS_NMEA_FROM_GPS    iGPS            $GPGGA,182927.000,4144.3537,N,06959.5412,W,2,09,0.97,1.2,M,-34.3,M,0000,0000*51 
355.203         GPS_NMEA_FROM_GPS    iGPS            $GPGGA,182928.000,4144.3536,N,06959.5410,W,2,09,0.97,1.2,M,-34.3,M,0000,0000*5D 
356.206         GPS_NMEA_FROM_GPS    iGPS            $GPGGA,182929.000,4144.3535,N,06959.5408,W,2,09,0.97,1.2,M,-34.3,M,0000,0000*56 
357.108         GPS_NMEA_FROM_GPS    iGPS            $GPGGA,182930.000,4144.3533,N,06959.5406,W,2,09,0.97,1.2,M,-34.3,M,0000,0000*56 
358.211         GPS_NMEA_FROM_GPS    iGPS            $GPRMC,182931.000,A,4144.3532,N,06959.5404,W,0.78,137.94,240321,,,D*7C 
359.214         GPS_NMEA_FROM_GPS    iGPS            $GPRMC,182932.000,A,4144.3530,N,06959.5403,W,0.78,137.93,240321,,,D*7D 
360.116         GPS_NMEA_FROM_GPS    iGPS            $GPGGA,182933.000,4144.3529,N,06959.5401,W,2,09,0.97,1.2,M,-34.3,M,0000,0000*59 
361.119         GPS_NMEA_FROM_GPS    iGPS            $GPGGA,182934.000,4144.3527,N,06959.5399,W,2,09,0.97,1.2,M,-34.3,M,0000,0000*56 
362.121         GPS_NMEA_FROM_GPS    iGPS            $GPGGA,182935.000,4144.3526,N,06959.5398,W,2,09,0.97,1.2,M,-34.3,M,0000,0000*57 
363.124         GPS_NMEA_FROM_GPS    iGPS            $GPGGA,182936.000,4144.3524,N,06959.5397,W,2,09,0.97,1.2,M,-34.3,M,0000,0000*59 
364.228         GPS_NMEA_FROM_GPS    iGPS            $GPGGA,182937.000,4144.3522,N,06959.5396,W,2,09,0.97,1.3,M,-34.3,M,0000,0000*5E 
365.130         GPS_NMEA_FROM_GPS    iGPS            $GPGGA,182938.000,4144.3521,N,06959.5395,W,2,09,0.97,1.3,M,-34.3,M,0000,0000*51 
366.233         GPS_NMEA_FROM_GPS    iGPS            $GPRMC,182939.000,A,4144.3519,N,06959.5393,W,0.51,148.89,240321,,,D*7B 
367.135         GPS_NMEA_FROM_GPS    iGPS            $GPGGA,182940.000,4144.3517,N,06959.5393,W,2,09,0.97,1.3,M,-34.3,M,0000,0000*5D 
368.138         GPS_NMEA_FROM_GPS    iGPS            $GPGGA,182941.000,4144.3515,N,06959.5392,W,2,09,0.97,1.3,M,-34.3,M,0000,0000*5F 
369.141         GPS_NMEA_FROM_GPS    iGPS            $GPGGA,182942.000,4144.3514,N,06959.5393,W,2,09,0.97,1.4,M,-34.3,M,0000,0000*5B 
370.244         GPS_NMEA_FROM_GPS    iGPS            $GPRMC,182943.000,A,4144.3513,N,06959.5393,W,0.56,178.80,240321,,,D*71 
371.247         GPS_NMEA_FROM_GPS    iGPS            $GPRMC,182944.000,A,4144.3511,N,06959.5393,W,0.65,189.12,240321,,,D*71 
372.149         GPS_NMEA_FROM_GPS    iGPS            $GPGGA,182945.000,4144.3510,N,06959.5395,W,2,09,0.97,1.5,M,-34.3,M,0000,0000*5F 
373.152         GPS_NMEA_FROM_GPS    iGPS            $GPGGA,182946.000,4144.3509,N,06959.5396,W,2,09,0.97,1.5,M,-34.3,M,0000,0000*57 
374.155         GPS_NMEA_FROM_GPS    iGPS            $GPGGA,182947.000,4144.3507,N,06959.5397,W,2,09,0.97,1.5,M,-34.3,M,0000,0000*59 
375.158         GPS_NMEA_FROM_GPS    iGPS            $GPGGA,182948.000,4144.3506,N,06959.5398,W,2,09,0.97,1.5,M,-34.3,M,0000,0000*58 
376.161         GPS_NMEA_FROM_GPS    iGPS            $GPGGA,182949.000,4144.3505,N,06959.5400,W,2,09,0.97,1.5,M,-34.3,M,0000,0000*5C 
377.163         GPS_NMEA_FROM_GPS    iGPS            $GPGGA,182950.000,4144.3504,N,06959.5402,W,2,09,0.97,1.5,M,-34.3,M,0000,0000*57 
378.165         GPS_NMEA_FROM_GPS    iGPS            $GPGGA,182951.000,4144.3503,N,06959.5404,W,2,09,0.97,1.5,M,-34.3,M,0000,0000*57 
379.167         GPS_NMEA_FROM_GPS    iGPS            $GPGGA,182952.000,4144.3502,N,06959.5405,W,2,09,0.97,1.5,M,-34.3,M,0000,0000*54 
380.170         GPS_NMEA_FROM_GPS    iGPS            $GPRMC,182953.000,A,4144.3501,N,06959.5407,W,0.72,233.34,240321,,,D*7C 
381.173         GPS_NMEA_FROM_GPS    iGPS            $GPGGA,182954.000,4144.3500,N,06959.5409,W,2,09,0.97,1.6,M,-34.3,M,0000,0000*5F 
382.176         GPS_NMEA_FROM_GPS    iGPS            $GPRMC,182955.000,A,4144.3499,N,06959.5411,W,0.78,234.37,240321,,,D*73 
383.178         GPS_NMEA_FROM_GPS    iGPS            $GPGGA,182956.000,4144.3498,N,06959.5413,W,2,09,0.97,1.7,M,-34.3,M,0000,0000*57 
384.180         GPS_NMEA_FROM_GPS    iGPS            $GPRMC,182957.000,A,4144.3497,N,06959.5416,W,0.79,235.12,240321,,,D*7F 
385.183         GPS_NMEA_FROM_GPS    iGPS            $GPRMC,182958.000,A,4144.3496,N,06959.5419,W,0.82,235.55,240321,,,D*79 
386.185         GPS_NMEA_FROM_GPS    iGPS            $GPGGA,182959.000,4144.3495,N,06959.5421,W,2,09,0.97,1.8,M,-34.3,M,0000,0000*5B 
387.188         GPS_NMEA_FROM_GPS    iGPS            $GPRMC,183000.000,A,4144.3494,N,06959.5423,W,0.83,236.64,240321,,,D*77 
388.191         GPS_NMEA_FROM_GPS    iGPS            $GPGGA,183001.000,4144.3493,N,06959.5424,W,2,09,0.97,1.8,M,-34.3,M,0000,0000*5D 
389.193         GPS_NMEA_FROM_GPS    iGPS            $GPGGA,183002.000,4144.3492,N,06959.5426,W,2,09,0.97,1.8,M,-34.3,M,0000,0000*5D 
390.196         GPS_NMEA_FROM_GPS    iGPS            $GPGGA,183003.000,4144.3491,N,06959.5428,W,2,09,0.97,1.8,M,-34.3,M,0000,0000*51 
391.099         GPS_NMEA_FROM_GPS    iGPS            $GPGGA,183004.000,4144.3490,N,06959.5430,W,2,09,0.97,1.8,M,-34.3,M,0000,0000*5E 
392.101         GPS_NMEA_FROM_GPS    iGPS            $GPGGA,183005.000,4144.3490,N,06959.5432,W,2,08,1.01,1.8,M,-34.3,M,0000,0000*52 
393.205         GPS_NMEA_FROM_GPS    iGPS            $GPRMC,183006.000,A,4144.3489,N,06959.5434,W,0.84,244.46,240321,,,D*79 
394.207         GPS_NMEA_FROM_GPS    iGPS            $GPGGA,183007.000,4144.3488,N,06959.5437,W,2,09,0.88,1.8,M,-34.3,M,0000,0000*5D 
395.110         GPS_NMEA_FROM_GPS    iGPS            $GPGGA,183008.000,4144.3488,N,06959.5439,W,2,08,1.01,1.9,M,-34.3,M,0000,0000*5C 
396.113         GPS_NMEA_FROM_GPS    iGPS            $GPGGA,183009.000,4144.3488,N,06959.5441,W,2,08,1.01,1.9,M,-34.3,M,0000,0000*52 
397.216         GPS_NMEA_FROM_GPS    iGPS            $GPGGA,183010.000,4144.3487,N,06959.5444,W,2,10,0.83,2.0,M,-34.3,M,0000,0000*58 
398.219         GPS_NMEA_FROM_GPS    iGPS            $GPGGA,183011.000,4144.3487,N,06959.5446,W,2,09,0.97,2.0,M,-34.3,M,0000,0000*56 
399.221         GPS_NMEA_FROM_GPS    iGPS            $GPRMC,183012.000,A,4144.3487,N,06959.5448,W,0.78,251.77,240321,,,D*7C 
400.224         GPS_NMEA_FROM_GPS    iGPS            $GPGGA,183013.000,4144.3486,N,06959.5451,W,2,09,0.97,2.1,M,-34.3,M,0000,0000*52 
401.126         GPS_NMEA_FROM_GPS    iGPS            $GPGGA,183014.000,4144.3486,N,06959.5453,W,2,09,0.97,2.1,M,-34.3,M,0000,0000*57 
402.229         GPS_NMEA_FROM_GPS    iGPS            $GPRMC,183015.000,A,4144.3485,N,06959.5455,W,0.80,252.82,240321,,,D*7B 
403.130         GPS_NMEA_FROM_GPS    iGPS            $GPGGA,183016.000,4144.3484,N,06959.5457,W,2,09,0.97,2.2,M,-34.3,M,0000,0000*50 
404.133         GPS_NMEA_FROM_GPS    iGPS            $GPRMC,183017.000,A,4144.3484,N,06959.5460,W,0.76,252.54,240321,,,D*7C 
405.135         GPS_NMEA_FROM_GPS    iGPS            $GPGGA,183018.000,4144.3483,N,06959.5462,W,2,09,0.97,2.3,M,-34.3,M,0000,0000*5E 
406.138         GPS_NMEA_FROM_GPS    iGPS            $GPGGA,183019.000,4144.3482,N,06959.5465,W,2,08,1.01,2.4,M,-34.3,M,0000,0000*51 
407.140         GPS_NMEA_FROM_GPS    iGPS            $GPGGA,183020.000,4144.3481,N,06959.5467,W,2,08,1.01,2.5,M,-34.3,M,0000,0000*5B 
408.143         GPS_NMEA_FROM_GPS    iGPS            $GPRMC,183021.000,A,4144.3480,N,06959.5469,W,0.80,251.46,240321,,,D*7D 
409.146         GPS_NMEA_FROM_GPS    iGPS            $GPGGA,183022.000,4144.3479,N,06959.5472,W,2,07,1.09,2.6,M,-34.3,M,0000,0000*5E 
410.148         GPS_NMEA_FROM_GPS    iGPS            $GPGGA,183023.000,4144.3478,N,06959.5474,W,2,08,1.01,2.6,M,-34.3,M,0000,0000*5F 
411.151         GPS_NMEA_FROM_GPS    iGPS            $GPGGA,183024.000,4144.3478,N,06959.5477,W,2,09,0.97,2.7,M,-34.3,M,0000,0000*55 
412.153         GPS_NMEA_FROM_GPS    iGPS            $GPGGA,183025.000,4144.3477,N,06959.5479,W,2,08,1.01,2.7,M,-34.3,M,0000,0000*5A 
413.156         GPS_NMEA_FROM_GPS    iGPS            $GPRMC,183026.000,A,4144.3476,N,06959.5481,W,0.79,251.56,240321,,,D*72 
414.158         GPS_NMEA_FROM_GPS    iGPS            $GPGGA,183027.000,4144.3476,N,06959.5483,W,2,08,1.01,2.9,M,-34.3,M,0000,0000*52 
415.161         GPS_NMEA_FROM_GPS    iGPS            $GPGGA,183028.000,4144.3475,N,06959.5486,W,2,08,1.01,2.9,M,-34.3,M,0000,0000*5B 
416.164         GPS_NMEA_FROM_GPS    iGPS            $GPGGA,183029.000,4144.3475,N,06959.5488,W,2,08,1.01,3.0,M,-34.3,M,0000,0000*5C 
417.166         GPS_NMEA_FROM_GPS    iGPS            $GPRMC,183030.000,A,4144.3474,N,06959.5491,W,0.76,252.14,240321,,,D*7C 
418.169         GPS_NMEA_FROM_GPS    iGPS            $GPGGA,183031.000,4144.3474,N,06959.5493,W,2,09,0.97,3.1,M,-34.3,M,0000,0000*50 
419.071         GPS_NMEA_FROM_GPS    iGPS            $GPGGA,183032.000,4144.3473,N,06959.5496,W,2,07,1.09,3.2,M,-34.3,M,0000,0000*5A 
420.174         GPS_NMEA_FROM_GPS    iGPS            $GPGGA,183033.000,4144.3473,N,06959.5498,W,2,07,1.09,3.3,M,-34.3,M,0000,0000*54 
421.077         GPS_NMEA_FROM_GPS    iGPS            $GPGGA,183034.000,4144.3472,N,06959.5500,W,2,07,1.09,3.3,M,-34.3,M,0000,0000*52 
422.179         GPS_NMEA_FROM_GPS    iGPS            $GPGGA,183035.000,4144.3471,N,06959.5502,W,2,07,1.09,3.4,M,-34.3,M,0000,0000*55 
423.182         GPS_NMEA_FROM_GPS    iGPS            $GPRMC,183036.000,A,4144.3470,N,06959.5504,W,0.76,250.79,240321,,,D*7A 
424.184         GPS_NMEA_FROM_GPS    iGPS            $GPGGA,183037.000,4144.3469,N,06959.5506,W,2,09,0.97,3.5,M,-34.3,M,0000,0000*53 
425.088         GPS_NMEA_FROM_GPS    iGPS            $GPGGA,183038.000,4144.3468,N,06959.5509,W,2,08,1.04,3.6,M,-34.3,M,0000,0000*5B 
426.091         GPS_NMEA_FROM_GPS    iGPS            $GPGGA,183039.000,4144.3467,N,06959.5511,W,2,08,1.05,3.6,M,-34.3,M,0000,0000*5D 
427.093         GPS_NMEA_FROM_GPS    iGPS            $GPGGA,183040.000,4144.3466,N,06959.5513,W,2,08,1.04,3.7,M,-34.3,M,0000,0000*50 
428.196         GPS_NMEA_FROM_GPS    iGPS            $GPGGA,183041.000,4144.3465,N,06959.5515,W,2,08,1.05,3.7,M,-34.3,M,0000,0000*55 
429.098         GPS_NMEA_FROM_GPS    iGPS            $GPGGA,183042.000,4144.3464,N,06959.5518,W,2,08,1.01,3.8,M,-34.3,M,0000,0000*51 
430.201         GPS_NMEA_FROM_GPS    iGPS            $GPGGA,183043.000,4144.3463,N,06959.5520,W,2,09,0.97,3.8,M,-34.3,M,0000,0000*53 
431.203         GPS_NMEA_FROM_GPS    iGPS            $GPGGA,183044.000,4144.3462,N,06959.5523,W,2,08,1.01,3.9,M,-34.3,M,0000,0000*58 
432.105         GPS_NMEA_FROM_GPS    iGPS            $GPGGA,183045.000,4144.3461,N,06959.5525,W,2,08,1.01,3.9,M,-34.3,M,0000,0000*5C 
433.208         GPS_NMEA_FROM_GPS    iGPS            $GPRMC,183046.000,A,4144.3460,N,06959.5528,W,0.77,250.29,240321,,,D*76 
434.110         GPS_NMEA_FROM_GPS    iGPS            $GPGGA,183047.000,4144.3459,N,06959.5530,W,2,08,1.01,4.0,M,-34.3,M,0000,0000*5F 
435.214         GPS_NMEA_FROM_GPS    iGPS            $GPRMC,183048.000,A,4144.3459,N,06959.5533,W,0.75,251.21,240321,,,D*73 
436.216         GPS_NMEA_FROM_GPS    iGPS            $GPGGA,183049.000,4144.3458,N,06959.5535,W,2,08,1.01,4.1,M,-34.3,M,0000,0000*54 
437.118         GPS_NMEA_FROM_GPS    iGPS            $GPGGA,183050.000,4144.3458,N,06959.5537,W,2,08,1.01,4.1,M,-34.3,M,0000,0000*5E 
438.121         GPS_NMEA_FROM_GPS    iGPS            $GPGGA,183051.000,4144.3457,N,06959.5539,W,2,07,1.09,4.2,M,-34.3,M,0000,0000*5A 
439.224         GPS_NMEA_FROM_GPS    iGPS            $GPRMC,183052.000,A,4144.3457,N,06959.5542,W,0.75,251.48,240321,,,D*7F 
440.126         GPS_NMEA_FROM_GPS    iGPS            $GPGGA,183053.000,4144.3456,N,06959.5544,W,2,08,1.05,4.3,M,-34.3,M,0000,0000*51 
441.229         GPS_NMEA_FROM_GPS    iGPS            $GPRMC,183054.000,A,4144.3455,N,06959.5547,W,0.73,250.51,240321,,,D*71 
442.131         GPS_NMEA_FROM_GPS    iGPS            $GPGGA,183055.000,4144.3454,N,06959.5549,W,2,07,1.09,4.3,M,-34.3,M,0000,0000*5B 
443.235         GPS_NMEA_FROM_GPS    iGPS            $GPRMC,183056.000,A,4144.3453,N,06959.5552,W,0.77,249.57,240321,,,D*7B 
444.137         GPS_NMEA_FROM_GPS    iGPS            $GPGGA,183057.000,4144.3453,N,06959.5554,W,2,07,1.09,4.3,M,-34.3,M,0000,0000*52 
445.139         GPS_NMEA_FROM_GPS    iGPS            $GPGGA,183058.000,4144.3452,N,06959.5557,W,2,09,0.97,4.3,M,-34.3,M,0000,0000*57 
446.142         GPS_NMEA_FROM_GPS    iGPS            $GPGGA,183059.000,4144.3450,N,06959.5559,W,2,08,1.05,4.3,M,-34.3,M,0000,0000*51 
447.145         GPS_NMEA_FROM_GPS    iGPS            $GPRMC,183100.000,A,4144.3449,N,06959.5562,W,0.75,247.45,240321,,,D*7E 
448.147         GPS_NMEA_FROM_GPS    iGPS            $GPRMC,183101.000,A,4144.3448,N,06959.5564,W,0.79,247.14,240321,,,D*70 
449.149         GPS_NMEA_FROM_GPS    iGPS            $GPGGA,183102.000,4144.3447,N,06959.5567,W,2,07,1.09,4.3,M,-34.3,M,0000,0000*56 
450.152         GPS_NMEA_FROM_GPS    iGPS            $GPRMC,183103.000,A,4144.3446,N,06959.5570,W,0.79,246.89,240321,,,D*7C 
451.154         GPS_NMEA_FROM_GPS    iGPS            $GPGGA,183104.000,4144.3445,N,06959.5572,W,2,08,1.05,4.3,M,-34.3,M,0000,0000*55 
452.158         GPS_NMEA_FROM_GPS    iGPS            $GPGGA,183105.000,4144.3444,N,06959.5575,W,2,08,1.04,4.4,M,-34.3,M,0000,0000*54 
