2.065           GPS_NMEA_FROM_GPS    iGPS            $GPGGA,201127.000,4144.3575,N,06959.5655,W,2,11,1.02,3.6,M,-34.3,M,0000,0000*54 
3.068           GPS_NMEA_FROM_GPS    iGPS            $GPRMC,201128.000,A,4144.3575,N,06959.5655,W,0.07,156.64,300321,,,D*74 
4.070           GPS_NMEA_FROM_GPS    iGPS            $GPRMC,201129.000,A,4144.3575,N,06959.5655,W,0.08,134.64,300321,,,D*7E 
4.070           GPS_NMEA_FROM_GPS    iGPS            $GPRMC,201129.000,A,4144.3575,N,06959.5655,W,0.08,134.64,300321,,,D*7E 
4.973           GPS_NMEA_FROM_GPS    iGPS            $GPGGA,201130.000,4144.3574,N,06959.5654,W,2,11,1.02,3.7,M,-34.3,M,0000,0000*53 
5.975           GPS_NMEA_FROM_GPS    iGPS            $GPGGA,201131.000,4144.3574,N,06959.5654,W,2,11,1.02,3.8,M,-34.3,M,0000,0000*5D 
7.078           GPS_NMEA_FROM_GPS    iGPS            $GPRMC,201132.000,A,4144.3574,N,06959.5653,W,0.15,101.14,300321,,,D*7E 
7.980           GPS_NMEA_FROM_GPS    iGPS            $GPRMC,201133.000,A,4144.3574,N,06959.5653,W,0.14,89.94,300321,,,D*47 
8.983           GPS_NMEA_FROM_GPS    iGPS            $GPGGA,201134.000,4144.3574,N,06959.5652,W,2,11,1.02,3.8,M,-34.3,M,0000,0000*5E 
10.085          GPS_NMEA_FROM_GPS    iGPS            $GPRMC,201135.000,A,4144.3574,N,06959.5652,W,0.17,117.47,300321,,,D*7B 
11.089          GPS_NMEA_FROM_GPS    iGPS            $GPRMC,201136.000,A,4144.3574,N,06959.5651,W,0.16,119.78,300321,,,D*78 
11.089          GPS_NMEA_FROM_GPS    iGPS            $GPRMC,201136.000,A,4144.3574,N,06959.5651,W,0.16,119.78,300321,,,D*78 
11.990          GPS_NMEA_FROM_GPS    iGPS            $GPGGA,201137.000,4144.3574,N,06959.5651,W,2,11,1.02,3.9,M,-34.3,M,0000,0000*5F 
11.990          GPS_NMEA_FROM_GPS    iGPS            $GPGGA,201137.000,4144.3574,N,06959.5651,W,2,11,1.02,3.9,M,-34.3,M,0000,0000*5F 
13.094          GPS_NMEA_FROM_GPS    iGPS            $GPRMC,201138.000,A,4144.3573,N,06959.5650,W,0.16,121.05,300321,,,D*71 
13.996          GPS_NMEA_FROM_GPS    iGPS            $GPGGA,201139.000,4144.3573,N,06959.5650,W,2,11,1.02,3.9,M,-34.3,M,0000,0000*57 
14.999          GPS_NMEA_FROM_GPS    iGPS            $GPGGA,201140.000,4144.3573,N,06959.5649,W,2,11,1.02,3.9,M,-34.3,M,0000,0000*51 
16.001          GPS_NMEA_FROM_GPS    iGPS            $GPRMC,201141.000,A,4144.3573,N,06959.5649,W,0.16,87.95,300321,,,D*43 
17.004          GPS_NMEA_FROM_GPS    iGPS            $GPGGA,201142.000,4144.3573,N,06959.5648,W,2,11,1.02,4.0,M,-34.3,M,0000,0000*5C 
18.007          GPS_NMEA_FROM_GPS    iGPS            $GPGGA,201143.000,4144.3573,N,06959.5647,W,2,11,1.02,4.0,M,-34.3,M,0000,0000*52 
19.010          GPS_NMEA_FROM_GPS    iGPS            $GPGGA,201144.000,4144.3573,N,06959.5647,W,2,11,1.02,4.0,M,-34.3,M,0000,0000*55 
20.012          GPS_NMEA_FROM_GPS    iGPS            $GPGGA,201145.000,4144.3573,N,06959.5646,W,2,11,1.02,4.0,M,-34.3,M,0000,0000*55 
21.015          GPS_NMEA_FROM_GPS    iGPS            $GPGGA,201146.000,4144.3574,N,06959.5646,W,2,11,1.02,4.0,M,-34.3,M,0000,0000*51 
22.018          GPS_NMEA_FROM_GPS    iGPS            $GPGGA,201147.000,4144.3574,N,06959.5646,W,2,11,1.02,4.0,M,-34.3,M,0000,0000*50 
22.018          GPS_NMEA_FROM_GPS    iGPS            $GPGGA,201147.000,4144.3574,N,06959.5646,W,2,11,1.02,4.0,M,-34.3,M,0000,0000*50 
23.020          GPS_NMEA_FROM_GPS    iGPS            $GPGGA,201148.000,4144.3574,N,06959.5645,W,2,11,1.02,4.0,M,-34.3,M,0000,0000*5C 
24.024          GPS_NMEA_FROM_GPS    iGPS            $GPRMC,201149.000,A,4144.3574,N,06959.5645,W,0.08,52.14,300321,,,D*4E 
25.026          GPS_NMEA_FROM_GPS    iGPS            $GPGGA,201150.000,4144.3574,N,06959.5645,W,2,11,1.02,4.0,M,-34.3,M,0000,0000*55 
26.029          GPS_NMEA_FROM_GPS    iGPS            $GPRMC,201151.000,A,4144.3575,N,06959.5645,W,0.07,28.22,300321,,,D*41 
27.031          GPS_NMEA_FROM_GPS    iGPS            $GPGGA,201152.000,4144.3575,N,06959.5645,W,2,11,1.02,4.0,M,-34.3,M,0000,0000*56 
28.034          GPS_NMEA_FROM_GPS    iGPS            $GPRMC,201153.000,A,4144.3575,N,06959.5644,W,0.09,2.17,300321,,,D*72 
28.034          GPS_NMEA_FROM_GPS    iGPS            $GPRMC,201153.000,A,4144.3575,N,06959.5644,W,0.09,2.17,300321,,,D*72 
29.036          GPS_NMEA_FROM_GPS    iGPS            $GPRMC,201154.000,A,4144.3575,N,06959.5644,W,0.12,357.50,300321,,,D*7F 
30.038          GPS_NMEA_FROM_GPS    iGPS            $GPRMC,201155.000,A,4144.3575,N,06959.5644,W,0.08,4.10,300321,,,D*74 
31.041          GPS_NMEA_FROM_GPS    iGPS            $GPGGA,201156.000,4144.3576,N,06959.5644,W,2,11,1.02,4.1,M,-34.3,M,0000,0000*51 
31.943          GPS_NMEA_FROM_GPS    iGPS            $GPGGA,201157.000,4144.3576,N,06959.5644,W,2,11,1.02,4.1,M,-34.3,M,0000,0000*50 
33.046          GPS_NMEA_FROM_GPS    iGPS            $GPGGA,201158.000,4144.3576,N,06959.5644,W,2,11,1.02,4.1,M,-34.3,M,0000,0000*5F 
34.048          GPS_NMEA_FROM_GPS    iGPS            $GPGGA,201159.000,4144.3576,N,06959.5644,W,2,11,1.02,4.1,M,-34.3,M,0000,0000*5E 
34.951          GPS_NMEA_FROM_GPS    iGPS            $GPGGA,201200.000,4144.3576,N,06959.5644,W,2,11,1.02,4.1,M,-34.3,M,0000,0000*51 
36.053          GPS_NMEA_FROM_GPS    iGPS            $GPGGA,201201.000,4144.3576,N,06959.5644,W,2,11,1.02,4.1,M,-34.3,M,0000,0000*50 
36.956          GPS_NMEA_FROM_GPS    iGPS            $GPGGA,201202.000,4144.3576,N,06959.5644,W,2,11,1.02,4.1,M,-34.3,M,0000,0000*53 
38.059          GPS_NMEA_FROM_GPS    iGPS            $GPRMC,201203.000,A,4144.3576,N,06959.5644,W,0.16,93.35,300321,,,D*41 
39.061          GPS_NMEA_FROM_GPS    iGPS            $GPGGA,201204.000,4144.3576,N,06959.5644,W,2,11,1.02,4.1,M,-34.3,M,0000,0000*55 
39.963          GPS_NMEA_FROM_GPS    iGPS            $GPGGA,201205.000,4144.3576,N,06959.5644,W,2,11,1.02,4.1,M,-34.3,M,0000,0000*54 
40.966          GPS_NMEA_FROM_GPS    iGPS            $GPGGA,201206.000,4144.3576,N,06959.5644,W,2,11,1.02,4.1,M,-34.3,M,0000,0000*57 
42.069          GPS_NMEA_FROM_GPS    iGPS            $GPGGA,201207.000,4144.3576,N,06959.5644,W,2,11,1.02,4.1,M,-34.3,M,0000,0000*56 
42.971          GPS_NMEA_FROM_GPS    iGPS            $GPGGA,201208.000,4144.3576,N,06959.5644,W,2,11,1.02,4.1,M,-34.3,M,0000,0000*59 
44.074          GPS_NMEA_FROM_GPS    iGPS            $GPRMC,201209.000,A,4144.3575,N,06959.5644,W,0.15,138.90,300321,,,D*74 
44.976          GPS_NMEA_FROM_GPS    iGPS            $GPGGA,201210.000,4144.3575,N,06959.5643,W,2,10,1.22,4.1,M,-34.3,M,0000,0000*57 
46.080          GPS_NMEA_FROM_GPS    iGPS            $GPRMC,201211.000,A,4144.3575,N,06959.5643,W,0.26,162.01,300321,,,D*7D 
46.982          GPS_NMEA_FROM_GPS    iGPS            $GPGGA,201212.000,4144.3574,N,06959.5643,W,2,11,1.02,4.1,M,-34.3,M,0000,0000*57 
48.085          GPS_NMEA_FROM_GPS    iGPS            $GPRMC,201213.000,A,4144.3573,N,06959.5642,W,0.39,158.39,300321,,,D*74 
48.987          GPS_NMEA_FROM_GPS    iGPS            $GPGGA,201214.000,4144.3572,N,06959.5642,W,2,10,1.22,4.1,M,-34.3,M,0000,0000*55 
49.990          GPS_NMEA_FROM_GPS    iGPS            $GPGGA,201215.000,4144.3571,N,06959.5642,W,2,11,0.91,4.1,M,-34.3,M,0000,0000*5F 
50.992          GPS_NMEA_FROM_GPS    iGPS            $GPGGA,201216.000,4144.3569,N,06959.5642,W,2,11,0.91,4.1,M,-34.3,M,0000,0000*55 
51.995          GPS_NMEA_FROM_GPS    iGPS            $GPGGA,201217.000,4144.3567,N,06959.5642,W,2,11,0.91,4.1,M,-34.3,M,0000,0000*5A 
53.098          GPS_NMEA_FROM_GPS    iGPS            $GPRMC,201218.000,A,4144.3565,N,06959.5643,W,0.58,192.35,300321,,,D*74 
54.100          GPS_NMEA_FROM_GPS    iGPS            $GPRMC,201219.000,A,4144.3563,N,06959.5644,W,0.58,199.54,300321,,,D*78 
55.103          GPS_NMEA_FROM_GPS    iGPS            $GPRMC,201220.000,A,4144.3562,N,06959.5646,W,0.54,204.96,300321,,,D*74 
56.005          GPS_NMEA_FROM_GPS    iGPS            $GPGGA,201221.000,4144.3561,N,06959.5647,W,2,11,1.02,4.1,M,-34.3,M,0000,0000*57 
57.008          GPS_NMEA_FROM_GPS    iGPS            $GPGGA,201222.000,4144.3559,N,06959.5648,W,2,11,1.02,4.0,M,-34.3,M,0000,0000*51 
58.011          GPS_NMEA_FROM_GPS    iGPS            $GPRMC,201223.000,A,4144.3558,N,06959.5650,W,0.64,213.48,300321,,,D*7F 
59.013          GPS_NMEA_FROM_GPS    iGPS            $GPRMC,201224.000,A,4144.3556,N,06959.5651,W,0.66,213.50,300321,,,D*7C 
60.015          GPS_NMEA_FROM_GPS    iGPS            $GPGGA,201225.000,4144.3554,N,06959.5651,W,2,11,1.02,4.1,M,-34.3,M,0000,0000*52 
61.018          GPS_NMEA_FROM_GPS    iGPS            $GPGGA,201226.000,4144.3552,N,06959.5652,W,2,11,0.91,4.1,M,-34.3,M,0000,0000*5F 
62.021          GPS_NMEA_FROM_GPS    iGPS            $GPGGA,201227.000,4144.3549,N,06959.5653,W,2,11,0.91,4.1,M,-34.3,M,0000,0000*55 
63.024          GPS_NMEA_FROM_GPS    iGPS            $GPGGA,201228.000,4144.3547,N,06959.5654,W,2,11,0.91,4.2,M,-34.3,M,0000,0000*50 
64.026          GPS_NMEA_FROM_GPS    iGPS            $GPGGA,201229.000,4144.3545,N,06959.5655,W,2,11,0.91,4.1,M,-34.3,M,0000,0000*51 
65.029          GPS_NMEA_FROM_GPS    iGPS            $GPGGA,201230.000,4144.3543,N,06959.5656,W,2,11,1.02,4.1,M,-34.3,M,0000,0000*57 
66.032          GPS_NMEA_FROM_GPS    iGPS            $GPGGA,201231.000,4144.3541,N,06959.5658,W,2,11,1.02,4.1,M,-34.3,M,0000,0000*5A 
67.034          GPS_NMEA_FROM_GPS    iGPS            $GPGGA,201232.000,4144.3540,N,06959.5659,W,2,11,0.91,4.1,M,-34.3,M,0000,0000*52 
68.037          GPS_NMEA_FROM_GPS    iGPS            $GPGGA,201233.000,4144.3538,N,06959.5661,W,2,10,0.98,4.0,M,-34.3,M,0000,0000*5E 
69.040          GPS_NMEA_FROM_GPS    iGPS            $GPGGA,201234.000,4144.3537,N,06959.5663,W,2,10,1.22,4.0,M,-34.3,M,0000,0000*54 
70.043          GPS_NMEA_FROM_GPS    iGPS            $GPRMC,201235.000,A,4144.3536,N,06959.5665,W,0.66,219.48,300321,,,D*7E 
71.045          GPS_NMEA_FROM_GPS    iGPS            $GPGGA,201236.000,4144.3534,N,06959.5667,W,2,11,0.91,4.0,M,-34.3,M,0000,0000*59 
72.047          GPS_NMEA_FROM_GPS    iGPS            $GPGGA,201237.000,4144.3532,N,06959.5669,W,2,11,1.02,4.1,M,-34.3,M,0000,0000*5A 
72.950          GPS_NMEA_FROM_GPS    iGPS            $GPGGA,201238.000,4144.3531,N,06959.5671,W,2,11,0.91,4.2,M,-34.3,M,0000,0000*57 
74.053          GPS_NMEA_FROM_GPS    iGPS            $GPGGA,201239.000,4144.3528,N,06959.5672,W,2,11,0.91,4.3,M,-34.3,M,0000,0000*5C 
75.055          GPS_NMEA_FROM_GPS    iGPS            $GPGGA,201240.000,4144.3527,N,06959.5673,W,2,11,1.02,4.3,M,-34.3,M,0000,0000*57 
76.058          GPS_NMEA_FROM_GPS    iGPS            $GPGGA,201241.000,4144.3525,N,06959.5674,W,2,11,1.02,4.3,M,-34.3,M,0000,0000*53 
77.061          GPS_NMEA_FROM_GPS    iGPS            $GPGGA,201242.000,4144.3523,N,06959.5676,W,2,11,0.91,4.3,M,-34.3,M,0000,0000*5F 
77.963          GPS_NMEA_FROM_GPS    iGPS            $GPGGA,201243.000,4144.3521,N,06959.5677,W,2,11,0.91,4.3,M,-34.3,M,0000,0000*5D 
79.066          GPS_NMEA_FROM_GPS    iGPS            $GPGGA,201244.000,4144.3520,N,06959.5678,W,2,11,1.02,4.3,M,-34.3,M,0000,0000*5F 
79.968          GPS_NMEA_FROM_GPS    iGPS            $GPGGA,201245.000,4144.3518,N,06959.5679,W,2,11,0.91,4.3,M,-34.3,M,0000,0000*5F 
80.971          GPS_NMEA_FROM_GPS    iGPS            $GPGGA,201246.000,4144.3516,N,06959.5681,W,2,11,0.91,4.3,M,-34.3,M,0000,0000*55 
82.074          GPS_NMEA_FROM_GPS    iGPS            $GPGGA,201247.000,4144.3514,N,06959.5682,W,2,11,1.03,4.3,M,-34.3,M,0000,0000*5F 
82.977          GPS_NMEA_FROM_GPS    iGPS            $GPGGA,201248.000,4144.3512,N,06959.5683,W,2,11,0.91,4.2,M,-34.3,M,0000,0000*5C 
84.080          GPS_NMEA_FROM_GPS    iGPS            $GPRMC,201249.000,A,4144.3510,N,06959.5684,W,0.79,212.73,300321,,,D*73 
84.982          GPS_NMEA_FROM_GPS    iGPS            $GPGGA,201250.000,4144.3508,N,06959.5686,W,2,11,0.91,4.2,M,-34.3,M,0000,0000*5B 
85.985          GPS_NMEA_FROM_GPS    iGPS            $GPGGA,201251.000,4144.3506,N,06959.5687,W,2,11,0.91,4.1,M,-34.3,M,0000,0000*56 
87.087          GPS_NMEA_FROM_GPS    iGPS            $GPRMC,201252.000,A,4144.3504,N,06959.5689,W,0.72,211.42,300321,,,D*7B 
88.090          GPS_NMEA_FROM_GPS    iGPS            $GPRMC,201253.000,A,4144.3502,N,06959.5690,W,0.69,212.03,300321,,,D*78 
88.992          GPS_NMEA_FROM_GPS    iGPS            $GPGGA,201254.000,4144.3500,N,06959.5691,W,2,11,1.03,4.1,M,-34.3,M,0000,0000*58 
89.995          GPS_NMEA_FROM_GPS    iGPS            $GPGGA,201255.000,4144.3498,N,06959.5693,W,2,11,0.91,4.1,M,-34.3,M,0000,0000*51 
90.998          GPS_NMEA_FROM_GPS    iGPS            $GPGGA,201256.000,4144.3497,N,06959.5694,W,2,11,0.91,4.1,M,-34.3,M,0000,0000*5A 
92.001          GPS_NMEA_FROM_GPS    iGPS            $GPGGA,201257.000,4144.3495,N,06959.5695,W,2,11,1.02,4.2,M,-34.3,M,0000,0000*50 
93.003          GPS_NMEA_FROM_GPS    iGPS            $GPGGA,201258.000,4144.3493,N,06959.5697,W,2,11,0.91,4.2,M,-34.3,M,0000,0000*50 
94.005          GPS_NMEA_FROM_GPS    iGPS            $GPGGA,201259.000,4144.3491,N,06959.5698,W,2,11,0.91,4.3,M,-34.3,M,0000,0000*5D 
95.008          GPS_NMEA_FROM_GPS    iGPS            $GPGGA,201300.000,4144.3489,N,06959.5699,W,2,11,0.91,4.3,M,-34.3,M,0000,0000*58 
96.010          GPS_NMEA_FROM_GPS    iGPS            $GPGGA,201301.000,4144.3487,N,06959.5701,W,2,11,0.91,4.3,M,-34.3,M,0000,0000*57 
97.013          GPS_NMEA_FROM_GPS    iGPS            $GPGGA,201302.000,4144.3485,N,06959.5702,W,2,11,0.91,4.4,M,-34.3,M,0000,0000*52 
98.016          GPS_NMEA_FROM_GPS    iGPS            $GPGGA,201303.000,4144.3483,N,06959.5703,W,2,11,0.91,4.4,M,-34.3,M,0000,0000*54 
99.018          GPS_NMEA_FROM_GPS    iGPS            $GPRMC,201304.000,A,4144.3481,N,06959.5705,W,0.78,209.38,300321,,,D*7E 
100.021         GPS_NMEA_FROM_GPS    iGPS            $GPGGA,201305.000,4144.3479,N,06959.5706,W,2,11,0.91,4.5,M,-34.3,M,0000,0000*53 
101.023         GPS_NMEA_FROM_GPS    iGPS            $GPRMC,201306.000,A,4144.3477,N,06959.5708,W,0.69,211.19,300321,,,D*72 
102.026         GPS_NMEA_FROM_GPS    iGPS            $GPGGA,201307.000,4144.3475,N,06959.5709,W,2,11,1.03,4.5,M,-34.3,M,0000,0000*58 
103.028         GPS_NMEA_FROM_GPS    iGPS            $GPGGA,201308.000,4144.3473,N,06959.5711,W,2,11,0.91,4.4,M,-34.3,M,0000,0000*53 
103.931         GPS_NMEA_FROM_GPS    iGPS            $GPGGA,201309.000,4144.3471,N,06959.5712,W,2,11,0.91,4.4,M,-34.3,M,0000,0000*53 
105.033         GPS_NMEA_FROM_GPS    iGPS            $GPGGA,201310.000,4144.3469,N,06959.5714,W,2,11,1.03,4.4,M,-34.3,M,0000,0000*5E 
106.036         GPS_NMEA_FROM_GPS    iGPS            $GPRMC,201311.000,A,4144.3466,N,06959.5715,W,0.77,210.58,300321,,,D*73 
107.039         GPS_NMEA_FROM_GPS    iGPS            $GPRMC,201312.000,A,4144.3464,N,06959.5716,W,0.75,209.60,300321,,,D*70 
108.041         GPS_NMEA_FROM_GPS    iGPS            $GPGGA,201313.000,4144.3461,N,06959.5717,W,2,11,0.91,4.5,M,-34.3,M,0000,0000*5D 
109.043         GPS_NMEA_FROM_GPS    iGPS            $GPGGA,201314.000,4144.3458,N,06959.5718,W,2,11,0.91,4.5,M,-34.3,M,0000,0000*5F 
110.046         GPS_NMEA_FROM_GPS    iGPS            $GPGGA,201315.000,4144.3456,N,06959.5719,W,2,11,0.91,4.5,M,-34.3,M,0000,0000*51 
111.049         GPS_NMEA_FROM_GPS    iGPS            $GPGGA,201316.000,4144.3453,N,06959.5720,W,2,11,0.91,4.5,M,-34.3,M,0000,0000*5D 
112.052         GPS_NMEA_FROM_GPS    iGPS            $GPGGA,201317.000,4144.3451,N,06959.5721,W,2,11,0.91,4.6,M,-34.3,M,0000,0000*5C 
113.054         GPS_NMEA_FROM_GPS    iGPS            $GPGGA,201318.000,4144.3449,N,06959.5722,W,2,11,0.91,4.5,M,-34.3,M,0000,0000*5A 
114.057         GPS_NMEA_FROM_GPS    iGPS            $GPRMC,201319.000,A,4144.3447,N,06959.5722,W,0.61,203.46,300321,,,D*76 
114.959         GPS_NMEA_FROM_GPS    iGPS            $GPGGA,201320.000,4144.3446,N,06959.5723,W,2,11,1.03,4.5,M,-34.3,M,0000,0000*55 
116.062         GPS_NMEA_FROM_GPS    iGPS            $GPGGA,201321.000,4144.3443,N,06959.5723,W,2,10,1.22,4.5,M,-34.3,M,0000,0000*53 
117.065         GPS_NMEA_FROM_GPS    iGPS            $GPGGA,201322.000,4144.3442,N,06959.5724,W,2,11,1.03,4.5,M,-34.3,M,0000,0000*54 
117.967         GPS_NMEA_FROM_GPS    iGPS            $GPGGA,201323.000,4144.3440,N,06959.5724,W,2,11,1.03,4.6,M,-34.3,M,0000,0000*54 
118.970         GPS_NMEA_FROM_GPS    iGPS            $GPGGA,201324.000,4144.3439,N,06959.5723,W,2,10,1.22,4.6,M,-34.3,M,0000,0000*58 
119.973         GPS_NMEA_FROM_GPS    iGPS            $GPGGA,201325.000,4144.3438,N,06959.5723,W,2,11,1.03,4.7,M,-34.3,M,0000,0000*5B 
120.975         GPS_NMEA_FROM_GPS    iGPS            $GPGGA,201326.000,4144.3436,N,06959.5722,W,2,11,1.03,4.7,M,-34.3,M,0000,0000*57 
121.978         GPS_NMEA_FROM_GPS    iGPS            $GPGGA,201327.000,4144.3435,N,06959.5721,W,2,11,1.03,4.7,M,-34.3,M,0000,0000*56 
122.981         GPS_NMEA_FROM_GPS    iGPS            $GPGGA,201328.000,4144.3434,N,06959.5719,W,2,11,0.91,4.8,M,-34.3,M,0000,0000*56 
123.984         GPS_NMEA_FROM_GPS    iGPS            $GPGGA,201329.000,4144.3433,N,06959.5717,W,2,11,0.91,4.7,M,-34.3,M,0000,0000*51 
125.087         GPS_NMEA_FROM_GPS    iGPS            $GPRMC,201330.000,A,4144.3432,N,06959.5714,W,0.61,141.45,300321,,,D*7C 
125.989         GPS_NMEA_FROM_GPS    iGPS            $GPGGA,201331.000,4144.3431,N,06959.5712,W,2,11,1.03,4.6,M,-34.3,M,0000,0000*54 
126.991         GPS_NMEA_FROM_GPS    iGPS            $GPGGA,201332.000,4144.3431,N,06959.5710,W,2,11,0.91,4.6,M,-34.3,M,0000,0000*5F 
127.994         GPS_NMEA_FROM_GPS    iGPS            $GPGGA,201333.000,4144.3430,N,06959.5707,W,2,11,0.91,4.5,M,-34.3,M,0000,0000*5A 
128.997         GPS_NMEA_FROM_GPS    iGPS            $GPGGA,201334.000,4144.3428,N,06959.5705,W,2,11,0.91,4.5,M,-34.3,M,0000,0000*56 
129.999         GPS_NMEA_FROM_GPS    iGPS            $GPGGA,201335.000,4144.3427,N,06959.5703,W,2,11,0.91,4.4,M,-34.3,M,0000,0000*5F 
131.102         GPS_NMEA_FROM_GPS    iGPS            $GPRMC,201336.000,A,4144.3426,N,06959.5700,W,0.67,129.24,300321,,,D*75 
132.004         GPS_NMEA_FROM_GPS    iGPS            $GPGGA,201337.000,4144.3424,N,06959.5698,W,2,11,0.91,4.4,M,-34.3,M,0000,0000*5D 
133.007         GPS_NMEA_FROM_GPS    iGPS            $GPGGA,201338.000,4144.3423,N,06959.5696,W,2,11,0.91,4.3,M,-34.3,M,0000,0000*5C 
134.009         GPS_NMEA_FROM_GPS    iGPS            $GPGGA,201339.000,4144.3421,N,06959.5694,W,2,11,0.91,4.3,M,-34.3,M,0000,0000*5D 
135.012         GPS_NMEA_FROM_GPS    iGPS            $GPGGA,201340.000,4144.3419,N,06959.5692,W,2,11,0.91,4.3,M,-34.3,M,0000,0000*5E 
136.015         GPS_NMEA_FROM_GPS    iGPS            $GPGGA,201341.000,4144.3418,N,06959.5690,W,2,11,0.91,4.3,M,-34.3,M,0000,0000*5C 
137.017         GPS_NMEA_FROM_GPS    iGPS            $GPGGA,201342.000,4144.3416,N,06959.5688,W,2,11,0.91,4.3,M,-34.3,M,0000,0000*58 
138.020         GPS_NMEA_FROM_GPS    iGPS            $GPGGA,201343.000,4144.3415,N,06959.5685,W,2,11,0.91,4.3,M,-34.3,M,0000,0000*57 
139.022         GPS_NMEA_FROM_GPS    iGPS            $GPGGA,201344.000,4144.3413,N,06959.5683,W,2,11,0.91,4.3,M,-34.3,M,0000,0000*50 
140.024         GPS_NMEA_FROM_GPS    iGPS            $GPGGA,201345.000,4144.3412,N,06959.5680,W,2,11,0.91,4.4,M,-34.3,M,0000,0000*54 
141.027         GPS_NMEA_FROM_GPS    iGPS            $GPGGA,201346.000,4144.3411,N,06959.5677,W,2,11,0.91,4.4,M,-34.3,M,0000,0000*5C 
142.030         GPS_NMEA_FROM_GPS    iGPS            $GPGGA,201347.000,4144.3410,N,06959.5674,W,2,11,0.91,4.5,M,-34.3,M,0000,0000*5E 
142.932         GPS_NMEA_FROM_GPS    iGPS            $GPGGA,201348.000,4144.3409,N,06959.5671,W,2,11,0.91,4.6,M,-34.3,M,0000,0000*5F 
144.035         GPS_NMEA_FROM_GPS    iGPS            $GPRMC,201349.000,A,4144.3408,N,06959.5668,W,0.71,123.35,300321,,,D*73 
145.037         GPS_NMEA_FROM_GPS    iGPS            $GPGGA,201350.000,4144.3407,N,06959.5665,W,2,11,0.91,4.6,M,-34.3,M,0000,0000*5D 
146.040         GPS_NMEA_FROM_GPS    iGPS            $GPRMC,201351.000,A,4144.3406,N,06959.5662,W,0.72,122.74,300321,,,D*79 
147.043         GPS_NMEA_FROM_GPS    iGPS            $GPRMC,201352.000,A,4144.3405,N,06959.5660,W,0.69,122.81,300321,,,D*7B 
148.046         GPS_NMEA_FROM_GPS    iGPS            $GPGGA,201353.000,4144.3404,N,06959.5657,W,2,11,0.91,4.6,M,-34.3,M,0000,0000*5C 
148.948         GPS_NMEA_FROM_GPS    iGPS            $GPGGA,201354.000,4144.3403,N,06959.5655,W,2,11,0.91,4.7,M,-34.3,M,0000,0000*5F 
150.051         GPS_NMEA_FROM_GPS    iGPS            $GPRMC,201355.000,A,4144.3401,N,06959.5652,W,0.77,122.76,300321,,,D*7E 
150.953         GPS_NMEA_FROM_GPS    iGPS            $GPGGA,201356.000,4144.3400,N,06959.5650,W,2,11,0.91,4.7,M,-34.3,M,0000,0000*5B 
151.955         GPS_NMEA_FROM_GPS    iGPS            $GPGGA,201357.000,4144.3399,N,06959.5648,W,2,11,0.91,4.7,M,-34.3,M,0000,0000*54 
152.958         GPS_NMEA_FROM_GPS    iGPS            $GPGGA,201358.000,4144.3398,N,06959.5645,W,2,11,0.91,4.8,M,-34.3,M,0000,0000*58 
154.061         GPS_NMEA_FROM_GPS    iGPS            $GPRMC,201359.000,A,4144.3396,N,06959.5643,W,0.72,124.76,300321,,,D*78 
154.963         GPS_NMEA_FROM_GPS    iGPS            $GPGGA,201400.000,4144.3395,N,06959.5640,W,2,11,0.91,4.8,M,-34.3,M,0000,0000*5A 
155.966         GPS_NMEA_FROM_GPS    iGPS            $GPGGA,201401.000,4144.3394,N,06959.5638,W,2,11,0.91,4.8,M,-34.3,M,0000,0000*55 
156.968         GPS_NMEA_FROM_GPS    iGPS            $GPGGA,201402.000,4144.3393,N,06959.5635,W,2,11,0.91,4.9,M,-34.3,M,0000,0000*5D 
158.071         GPS_NMEA_FROM_GPS    iGPS            $GPRMC,201403.000,A,4144.3392,N,06959.5633,W,0.70,123.64,300321,,,D*75 
158.973         GPS_NMEA_FROM_GPS    iGPS            $GPGGA,201404.000,4144.3391,N,06959.5630,W,2,11,0.91,4.9,M,-34.3,M,0000,0000*5C 
159.976         GPS_NMEA_FROM_GPS    iGPS            $GPGGA,201405.000,4144.3390,N,06959.5627,W,2,11,0.91,5.0,M,-34.3,M,0000,0000*52 
160.979         GPS_NMEA_FROM_GPS    iGPS            $GPGGA,201406.000,4144.3389,N,06959.5624,W,2,11,0.91,5.0,M,-34.3,M,0000,0000*5A 
161.981         GPS_NMEA_FROM_GPS    iGPS            $GPGGA,201407.000,4144.3388,N,06959.5620,W,2,11,0.91,5.0,M,-34.3,M,0000,0000*5E 
163.084         GPS_NMEA_FROM_GPS    iGPS            $GPRMC,201408.000,A,4144.3388,N,06959.5617,W,0.78,117.45,300321,,,D*7F 
163.986         GPS_NMEA_FROM_GPS    iGPS            $GPGGA,201409.000,4144.3387,N,06959.5615,W,2,11,0.91,5.0,M,-34.3,M,0000,0000*59 
164.989         GPS_NMEA_FROM_GPS    iGPS            $GPGGA,201410.000,4144.3386,N,06959.5612,W,2,11,0.91,5.0,M,-34.3,M,0000,0000*57 
165.991         GPS_NMEA_FROM_GPS    iGPS            $GPGGA,201411.000,4144.3385,N,06959.5609,W,2,11,0.91,5.0,M,-34.3,M,0000,0000*5F 
167.095         GPS_NMEA_FROM_GPS    iGPS            $GPRMC,201412.000,A,4144.3385,N,06959.5607,W,0.60,115.42,300321,,,D*74 
167.997         GPS_NMEA_FROM_GPS    iGPS            $GPGGA,201413.000,4144.3384,N,06959.5604,W,2,11,0.91,4.9,M,-34.3,M,0000,0000*59 
168.999         GPS_NMEA_FROM_GPS    iGPS            $GPGGA,201414.000,4144.3384,N,06959.5601,W,2,11,1.03,4.9,M,-34.3,M,0000,0000*51 
170.002         GPS_NMEA_FROM_GPS    iGPS            $GPGGA,201415.000,4144.3383,N,06959.5599,W,2,11,0.91,4.9,M,-34.3,M,0000,0000*5F 
171.005         GPS_NMEA_FROM_GPS    iGPS            $GPGGA,201416.000,4144.3383,N,06959.5596,W,2,10,0.99,4.9,M,-34.3,M,0000,0000*5A 
172.007         GPS_NMEA_FROM_GPS    iGPS            $GPGGA,201417.000,4144.3382,N,06959.5593,W,2,11,0.91,4.9,M,-34.3,M,0000,0000*56 
173.010         GPS_NMEA_FROM_GPS    iGPS            $GPGGA,201418.000,4144.3382,N,06959.5591,W,2,11,0.91,4.9,M,-34.3,M,0000,0000*5B 
174.013         GPS_NMEA_FROM_GPS    iGPS            $GPRMC,201419.000,A,4144.3381,N,06959.5588,W,0.74,106.40,300321,,,D*7A 
175.015         GPS_NMEA_FROM_GPS    iGPS            $GPGGA,201420.000,4144.3381,N,06959.5585,W,2,11,0.91,4.8,M,-34.3,M,0000,0000*57 
176.017         GPS_NMEA_FROM_GPS    iGPS            $GPGGA,201421.000,4144.3381,N,06959.5582,W,2,10,0.99,4.8,M,-34.3,M,0000,0000*58 
177.020         GPS_NMEA_FROM_GPS    iGPS            $GPGGA,201422.000,4144.3380,N,06959.5580,W,2,10,0.99,4.8,M,-34.3,M,0000,0000*58 
178.023         GPS_NMEA_FROM_GPS    iGPS            $GPRMC,201423.000,A,4144.3380,N,06959.5577,W,0.73,103.06,300321,,,D*72 
178.925         GPS_NMEA_FROM_GPS    iGPS            $GPGGA,201424.000,4144.3380,N,06959.5574,W,2,10,0.99,4.7,M,-34.3,M,0000,0000*5A 
180.028         GPS_NMEA_FROM_GPS    iGPS            $GPGGA,201425.000,4144.3380,N,06959.5572,W,2,10,0.99,4.7,M,-34.3,M,0000,0000*5D 
181.031         GPS_NMEA_FROM_GPS    iGPS            $GPGGA,201426.000,4144.3379,N,06959.5569,W,2,10,0.99,4.7,M,-34.3,M,0000,0000*52 
182.034         GPS_NMEA_FROM_GPS    iGPS            $GPGGA,201427.000,4144.3379,N,06959.5566,W,2,10,0.99,4.7,M,-34.3,M,0000,0000*5C 
183.037         GPS_NMEA_FROM_GPS    iGPS            $GPGGA,201428.000,4144.3379,N,06959.5563,W,2,10,0.99,4.6,M,-34.3,M,0000,0000*57 
184.040         GPS_NMEA_FROM_GPS    iGPS            $GPGGA,201429.000,4144.3378,N,06959.5561,W,2,10,0.99,4.6,M,-34.3,M,0000,0000*55 
184.942         GPS_NMEA_FROM_GPS    iGPS            $GPGGA,201430.000,4144.3378,N,06959.5558,W,2,10,0.99,4.6,M,-34.3,M,0000,0000*57 
185.945         GPS_NMEA_FROM_GPS    iGPS            $GPGGA,201431.000,4144.3378,N,06959.5555,W,2,10,0.99,4.6,M,-34.3,M,0000,0000*5B 
187.048         GPS_NMEA_FROM_GPS    iGPS            $GPRMC,201432.000,A,4144.3378,N,06959.5552,W,0.72,98.51,300321,,,D*42 
188.050         GPS_NMEA_FROM_GPS    iGPS            $GPGGA,201433.000,4144.3377,N,06959.5549,W,2,10,0.99,4.5,M,-34.3,M,0000,0000*58 
188.953         GPS_NMEA_FROM_GPS    iGPS            $GPGGA,201434.000,4144.3377,N,06959.5546,W,2,10,0.99,4.5,M,-34.3,M,0000,0000*50 
190.056         GPS_NMEA_FROM_GPS    iGPS            $GPRMC,201435.000,A,4144.3377,N,06959.5544,W,0.74,99.01,300321,,,D*4F 
190.958         GPS_NMEA_FROM_GPS    iGPS            $GPGGA,201436.000,4144.3376,N,06959.5541,W,2,10,0.99,4.5,M,-34.3,M,0000,0000*54 
191.961         GPS_NMEA_FROM_GPS    iGPS            $GPGGA,201437.000,4144.3376,N,06959.5538,W,2,10,0.99,4.4,M,-34.3,M,0000,0000*5A 
193.064         GPS_NMEA_FROM_GPS    iGPS            $GPRMC,201438.000,A,4144.3376,N,06959.5535,W,0.74,100.06,300321,,,D*73 
193.966         GPS_NMEA_FROM_GPS    iGPS            $GPGGA,201439.000,4144.3376,N,06959.5532,W,2,10,0.99,4.3,M,-34.3,M,0000,0000*59 
194.968         GPS_NMEA_FROM_GPS    iGPS            $GPGGA,201440.000,4144.3376,N,06959.5529,W,2,10,0.99,4.3,M,-34.3,M,0000,0000*5D 
195.971         GPS_NMEA_FROM_GPS    iGPS            $GPRMC,201441.000,A,4144.3376,N,06959.5527,W,0.74,100.25,300321,,,D*7F 
196.973         GPS_NMEA_FROM_GPS    iGPS            $GPGGA,201442.000,4144.3376,N,06959.5524,W,2,10,0.99,4.3,M,-34.3,M,0000,0000*52 
197.976         GPS_NMEA_FROM_GPS    iGPS            $GPGGA,201443.000,4144.3375,N,06959.5521,W,2,10,0.99,4.2,M,-34.3,M,0000,0000*54 
198.979         GPS_NMEA_FROM_GPS    iGPS            $GPRMC,201444.000,A,4144.3376,N,06959.5518,W,0.75,99.27,300321,,,D*44 
199.981         GPS_NMEA_FROM_GPS    iGPS            $GPRMC,201445.000,A,4144.3376,N,06959.5515,W,0.75,98.60,300321,,,D*4A 
200.984         GPS_NMEA_FROM_GPS    iGPS            $GPGGA,201446.000,4144.3376,N,06959.5512,W,2,10,0.99,4.1,M,-34.3,M,0000,0000*51 
201.986         GPS_NMEA_FROM_GPS    iGPS            $GPRMC,201447.000,A,4144.3375,N,06959.5509,W,0.77,98.45,300321,,,D*43 
202.989         GPS_NMEA_FROM_GPS    iGPS            $GPGGA,201448.000,4144.3375,N,06959.5506,W,2,10,0.99,4.1,M,-34.3,M,0000,0000*59 
203.991         GPS_NMEA_FROM_GPS    iGPS            $GPGGA,201449.000,4144.3375,N,06959.5504,W,2,10,0.99,4.1,M,-34.3,M,0000,0000*5A 
204.994         GPS_NMEA_FROM_GPS    iGPS            $GPGGA,201450.000,4144.3376,N,06959.5501,W,2,10,0.99,4.1,M,-34.3,M,0000,0000*54 
205.996         GPS_NMEA_FROM_GPS    iGPS            $GPGGA,201451.000,4144.3376,N,06959.5498,W,2,10,0.99,4.1,M,-34.3,M,0000,0000*54 
206.999         GPS_NMEA_FROM_GPS    iGPS            $GPRMC,201452.000,A,4144.3376,N,06959.5495,W,0.76,96.57,300321,,,D*4C 
208.002         GPS_NMEA_FROM_GPS    iGPS            $GPRMC,201453.000,A,4144.3376,N,06959.5492,W,0.75,96.16,300321,,,D*4C 
209.004         GPS_NMEA_FROM_GPS    iGPS            $GPRMC,201454.000,A,4144.3376,N,06959.5489,W,0.77,96.29,300321,,,D*4F 
210.007         GPS_NMEA_FROM_GPS    iGPS            $GPGGA,201455.000,4144.3376,N,06959.5486,W,2,10,0.99,4.1,M,-34.3,M,0000,0000*5F 
211.010         GPS_NMEA_FROM_GPS    iGPS            $GPGGA,201456.000,4144.3376,N,06959.5483,W,2,10,0.99,4.1,M,-34.3,M,0000,0000*59 
212.015         GPS_NMEA_FROM_GPS    iGPS            $GPGGA,201457.000,4144.3375,N,06959.5480,W,2,10,0.99,4.1,M,-34.3,M,0000,0000*58 
212.918         GPS_NMEA_FROM_GPS    iGPS            $GPGGA,201458.000,4144.3375,N,06959.5477,W,2,10,0.99,4.0,M,-34.3,M,0000,0000*5E 
214.020         GPS_NMEA_FROM_GPS    iGPS            $GPGGA,201459.000,4144.3375,N,06959.5475,W,2,10,0.99,4.0,M,-34.3,M,0000,0000*5D 
215.022         GPS_NMEA_FROM_GPS    iGPS            $GPGGA,201500.000,4144.3374,N,06959.5472,W,2,10,0.99,4.0,M,-34.3,M,0000,0000*56 
216.025         GPS_NMEA_FROM_GPS    iGPS            $GPGGA,201501.000,4144.3374,N,06959.5469,W,2,10,0.99,4.0,M,-34.3,M,0000,0000*5D 
216.927         GPS_NMEA_FROM_GPS    iGPS            $GPGGA,201502.000,4144.3374,N,06959.5466,W,2,10,0.99,4.0,M,-34.3,M,0000,0000*51 
218.029         GPS_NMEA_FROM_GPS    iGPS            $GPGGA,201503.000,4144.3374,N,06959.5463,W,2,10,0.99,4.1,M,-34.3,M,0000,0000*54 
219.032         GPS_NMEA_FROM_GPS    iGPS            $GPGGA,201504.000,4144.3374,N,06959.5460,W,2,11,0.91,4.1,M,-34.3,M,0000,0000*59 
219.934         GPS_NMEA_FROM_GPS    iGPS            $GPGGA,201505.000,4144.3374,N,06959.5457,W,2,11,0.91,4.0,M,-34.3,M,0000,0000*5D 
220.937         GPS_NMEA_FROM_GPS    iGPS            $GPGGA,201506.000,4144.3373,N,06959.5455,W,2,11,0.91,4.0,M,-34.3,M,0000,0000*5B 
222.040         GPS_NMEA_FROM_GPS    iGPS            $GPRMC,201507.000,A,4144.3373,N,06959.5452,W,0.76,93.11,300321,,,D*44 
223.042         GPS_NMEA_FROM_GPS    iGPS            $GPGGA,201508.000,4144.3374,N,06959.5448,W,2,11,0.91,4.0,M,-34.3,M,0000,0000*5E 
224.045         GPS_NMEA_FROM_GPS    iGPS            $GPGGA,201509.000,4144.3374,N,06959.5445,W,2,11,0.91,4.0,M,-34.3,M,0000,0000*52 
225.048         GPS_NMEA_FROM_GPS    iGPS            $GPGGA,201510.000,4144.3374,N,06959.5443,W,2,11,0.91,4.1,M,-34.3,M,0000,0000*5D 
226.051         GPS_NMEA_FROM_GPS    iGPS            $GPRMC,201511.000,A,4144.3374,N,06959.5440,W,0.73,90.33,300321,,,D*41 
227.053         GPS_NMEA_FROM_GPS    iGPS            $GPRMC,201512.000,A,4144.3374,N,06959.5437,W,0.79,90.71,300321,,,D*4E 
227.955         GPS_NMEA_FROM_GPS    iGPS            $GPGGA,201513.000,4144.3374,N,06959.5435,W,2,10,0.99,4.1,M,-34.3,M,0000,0000*56 
228.958         GPS_NMEA_FROM_GPS    iGPS            $GPGGA,201514.000,4144.3374,N,06959.5432,W,2,11,0.91,4.1,M,-34.3,M,0000,0000*5F 
229.961         GPS_NMEA_FROM_GPS    iGPS            $GPGGA,201515.000,4144.3374,N,06959.5429,W,2,10,0.99,4.1,M,-34.3,M,0000,0000*5D 
230.964         GPS_NMEA_FROM_GPS    iGPS            $GPGGA,201516.000,4144.3374,N,06959.5426,W,2,10,0.99,4.2,M,-34.3,M,0000,0000*52 
231.966         GPS_NMEA_FROM_GPS    iGPS            $GPGGA,201517.000,4144.3374,N,06959.5424,W,2,10,1.06,4.2,M,-34.3,M,0000,0000*56 
232.969         GPS_NMEA_FROM_GPS    iGPS            $GPGGA,201518.000,4144.3374,N,06959.5421,W,2,10,0.99,4.3,M,-34.3,M,0000,0000*5A 
234.072         GPS_NMEA_FROM_GPS    iGPS            $GPGGA,201519.000,4144.3374,N,06959.5419,W,2,11,0.91,4.3,M,-34.3,M,0000,0000*59 
235.075         GPS_NMEA_FROM_GPS    iGPS            $GPRMC,201520.000,A,4144.3374,N,06959.5416,W,0.72,91.68,300321,,,D*4E 
235.977         GPS_NMEA_FROM_GPS    iGPS            $GPGGA,201521.000,4144.3374,N,06959.5413,W,2,11,0.91,4.3,M,-34.3,M,0000,0000*58 
236.980         GPS_NMEA_FROM_GPS    iGPS            $GPGGA,201522.000,4144.3374,N,06959.5411,W,2,10,1.06,4.3,M,-34.3,M,0000,0000*57 
237.983         GPS_NMEA_FROM_GPS    iGPS            $GPGGA,201523.000,4144.3374,N,06959.5408,W,2,11,0.91,4.3,M,-34.3,M,0000,0000*50 
238.986         GPS_NMEA_FROM_GPS    iGPS            $GPGGA,201524.000,4144.3375,N,06959.5405,W,2,11,1.03,4.3,M,-34.3,M,0000,0000*51 
239.989         GPS_NMEA_FROM_GPS    iGPS            $GPGGA,201525.000,4144.3375,N,06959.5402,W,2,11,0.91,4.4,M,-34.3,M,0000,0000*5A 
240.992         GPS_NMEA_FROM_GPS    iGPS            $GPRMC,201526.000,A,4144.3375,N,06959.5400,W,0.72,88.80,300321,,,D*40 
241.994         GPS_NMEA_FROM_GPS    iGPS            $GPGGA,201527.000,4144.3375,N,06959.5397,W,2,11,0.91,4.5,M,-34.3,M,0000,0000*52 
242.997         GPS_NMEA_FROM_GPS    iGPS            $GPGGA,201528.000,4144.3375,N,06959.5394,W,2,10,0.99,4.5,M,-34.3,M,0000,0000*57 
243.899         GPS_NMEA_FROM_GPS    iGPS            $GPGGA,201529.000,4144.3375,N,06959.5391,W,2,10,0.99,4.5,M,-34.3,M,0000,0000*53 
245.002         GPS_NMEA_FROM_GPS    iGPS            $GPGGA,201530.000,4144.3375,N,06959.5388,W,2,10,0.99,4.6,M,-34.3,M,0000,0000*50 
246.005         GPS_NMEA_FROM_GPS    iGPS            $GPGGA,201531.000,4144.3375,N,06959.5385,W,2,11,0.91,4.6,M,-34.3,M,0000,0000*55 
247.007         GPS_NMEA_FROM_GPS    iGPS            $GPGGA,201532.000,4144.3375,N,06959.5382,W,2,10,0.99,4.6,M,-34.3,M,0000,0000*58 
248.010         GPS_NMEA_FROM_GPS    iGPS            $GPGGA,201533.000,4144.3375,N,06959.5379,W,2,09,1.32,4.6,M,-34.3,M,0000,0000*55 
249.013         GPS_NMEA_FROM_GPS    iGPS            $GPGGA,201534.000,4144.3375,N,06959.5376,W,2,11,0.91,4.6,M,-34.3,M,0000,0000*5C 
250.015         GPS_NMEA_FROM_GPS    iGPS            $GPRMC,201535.000,A,4144.3375,N,06959.5374,W,0.73,91.16,300321,,,D*40 
251.018         GPS_NMEA_FROM_GPS    iGPS            $GPRMC,201536.000,A,4144.3375,N,06959.5371,W,0.72,90.51,300321,,,D*45 
252.021         GPS_NMEA_FROM_GPS    iGPS            $GPRMC,201537.000,A,4144.3374,N,06959.5369,W,0.79,90.97,300321,,,D*4D 
253.023         GPS_NMEA_FROM_GPS    iGPS            $GPGGA,201538.000,4144.3374,N,06959.5366,W,2,10,1.06,4.6,M,-34.3,M,0000,0000*5E 
254.025         GPS_NMEA_FROM_GPS    iGPS            $GPGGA,201539.000,4144.3375,N,06959.5363,W,2,10,1.06,4.6,M,-34.3,M,0000,0000*5B 
255.028         GPS_NMEA_FROM_GPS    iGPS            $GPRMC,201540.000,A,4144.3374,N,06959.5360,W,0.74,92.44,300321,,,D*45 
256.031         GPS_NMEA_FROM_GPS    iGPS            $GPGGA,201541.000,4144.3374,N,06959.5358,W,2,10,1.06,4.7,M,-34.3,M,0000,0000*5C 
257.033         GPS_NMEA_FROM_GPS    iGPS            $GPGGA,201542.000,4144.3374,N,06959.5355,W,2,10,1.06,4.7,M,-34.3,M,0000,0000*52 
258.036         GPS_NMEA_FROM_GPS    iGPS            $GPGGA,201543.000,4144.3375,N,06959.5352,W,2,10,1.06,4.7,M,-34.3,M,0000,0000*55 
259.038         GPS_NMEA_FROM_GPS    iGPS            $GPGGA,201544.000,4144.3376,N,06959.5350,W,2,10,1.16,4.7,M,-34.3,M,0000,0000*52 
260.041         GPS_NMEA_FROM_GPS    iGPS            $GPGGA,201545.000,4144.3377,N,06959.5348,W,2,10,1.06,4.7,M,-34.3,M,0000,0000*5A 
260.943         GPS_NMEA_FROM_GPS    iGPS            $GPGGA,201546.000,4144.3378,N,06959.5346,W,2,11,0.91,4.7,M,-34.3,M,0000,0000*56 
262.046         GPS_NMEA_FROM_GPS    iGPS            $GPRMC,201547.000,A,4144.3379,N,06959.5343,W,0.71,69.73,300321,,,D*4B 
262.949         GPS_NMEA_FROM_GPS    iGPS            $GPGGA,201548.000,4144.3379,N,06959.5341,W,2,10,1.06,4.7,M,-34.3,M,0000,0000*50 
264.051         GPS_NMEA_FROM_GPS    iGPS            $GPGGA,201549.000,4144.3380,N,06959.5339,W,2,10,1.06,4.7,M,-34.3,M,0000,0000*58 
265.054         GPS_NMEA_FROM_GPS    iGPS            $GPRMC,201550.000,A,4144.3381,N,06959.5336,W,0.73,68.34,300321,,,D*48 
266.057         GPS_NMEA_FROM_GPS    iGPS            $GPRMC,201551.000,A,4144.3382,N,06959.5333,W,0.75,68.75,300321,,,D*4C 
267.059         GPS_NMEA_FROM_GPS    iGPS            $GPRMC,201552.000,A,4144.3383,N,06959.5330,W,0.79,70.08,300321,,,D*42 
268.062         GPS_NMEA_FROM_GPS    iGPS            $GPRMC,201553.000,A,4144.3383,N,06959.5327,W,0.78,72.15,300321,,,D*4A 
269.064         GPS_NMEA_FROM_GPS    iGPS            $GPRMC,201554.000,A,4144.3384,N,06959.5324,W,0.83,73.58,300321,,,D*45 
269.966         GPS_NMEA_FROM_GPS    iGPS            $GPGGA,201555.000,4144.3384,N,06959.5320,W,2,10,1.06,4.4,M,-34.3,M,0000,0000*5A 
270.969         GPS_NMEA_FROM_GPS    iGPS            $GPGGA,201556.000,4144.3385,N,06959.5317,W,2,10,1.06,4.4,M,-34.3,M,0000,0000*5C 
271.972         GPS_NMEA_FROM_GPS    iGPS            $GPGGA,201557.000,4144.3386,N,06959.5315,W,2,10,1.06,4.3,M,-34.3,M,0000,0000*5B 
272.974         GPS_NMEA_FROM_GPS    iGPS            $GPGGA,201558.000,4144.3386,N,06959.5312,W,2,10,1.06,4.3,M,-34.3,M,0000,0000*53 
273.976         GPS_NMEA_FROM_GPS    iGPS            $GPGGA,201559.000,4144.3387,N,06959.5309,W,2,10,1.06,4.3,M,-34.3,M,0000,0000*59 
274.979         GPS_NMEA_FROM_GPS    iGPS            $GPGGA,201600.000,4144.3388,N,06959.5306,W,2,10,1.06,4.3,M,-34.3,M,0000,0000*56 
275.981         GPS_NMEA_FROM_GPS    iGPS            $GPGGA,201601.000,4144.3388,N,06959.5304,W,2,11,0.91,4.2,M,-34.3,M,0000,0000*5A 
276.984         GPS_NMEA_FROM_GPS    iGPS            $GPGGA,201602.000,4144.3389,N,06959.5301,W,2,10,1.06,4.2,M,-34.3,M,0000,0000*53 
277.987         GPS_NMEA_FROM_GPS    iGPS            $GPGGA,201603.000,4144.3390,N,06959.5298,W,2,11,0.91,4.2,M,-34.3,M,0000,0000*55 
278.989         GPS_NMEA_FROM_GPS    iGPS            $GPGGA,201604.000,4144.3390,N,06959.5295,W,2,10,1.06,4.1,M,-34.3,M,0000,0000*52 
279.993         GPS_NMEA_FROM_GPS    iGPS            $GPGGA,201605.000,4144.3391,N,06959.5292,W,2,10,1.06,4.2,M,-34.3,M,0000,0000*56 
280.994         GPS_NMEA_FROM_GPS    iGPS            $GPGGA,201606.000,4144.3392,N,06959.5289,W,2,10,1.16,4.2,M,-34.3,M,0000,0000*5D 
281.997         GPS_NMEA_FROM_GPS    iGPS            $GPGGA,201607.000,4144.3392,N,06959.5287,W,2,10,1.16,4.2,M,-34.3,M,0000,0000*52 
283.000         GPS_NMEA_FROM_GPS    iGPS            $GPGGA,201608.000,4144.3393,N,06959.5284,W,2,10,1.16,4.1,M,-34.3,M,0000,0000*5C 
284.002         GPS_NMEA_FROM_GPS    iGPS            $GPGGA,201609.000,4144.3394,N,06959.5281,W,2,10,1.06,4.1,M,-34.3,M,0000,0000*5E 
285.005         GPS_NMEA_FROM_GPS    iGPS            $GPRMC,201610.000,A,4144.3395,N,06959.5277,W,0.80,75.90,300321,,,D*40 
286.007         GPS_NMEA_FROM_GPS    iGPS            $GPGGA,201611.000,4144.3396,N,06959.5274,W,2,10,1.16,4.0,M,-34.3,M,0000,0000*5F 
287.010         GPS_NMEA_FROM_GPS    iGPS            $GPGGA,201612.000,4144.3396,N,06959.5271,W,2,10,1.06,4.0,M,-34.3,M,0000,0000*58 
288.013         GPS_NMEA_FROM_GPS    iGPS            $GPGGA,201613.000,4144.3397,N,06959.5268,W,2,10,1.06,4.0,M,-34.3,M,0000,0000*50 
289.016         GPS_NMEA_FROM_GPS    iGPS            $GPGGA,201614.000,4144.3398,N,06959.5265,W,2,10,1.16,4.0,M,-34.3,M,0000,0000*54 
290.019         GPS_NMEA_FROM_GPS    iGPS            $GPGGA,201615.000,4144.3398,N,06959.5262,W,2,10,1.16,4.1,M,-34.3,M,0000,0000*53 
291.021         GPS_NMEA_FROM_GPS    iGPS            $GPGGA,201616.000,4144.3399,N,06959.5260,W,2,10,1.16,4.2,M,-34.3,M,0000,0000*50 
291.924         GPS_NMEA_FROM_GPS    iGPS            $GPGGA,201617.000,4144.3400,N,06959.5258,W,2,11,1.03,4.1,M,-34.3,M,0000,0000*5B 
293.027         GPS_NMEA_FROM_GPS    iGPS            $GPRMC,201618.000,A,4144.3401,N,06959.5256,W,0.76,74.96,300321,,,D*4F 
293.929         GPS_NMEA_FROM_GPS    iGPS            $GPGGA,201619.000,4144.3402,N,06959.5254,W,2,11,1.03,4.1,M,-34.3,M,0000,0000*5B 
294.931         GPS_NMEA_FROM_GPS    iGPS            $GPGGA,201620.000,4144.3403,N,06959.5252,W,2,11,1.03,4.1,M,-34.3,M,0000,0000*56 
296.034         GPS_NMEA_FROM_GPS    iGPS            $GPGGA,201621.000,4144.3403,N,06959.5249,W,2,11,1.03,4.1,M,-34.3,M,0000,0000*5D 
297.037         GPS_NMEA_FROM_GPS    iGPS            $GPRMC,201622.000,A,4144.3405,N,06959.5247,W,0.75,70.96,300321,,,D*45 
298.039         GPS_NMEA_FROM_GPS    iGPS            $GPRMC,201623.000,A,4144.3406,N,06959.5244,W,0.78,69.68,300321,,,D*40 
299.042         GPS_NMEA_FROM_GPS    iGPS            $GPGGA,201624.000,4144.3407,N,06959.5242,W,2,11,0.91,4.0,M,-34.3,M,0000,0000*5C 
300.045         GPS_NMEA_FROM_GPS    iGPS            $GPGGA,201625.000,4144.3408,N,06959.5239,W,2,11,0.91,4.1,M,-34.3,M,0000,0000*5F 
300.947         GPS_NMEA_FROM_GPS    iGPS            $GPGGA,201626.000,4144.3409,N,06959.5236,W,2,11,1.03,4.1,M,-34.3,M,0000,0000*58 
302.050         GPS_NMEA_FROM_GPS    iGPS            $GPRMC,201627.000,A,4144.3410,N,06959.5233,W,0.73,71.55,300321,,,D*4F 
303.053         GPS_NMEA_FROM_GPS    iGPS            $GPRMC,201628.000,A,4144.3411,N,06959.5231,W,0.76,70.98,300321,,,D*46 
304.055         GPS_NMEA_FROM_GPS    iGPS            $GPRMC,201629.000,A,4144.3411,N,06959.5228,W,0.71,70.96,300321,,,D*46 
305.058         GPS_NMEA_FROM_GPS    iGPS            $GPRMC,201630.000,A,4144.3412,N,06959.5226,W,0.70,72.43,300321,,,D*48 
305.960         GPS_NMEA_FROM_GPS    iGPS            $GPGGA,201631.000,4144.3413,N,06959.5223,W,2,10,1.16,4.0,M,-34.3,M,0000,0000*55 
307.063         GPS_NMEA_FROM_GPS    iGPS            $GPRMC,201632.000,A,4144.3413,N,06959.5221,W,0.70,75.35,300321,,,D*4A 
307.965         GPS_NMEA_FROM_GPS    iGPS            $GPGGA,201633.000,4144.3413,N,06959.5219,W,2,10,1.16,4.0,M,-34.3,M,0000,0000*5E 
309.068         GPS_NMEA_FROM_GPS    iGPS            $GPRMC,201634.000,A,4144.3414,N,06959.5216,W,0.73,77.70,300321,,,D*4F 
310.070         GPS_NMEA_FROM_GPS    iGPS            $GPRMC,201635.000,A,4144.3415,N,06959.5213,W,0.75,78.14,300321,,,D*41 
311.073         GPS_NMEA_FROM_GPS    iGPS            $GPRMC,201636.000,A,4144.3415,N,06959.5211,W,0.77,78.30,300321,,,D*44 
312.076         GPS_NMEA_FROM_GPS    iGPS            $GPRMC,201637.000,A,4144.3416,N,06959.5208,W,0.76,77.96,300321,,,D*4C 
312.978         GPS_NMEA_FROM_GPS    iGPS            $GPGGA,201638.000,4144.3416,N,06959.5205,W,2,10,1.06,3.8,M,-34.3,M,0000,0000*53 
313.981         GPS_NMEA_FROM_GPS    iGPS            $GPGGA,201639.000,4144.3417,N,06959.5202,W,2,10,1.06,3.8,M,-34.3,M,0000,0000*54 
314.984         GPS_NMEA_FROM_GPS    iGPS            $GPGGA,201640.000,4144.3418,N,06959.5200,W,2,10,1.16,3.7,M,-34.3,M,0000,0000*59 
315.987         GPS_NMEA_FROM_GPS    iGPS            $GPGGA,201641.000,4144.3419,N,06959.5197,W,2,10,1.16,3.6,M,-34.3,M,0000,0000*55 
316.989         GPS_NMEA_FROM_GPS    iGPS            $GPGGA,201642.000,4144.3420,N,06959.5195,W,2,10,1.16,3.5,M,-34.3,M,0000,0000*5D 
317.992         GPS_NMEA_FROM_GPS    iGPS            $GPGGA,201643.000,4144.3421,N,06959.5193,W,2,10,1.16,3.4,M,-34.3,M,0000,0000*5A 
318.995         GPS_NMEA_FROM_GPS    iGPS            $GPRMC,201644.000,A,4144.3422,N,06959.5190,W,0.69,69.59,300321,,,D*4F 
319.997         GPS_NMEA_FROM_GPS    iGPS            $GPGGA,201645.000,4144.3422,N,06959.5187,W,2,10,1.16,3.3,M,-34.3,M,0000,0000*5D 
321.000         GPS_NMEA_FROM_GPS    iGPS            $GPGGA,201646.000,4144.3424,N,06959.5185,W,2,10,1.16,3.1,M,-34.3,M,0000,0000*58 
322.002         GPS_NMEA_FROM_GPS    iGPS            $GPGGA,201647.000,4144.3424,N,06959.5182,W,2,10,1.16,3.1,M,-34.3,M,0000,0000*5E 
323.005         GPS_NMEA_FROM_GPS    iGPS            $GPGGA,201648.000,4144.3425,N,06959.5180,W,2,10,1.16,3.2,M,-34.3,M,0000,0000*51 
324.008         GPS_NMEA_FROM_GPS    iGPS            $GPGGA,201649.000,4144.3426,N,06959.5177,W,2,10,1.16,3.2,M,-34.3,M,0000,0000*5B 
325.010         GPS_NMEA_FROM_GPS    iGPS            $GPGGA,201650.000,4144.3427,N,06959.5175,W,2,10,1.16,3.3,M,-34.3,M,0000,0000*51 
326.013         GPS_NMEA_FROM_GPS    iGPS            $GPGGA,201651.000,4144.3427,N,06959.5172,W,2,10,1.16,3.2,M,-34.3,M,0000,0000*56 
327.016         GPS_NMEA_FROM_GPS    iGPS            $GPRMC,201652.000,A,4144.3428,N,06959.5170,W,0.70,65.34,300321,,,D*43 
328.018         GPS_NMEA_FROM_GPS    iGPS            $GPGGA,201653.000,4144.3429,N,06959.5167,W,2,10,1.06,3.3,M,-34.3,M,0000,0000*5E 
329.021         GPS_NMEA_FROM_GPS    iGPS            $GPGGA,201654.000,4144.3431,N,06959.5165,W,2,10,1.06,3.3,M,-34.3,M,0000,0000*52 
330.024         GPS_NMEA_FROM_GPS    iGPS            $GPGGA,201655.000,4144.3433,N,06959.5163,W,2,11,1.03,3.2,M,-34.3,M,0000,0000*52 
331.026         GPS_NMEA_FROM_GPS    iGPS            $GPGGA,201656.000,4144.3434,N,06959.5161,W,2,11,1.03,3.1,M,-34.3,M,0000,0000*57 
332.029         GPS_NMEA_FROM_GPS    iGPS            $GPGGA,201657.000,4144.3436,N,06959.5159,W,2,11,1.03,2.9,M,-34.3,M,0000,0000*56 
333.032         GPS_NMEA_FROM_GPS    iGPS            $GPGGA,201658.000,4144.3438,N,06959.5157,W,2,10,1.16,2.8,M,-34.3,M,0000,0000*5D 
333.934         GPS_NMEA_FROM_GPS    iGPS            $GPGGA,201659.000,4144.3440,N,06959.5155,W,2,10,1.16,2.7,M,-34.3,M,0000,0000*5E 
335.037         GPS_NMEA_FROM_GPS    iGPS            $GPRMC,201700.000,A,4144.3442,N,06959.5153,W,0.76,45.69,300321,,,D*44 
335.939         GPS_NMEA_FROM_GPS    iGPS            $GPGGA,201701.000,4144.3444,N,06959.5151,W,2,10,1.06,2.6,M,-34.3,M,0000,0000*52 
336.942         GPS_NMEA_FROM_GPS    iGPS            $GPGGA,201702.000,4144.3446,N,06959.5149,W,2,10,1.16,2.6,M,-34.3,M,0000,0000*5B 
338.045         GPS_NMEA_FROM_GPS    iGPS            $GPGGA,201703.000,4144.3448,N,06959.5147,W,2,11,1.03,2.5,M,-34.3,M,0000,0000*5C 
338.947         GPS_NMEA_FROM_GPS    iGPS            $GPGGA,201704.000,4144.3449,N,06959.5145,W,2,11,1.03,2.4,M,-34.3,M,0000,0000*59 
339.950         GPS_NMEA_FROM_GPS    iGPS            $GPGGA,201705.000,4144.3451,N,06959.5143,W,2,11,1.03,2.4,M,-34.3,M,0000,0000*57 
341.053         GPS_NMEA_FROM_GPS    iGPS            $GPGGA,201706.000,4144.3452,N,06959.5141,W,2,11,1.03,2.4,M,-34.3,M,0000,0000*55 
341.955         GPS_NMEA_FROM_GPS    iGPS            $GPGGA,201707.000,4144.3454,N,06959.5139,W,2,11,1.03,2.5,M,-34.3,M,0000,0000*5C 
342.958         GPS_NMEA_FROM_GPS    iGPS            $GPGGA,201708.000,4144.3455,N,06959.5137,W,2,11,0.91,2.6,M,-34.3,M,0000,0000*55 
343.960         GPS_NMEA_FROM_GPS    iGPS            $GPGGA,201709.000,4144.3456,N,06959.5136,W,2,11,0.91,2.8,M,-34.3,M,0000,0000*58 
345.063         GPS_NMEA_FROM_GPS    iGPS            $GPGGA,201710.000,4144.3457,N,06959.5134,W,2,11,1.03,2.9,M,-34.3,M,0000,0000*58 
346.066         GPS_NMEA_FROM_GPS    iGPS            $GPRMC,201711.000,A,4144.3458,N,06959.5133,W,0.74,42.64,300321,,,D*41 
346.968         GPS_NMEA_FROM_GPS    iGPS            $GPGGA,201712.000,4144.3460,N,06959.5131,W,2,10,1.16,3.4,M,-34.3,M,0000,0000*52 
347.971         GPS_NMEA_FROM_GPS    iGPS            $GPGGA,201713.000,4144.3460,N,06959.5130,W,2,10,1.16,3.6,M,-34.3,M,0000,0000*50 
348.974         GPS_NMEA_FROM_GPS    iGPS            $GPGGA,201714.000,4144.3461,N,06959.5128,W,2,10,1.16,3.8,M,-34.3,M,0000,0000*51 
349.977         GPS_NMEA_FROM_GPS    iGPS            $GPGGA,201715.000,4144.3462,N,06959.5127,W,2,11,1.03,4.0,M,-34.3,M,0000,0000*56 
350.979         GPS_NMEA_FROM_GPS    iGPS            $GPGGA,201716.000,4144.3464,N,06959.5125,W,2,10,1.16,4.1,M,-34.3,M,0000,0000*55 
351.982         GPS_NMEA_FROM_GPS    iGPS            $GPGGA,201717.000,4144.3465,N,06959.5124,W,2,10,1.16,4.3,M,-34.3,M,0000,0000*56 
352.985         GPS_NMEA_FROM_GPS    iGPS            $GPGGA,201718.000,4144.3466,N,06959.5123,W,2,10,1.16,4.5,M,-34.3,M,0000,0000*5B 
354.088         GPS_NMEA_FROM_GPS    iGPS            $GPRMC,201719.000,A,4144.3466,N,06959.5121,W,0.65,39.61,300321,,,D*4E 
354.990         GPS_NMEA_FROM_GPS    iGPS            $GPRMC,201720.000,A,4144.3467,N,06959.5120,W,0.61,39.56,300321,,,D*44 
355.993         GPS_NMEA_FROM_GPS    iGPS            $GPGGA,201721.000,4144.3470,N,06959.5120,W,2,11,1.03,4.6,M,-34.3,M,0000,0000*53 
356.995         GPS_NMEA_FROM_GPS    iGPS            $GPGGA,201722.000,4144.3471,N,06959.5119,W,2,11,1.03,4.7,M,-34.3,M,0000,0000*5A 
357.998         GPS_NMEA_FROM_GPS    iGPS            $GPGGA,201723.000,4144.3473,N,06959.5118,W,2,11,1.03,4.9,M,-34.3,M,0000,0000*56 
359.001         GPS_NMEA_FROM_GPS    iGPS            $GPGGA,201724.000,4144.3473,N,06959.5118,W,2,11,1.03,4.9,M,-34.3,M,0000,0000*51 
360.003         GPS_NMEA_FROM_GPS    iGPS            $GPGGA,201725.000,4144.3475,N,06959.5118,W,2,11,0.91,4.9,M,-34.3,M,0000,0000*5C 
360.905         GPS_NMEA_FROM_GPS    iGPS            $GPGGA,201726.000,4144.3477,N,06959.5117,W,2,11,1.03,4.9,M,-34.3,M,0000,0000*58 
362.008         GPS_NMEA_FROM_GPS    iGPS            $GPRMC,201727.000,A,4144.3479,N,06959.5117,W,0.71,19.32,300321,,,D*49 
362.911         GPS_NMEA_FROM_GPS    iGPS            $GPGGA,201728.000,4144.3480,N,06959.5117,W,2,11,1.03,5.0,M,-34.3,M,0000,0000*56 
364.014         GPS_NMEA_FROM_GPS    iGPS            $GPGGA,201729.000,4144.3482,N,06959.5116,W,2,11,0.91,5.1,M,-34.3,M,0000,0000*5F 
364.916         GPS_NMEA_FROM_GPS    iGPS            $GPGGA,201730.000,4144.3484,N,06959.5115,W,2,11,0.91,5.1,M,-34.3,M,0000,0000*52 
366.019         GPS_NMEA_FROM_GPS    iGPS            $GPGGA,201731.000,4144.3487,N,06959.5114,W,2,11,0.91,5.0,M,-34.3,M,0000,0000*50 
367.022         GPS_NMEA_FROM_GPS    iGPS            $GPRMC,201732.000,A,4144.3489,N,06959.5113,W,0.78,28.94,300321,,,D*41 
368.023         GPS_NMEA_FROM_GPS    iGPS            $GPGGA,201733.000,4144.3491,N,06959.5111,W,2,10,1.06,4.9,M,-34.3,M,0000,0000*56 
369.026         GPS_NMEA_FROM_GPS    iGPS            $GPRMC,201734.000,A,4144.3493,N,06959.5110,W,0.63,33.26,300321,,,D*46 
370.029         GPS_NMEA_FROM_GPS    iGPS            $GPGGA,201735.000,4144.3496,N,06959.5108,W,2,11,0.91,4.8,M,-34.3,M,0000,0000*50 
371.031         GPS_NMEA_FROM_GPS    iGPS            $GPGGA,201736.000,4144.3497,N,06959.5107,W,2,11,0.91,4.7,M,-34.3,M,0000,0000*52 
372.034         GPS_NMEA_FROM_GPS    iGPS            $GPGGA,201737.000,4144.3499,N,06959.5105,W,2,11,0.91,4.6,M,-34.3,M,0000,0000*5E 
373.037         GPS_NMEA_FROM_GPS    iGPS            $GPGGA,201738.000,4144.3501,N,06959.5103,W,2,11,0.91,4.5,M,-34.3,M,0000,0000*54 
374.039         GPS_NMEA_FROM_GPS    iGPS            $GPGGA,201739.000,4144.3503,N,06959.5102,W,2,11,0.91,4.4,M,-34.3,M,0000,0000*57 
375.042         GPS_NMEA_FROM_GPS    iGPS            $GPRMC,201740.000,A,4144.3505,N,06959.5100,W,0.73,38.59,300321,,,D*48 
376.045         GPS_NMEA_FROM_GPS    iGPS            $GPRMC,201741.000,A,4144.3506,N,06959.5099,W,0.80,37.42,300321,,,D*42 
377.047         GPS_NMEA_FROM_GPS    iGPS            $GPGGA,201742.000,4144.3507,N,06959.5098,W,2,11,0.91,4.5,M,-34.3,M,0000,0000*5C 
377.949         GPS_NMEA_FROM_GPS    iGPS            $GPGGA,201743.000,4144.3508,N,06959.5096,W,2,11,0.91,4.5,M,-34.3,M,0000,0000*5C 
378.952         GPS_NMEA_FROM_GPS    iGPS            $GPGGA,201744.000,4144.3510,N,06959.5095,W,2,11,0.91,4.5,M,-34.3,M,0000,0000*51 
379.955         GPS_NMEA_FROM_GPS    iGPS            $GPGGA,201745.000,4144.3511,N,06959.5093,W,2,11,0.91,4.6,M,-34.3,M,0000,0000*54 
381.058         GPS_NMEA_FROM_GPS    iGPS            $GPGGA,201746.000,4144.3512,N,06959.5091,W,2,11,0.91,4.6,M,-34.3,M,0000,0000*56 
381.961         GPS_NMEA_FROM_GPS    iGPS            $GPGGA,201747.000,4144.3513,N,06959.5090,W,2,11,0.91,4.6,M,-34.3,M,0000,0000*57 
382.963         GPS_NMEA_FROM_GPS    iGPS            $GPGGA,201748.000,4144.3515,N,06959.5088,W,2,11,0.91,4.6,M,-34.3,M,0000,0000*57 
384.066         GPS_NMEA_FROM_GPS    iGPS            $GPRMC,201749.000,A,4144.3516,N,06959.5087,W,0.72,37.46,300321,,,D*4D 
385.069         GPS_NMEA_FROM_GPS    iGPS            $GPRMC,201750.000,A,4144.3518,N,06959.5085,W,0.84,35.68,300321,,,D*4E 
385.971         GPS_NMEA_FROM_GPS    iGPS            $GPGGA,201751.000,4144.3519,N,06959.5084,W,2,11,0.91,4.6,M,-34.3,M,0000,0000*5F 
387.074         GPS_NMEA_FROM_GPS    iGPS            $GPRMC,201752.000,A,4144.3520,N,06959.5083,W,0.78,35.74,300321,,,D*4F 
388.076         GPS_NMEA_FROM_GPS    iGPS            $GPRMC,201753.000,A,4144.3522,N,06959.5082,W,0.77,34.62,300321,,,D*44 
389.079         GPS_NMEA_FROM_GPS    iGPS            $GPRMC,201754.000,A,4144.3523,N,06959.5081,W,0.71,34.30,300321,,,D*40 
389.981         GPS_NMEA_FROM_GPS    iGPS            $GPGGA,201755.000,4144.3524,N,06959.5079,W,2,11,0.91,4.8,M,-34.3,M,0000,0000*59 
390.984         GPS_NMEA_FROM_GPS    iGPS            $GPGGA,201756.000,4144.3526,N,06959.5078,W,2,11,0.91,4.9,M,-34.3,M,0000,0000*58 
391.987         GPS_NMEA_FROM_GPS    iGPS            $GPGGA,201757.000,4144.3528,N,06959.5077,W,2,11,0.91,4.9,M,-34.3,M,0000,0000*58 
392.989         GPS_NMEA_FROM_GPS    iGPS            $GPGGA,201758.000,4144.3529,N,06959.5075,W,2,11,0.91,4.9,M,-34.3,M,0000,0000*54 
393.992         GPS_NMEA_FROM_GPS    iGPS            $GPGGA,201759.000,4144.3530,N,06959.5074,W,2,11,0.91,5.0,M,-34.3,M,0000,0000*54 
394.994         GPS_NMEA_FROM_GPS    iGPS            $GPGGA,201800.000,4144.3532,N,06959.5073,W,2,11,0.91,5.0,M,-34.3,M,0000,0000*52 
395.997         GPS_NMEA_FROM_GPS    iGPS            $GPGGA,201801.000,4144.3533,N,06959.5072,W,2,11,0.91,5.0,M,-34.3,M,0000,0000*53 
396.999         GPS_NMEA_FROM_GPS    iGPS            $GPGGA,201802.000,4144.3535,N,06959.5071,W,2,11,0.91,5.0,M,-34.3,M,0000,0000*55 
398.002         GPS_NMEA_FROM_GPS    iGPS            $GPGGA,201803.000,4144.3536,N,06959.5069,W,2,11,0.91,5.0,M,-34.3,M,0000,0000*5E 
399.005         GPS_NMEA_FROM_GPS    iGPS            $GPGGA,201804.000,4144.3538,N,06959.5067,W,2,11,0.91,5.0,M,-34.3,M,0000,0000*59 
400.007         GPS_NMEA_FROM_GPS    iGPS            $GPGGA,201805.000,4144.3539,N,06959.5066,W,2,11,0.91,5.0,M,-34.3,M,0000,0000*58 
400.910         GPS_NMEA_FROM_GPS    iGPS            $GPGGA,201806.000,4144.3541,N,06959.5064,W,2,11,0.91,4.9,M,-34.3,M,0000,0000*5E 
402.013         GPS_NMEA_FROM_GPS    iGPS            $GPGGA,201807.000,4144.3542,N,06959.5063,W,2,11,0.91,4.9,M,-34.3,M,0000,0000*5B 
403.015         GPS_NMEA_FROM_GPS    iGPS            $GPRMC,201808.000,A,4144.3544,N,06959.5061,W,0.73,31.32,300321,,,D*4C 
404.018         GPS_NMEA_FROM_GPS    iGPS            $GPRMC,201809.000,A,4144.3545,N,06959.5060,W,0.75,31.01,300321,,,D*4B 
405.020         GPS_NMEA_FROM_GPS    iGPS            $GPGGA,201810.000,4144.3546,N,06959.5059,W,2,11,0.91,5.1,M,-34.3,M,0000,0000*59 
406.023         GPS_NMEA_FROM_GPS    iGPS            $GPGGA,201811.000,4144.3548,N,06959.5057,W,2,11,0.91,5.1,M,-34.3,M,0000,0000*58 
406.925         GPS_NMEA_FROM_GPS    iGPS            $GPGGA,201812.000,4144.3550,N,06959.5056,W,2,11,0.91,5.0,M,-34.3,M,0000,0000*52 
408.028         GPS_NMEA_FROM_GPS    iGPS            $GPRMC,201813.000,A,4144.3551,N,06959.5054,W,0.63,29.47,300321,,,D*4E 
409.030         GPS_NMEA_FROM_GPS    iGPS            $GPGGA,201814.000,4144.3553,N,06959.5053,W,2,11,0.91,4.9,M,-34.3,M,0000,0000*5A 
410.033         GPS_NMEA_FROM_GPS    iGPS            $GPGGA,201815.000,4144.3555,N,06959.5053,W,2,11,0.91,4.9,M,-34.3,M,0000,0000*5D 
410.935         GPS_NMEA_FROM_GPS    iGPS            $GPGGA,201816.000,4144.3558,N,06959.5052,W,2,11,1.03,4.9,M,-34.3,M,0000,0000*58 
411.938         GPS_NMEA_FROM_GPS    iGPS            $GPGGA,201817.000,4144.3560,N,06959.5053,W,2,10,1.16,5.0,M,-34.3,M,0000,0000*5E 
413.041         GPS_NMEA_FROM_GPS    iGPS            $GPGGA,201818.000,4144.3562,N,06959.5053,W,2,11,1.03,4.9,M,-34.3,M,0000,0000*5E 
413.943         GPS_NMEA_FROM_GPS    iGPS            $GPGGA,201819.000,4144.3565,N,06959.5054,W,2,11,1.03,4.9,M,-34.3,M,0000,0000*5F 
415.046         GPS_NMEA_FROM_GPS    iGPS            $GPGGA,201820.000,4144.3567,N,06959.5054,W,2,11,1.03,5.0,M,-34.3,M,0000,0000*5F 
416.049         GPS_NMEA_FROM_GPS    iGPS            $GPGGA,201821.000,4144.3569,N,06959.5055,W,2,11,0.91,4.9,M,-34.3,M,0000,0000*53 
417.051         GPS_NMEA_FROM_GPS    iGPS            $GPGGA,201822.000,4144.3571,N,06959.5056,W,2,11,0.91,4.9,M,-34.3,M,0000,0000*5A 
418.054         GPS_NMEA_FROM_GPS    iGPS            $GPRMC,201823.000,A,4144.3574,N,06959.5057,W,0.63,343.95,300321,,,D*79 
418.956         GPS_NMEA_FROM_GPS    iGPS            $GPGGA,201824.000,4144.3576,N,06959.5057,W,2,11,0.91,4.9,M,-34.3,M,0000,0000*5A 
419.959         GPS_NMEA_FROM_GPS    iGPS            $GPGGA,201825.000,4144.3579,N,06959.5058,W,2,11,0.91,4.8,M,-34.3,M,0000,0000*5A 
421.062         GPS_NMEA_FROM_GPS    iGPS            $GPRMC,201826.000,A,4144.3581,N,06959.5059,W,0.67,338.88,300321,,,D*7C 
422.064         GPS_NMEA_FROM_GPS    iGPS            $GPRMC,201827.000,A,4144.3583,N,06959.5060,W,0.70,337.35,300321,,,D*7A 
422.967         GPS_NMEA_FROM_GPS    iGPS            $GPGGA,201828.000,4144.3586,N,06959.5061,W,2,11,0.91,4.7,M,-34.3,M,0000,0000*52 
423.970         GPS_NMEA_FROM_GPS    iGPS            $GPGGA,201829.000,4144.3589,N,06959.5062,W,2,11,0.91,4.6,M,-34.3,M,0000,0000*5E 
424.972         GPS_NMEA_FROM_GPS    iGPS            $GPGGA,201830.000,4144.3591,N,06959.5063,W,2,11,0.91,4.6,M,-34.3,M,0000,0000*5E 
426.076         GPS_NMEA_FROM_GPS    iGPS            $GPRMC,201831.000,A,4144.3593,N,06959.5064,W,0.71,335.42,300321,,,D*7B 
426.978         GPS_NMEA_FROM_GPS    iGPS            $GPGGA,201832.000,4144.3596,N,06959.5065,W,2,11,0.91,4.5,M,-34.3,M,0000,0000*5E 
428.081         GPS_NMEA_FROM_GPS    iGPS            $GPRMC,201833.000,A,4144.3598,N,06959.5066,W,0.73,334.29,300321,,,D*7E 
428.983         GPS_NMEA_FROM_GPS    iGPS            $GPGGA,201834.000,4144.3600,N,06959.5066,W,2,11,0.91,4.5,M,-34.3,M,0000,0000*57 
429.985         GPS_NMEA_FROM_GPS    iGPS            $GPGGA,201835.000,4144.3602,N,06959.5067,W,2,11,0.91,4.6,M,-34.3,M,0000,0000*56 
430.988         GPS_NMEA_FROM_GPS    iGPS            $GPGGA,201836.000,4144.3604,N,06959.5068,W,2,11,0.91,4.6,M,-34.3,M,0000,0000*5C 
431.991         GPS_NMEA_FROM_GPS    iGPS            $GPGGA,201837.000,4144.3606,N,06959.5069,W,2,11,0.91,4.6,M,-34.3,M,0000,0000*5E 
432.994         GPS_NMEA_FROM_GPS    iGPS            $GPRMC,201838.000,A,4144.3607,N,06959.5070,W,0.70,329.81,300321,,,D*7A 
433.996         GPS_NMEA_FROM_GPS    iGPS            $GPGGA,201839.000,4144.3609,N,06959.5070,W,2,11,0.91,4.7,M,-34.3,M,0000,0000*56 
434.998         GPS_NMEA_FROM_GPS    iGPS            $GPGGA,201840.000,4144.3611,N,06959.5072,W,2,11,0.91,4.6,M,-34.3,M,0000,0000*52 
436.001         GPS_NMEA_FROM_GPS    iGPS            $GPGGA,201841.000,4144.3613,N,06959.5073,W,2,11,0.91,4.6,M,-34.3,M,0000,0000*50 
437.003         GPS_NMEA_FROM_GPS    iGPS            $GPGGA,201842.000,4144.3614,N,06959.5074,W,2,11,0.91,4.6,M,-34.3,M,0000,0000*53 
438.006         GPS_NMEA_FROM_GPS    iGPS            $GPGGA,201843.000,4144.3616,N,06959.5076,W,2,11,0.91,4.5,M,-34.3,M,0000,0000*51 
439.008         GPS_NMEA_FROM_GPS    iGPS            $GPGGA,201844.000,4144.3618,N,06959.5077,W,2,11,0.91,4.5,M,-34.3,M,0000,0000*59 
440.011         GPS_NMEA_FROM_GPS    iGPS            $GPRMC,201845.000,A,4144.3619,N,06959.5079,W,0.75,321.65,300321,,,D*71 
441.014         GPS_NMEA_FROM_GPS    iGPS            $GPGGA,201846.000,4144.3621,N,06959.5080,W,2,11,0.91,4.4,M,-34.3,M,0000,0000*58 
442.016         GPS_NMEA_FROM_GPS    iGPS            $GPGGA,201847.000,4144.3623,N,06959.5082,W,2,11,0.91,4.4,M,-34.3,M,0000,0000*59 
443.019         GPS_NMEA_FROM_GPS    iGPS            $GPGGA,201848.000,4144.3624,N,06959.5084,W,2,11,0.91,4.4,M,-34.3,M,0000,0000*57 
444.022         GPS_NMEA_FROM_GPS    iGPS            $GPGGA,201849.000,4144.3626,N,06959.5085,W,2,11,0.91,4.4,M,-34.3,M,0000,0000*55 
445.024         GPS_NMEA_FROM_GPS    iGPS            $GPRMC,201850.000,A,4144.3628,N,06959.5087,W,0.77,319.56,300321,,,D*7F 
446.027         GPS_NMEA_FROM_GPS    iGPS            $GPGGA,201851.000,4144.3630,N,06959.5089,W,2,11,0.91,4.4,M,-34.3,M,0000,0000*57 
447.029         GPS_NMEA_FROM_GPS    iGPS            $GPGGA,201852.000,4144.3631,N,06959.5090,W,2,11,0.91,4.4,M,-34.3,M,0000,0000*5D 
447.932         GPS_NMEA_FROM_GPS    iGPS            $GPGGA,201853.000,4144.3634,N,06959.5092,W,2,11,0.91,4.4,M,-34.3,M,0000,0000*5B 
449.034         GPS_NMEA_FROM_GPS    iGPS            $GPGGA,201854.000,4144.3636,N,06959.5093,W,2,11,0.91,4.4,M,-34.3,M,0000,0000*5F 
450.037         GPS_NMEA_FROM_GPS    iGPS            $GPRMC,201855.000,A,4144.3637,N,06959.5094,W,0.72,319.27,300321,,,D*75 
451.040         GPS_NMEA_FROM_GPS    iGPS            $GPGGA,201856.000,4144.3639,N,06959.5096,W,2,11,0.91,4.3,M,-34.3,M,0000,0000*50 
