2.074           GPS_NMEA_FROM_GPS    iGPS            $GPGGA,194521.000,4144.3376,N,06959.5562,W,2,10,0.93,2.5,M,-34.3,M,0000,0000*51 
3.076           GPS_NMEA_FROM_GPS    iGPS            $GPGGA,194522.000,4144.3375,N,06959.5562,W,2,10,0.93,2.5,M,-34.3,M,0000,0000*51 
4.079           GPS_NMEA_FROM_GPS    iGPS            $GPGGA,194523.000,4144.3375,N,06959.5562,W,2,10,0.93,2.5,M,-34.3,M,0000,0000*50 
4.079           GPS_NMEA_FROM_GPS    iGPS            $GPGGA,194523.000,4144.3375,N,06959.5562,W,2,10,0.93,2.5,M,-34.3,M,0000,0000*50 
5.081           GPS_NMEA_FROM_GPS    iGPS            $GPRMC,194524.000,A,4144.3375,N,06959.5561,W,0.06,106.76,300321,,,D*76 
5.983           GPS_NMEA_FROM_GPS    iGPS            $GPGGA,194525.000,4144.3375,N,06959.5561,W,2,09,1.10,2.5,M,-34.3,M,0000,0000*57 
6.986           GPS_NMEA_FROM_GPS    iGPS            $GPGGA,194526.000,4144.3375,N,06959.5561,W,2,09,1.10,2.5,M,-34.3,M,0000,0000*54 
7.988           GPS_NMEA_FROM_GPS    iGPS            $GPGGA,194527.000,4144.3375,N,06959.5561,W,2,09,1.10,2.5,M,-34.3,M,0000,0000*55 
8.991           GPS_NMEA_FROM_GPS    iGPS            $GPGGA,194528.000,4144.3375,N,06959.5561,W,2,09,1.10,2.5,M,-34.3,M,0000,0000*5A 
9.993           GPS_NMEA_FROM_GPS    iGPS            $GPGGA,194529.000,4144.3375,N,06959.5561,W,2,09,1.10,2.5,M,-34.3,M,0000,0000*5B 
10.996          GPS_NMEA_FROM_GPS    iGPS            $GPGGA,194530.000,4144.3375,N,06959.5561,W,2,09,1.10,2.5,M,-34.3,M,0000,0000*53 
10.996          GPS_NMEA_FROM_GPS    iGPS            $GPGGA,194530.000,4144.3375,N,06959.5561,W,2,09,1.10,2.5,M,-34.3,M,0000,0000*53 
11.999          GPS_NMEA_FROM_GPS    iGPS            $GPGGA,194531.000,4144.3375,N,06959.5561,W,2,09,1.10,2.5,M,-34.3,M,0000,0000*52 
11.999          GPS_NMEA_FROM_GPS    iGPS            $GPGGA,194531.000,4144.3375,N,06959.5561,W,2,09,1.10,2.5,M,-34.3,M,0000,0000*52 
13.002          GPS_NMEA_FROM_GPS    iGPS            $GPGGA,194532.000,4144.3375,N,06959.5561,W,2,09,1.10,2.5,M,-34.3,M,0000,0000*51 
14.005          GPS_NMEA_FROM_GPS    iGPS            $GPGGA,194533.000,4144.3375,N,06959.5561,W,2,09,1.10,2.5,M,-34.3,M,0000,0000*50 
15.008          GPS_NMEA_FROM_GPS    iGPS            $GPGGA,194534.000,4144.3375,N,06959.5561,W,2,09,1.10,2.5,M,-34.3,M,0000,0000*57 
16.011          GPS_NMEA_FROM_GPS    iGPS            $GPRMC,194535.000,A,4144.3375,N,06959.5561,W,0.04,83.91,300321,,,D*41 
17.013          GPS_NMEA_FROM_GPS    iGPS            $GPRMC,194536.000,A,4144.3375,N,06959.5561,W,0.04,88.25,300321,,,D*46 
18.015          GPS_NMEA_FROM_GPS    iGPS            $GPGGA,194537.000,4144.3375,N,06959.5561,W,2,09,1.10,2.5,M,-34.3,M,0000,0000*54 
19.018          GPS_NMEA_FROM_GPS    iGPS            $GPGGA,194538.000,4144.3375,N,06959.5561,W,2,09,1.10,2.5,M,-34.3,M,0000,0000*5B 
20.021          GPS_NMEA_FROM_GPS    iGPS            $GPGGA,194539.000,4144.3375,N,06959.5561,W,2,09,1.10,2.5,M,-34.3,M,0000,0000*5A 
20.923          GPS_NMEA_FROM_GPS    iGPS            $GPGGA,194540.000,4144.3375,N,06959.5561,W,2,09,1.10,2.5,M,-34.3,M,0000,0000*54 
21.925          GPS_NMEA_FROM_GPS    iGPS            $GPGGA,194541.000,4144.3375,N,06959.5561,W,2,09,1.10,2.5,M,-34.3,M,0000,0000*55 
23.028          GPS_NMEA_FROM_GPS    iGPS            $GPGGA,194542.000,4144.3375,N,06959.5561,W,2,09,1.10,2.5,M,-34.3,M,0000,0000*56 
24.031          GPS_NMEA_FROM_GPS    iGPS            $GPGGA,194543.000,4144.3375,N,06959.5561,W,2,09,1.10,2.5,M,-34.3,M,0000,0000*57 
25.032          GPS_NMEA_FROM_GPS    iGPS            $GPRMC,194544.000,A,4144.3375,N,06959.5561,W,0.06,84.77,300321,,,D*4A 
26.035          GPS_NMEA_FROM_GPS    iGPS            $GPGGA,194545.000,4144.3375,N,06959.5561,W,2,09,1.10,2.5,M,-34.3,M,0000,0000*51 
26.937          GPS_NMEA_FROM_GPS    iGPS            $GPGGA,194546.000,4144.3375,N,06959.5560,W,2,09,1.10,2.5,M,-34.3,M,0000,0000*53 
26.937          GPS_NMEA_FROM_GPS    iGPS            $GPGGA,194546.000,4144.3375,N,06959.5560,W,2,09,1.10,2.5,M,-34.3,M,0000,0000*53 
28.040          GPS_NMEA_FROM_GPS    iGPS            $GPGGA,194547.000,4144.3375,N,06959.5560,W,2,10,0.93,2.5,M,-34.3,M,0000,0000*50 
29.043          GPS_NMEA_FROM_GPS    iGPS            $GPGGA,194548.000,4144.3375,N,06959.5560,W,2,10,0.93,2.5,M,-34.3,M,0000,0000*5F 
30.045          GPS_NMEA_FROM_GPS    iGPS            $GPRMC,194549.000,A,4144.3375,N,06959.5560,W,0.04,104.92,300321,,,D*76 
31.048          GPS_NMEA_FROM_GPS    iGPS            $GPGGA,194550.000,4144.3375,N,06959.5560,W,2,10,0.93,2.5,M,-34.3,M,0000,0000*56 
32.050          GPS_NMEA_FROM_GPS    iGPS            $GPGGA,194551.000,4144.3375,N,06959.5560,W,2,10,0.93,2.5,M,-34.3,M,0000,0000*57 
33.053          GPS_NMEA_FROM_GPS    iGPS            $GPGGA,194552.000,4144.3375,N,06959.5560,W,2,10,0.93,2.5,M,-34.3,M,0000,0000*54 
34.056          GPS_NMEA_FROM_GPS    iGPS            $GPGGA,194553.000,4144.3375,N,06959.5560,W,2,10,0.93,2.5,M,-34.3,M,0000,0000*55 
35.058          GPS_NMEA_FROM_GPS    iGPS            $GPRMC,194554.000,A,4144.3375,N,06959.5560,W,0.05,61.32,300321,,,D*43 
35.961          GPS_NMEA_FROM_GPS    iGPS            $GPGGA,194555.000,4144.3375,N,06959.5560,W,2,10,0.93,2.5,M,-34.3,M,0000,0000*53 
37.064          GPS_NMEA_FROM_GPS    iGPS            $GPRMC,194556.000,A,4144.3375,N,06959.5560,W,0.05,91.21,300321,,,D*4C 
37.967          GPS_NMEA_FROM_GPS    iGPS            $GPGGA,194557.000,4144.3375,N,06959.5560,W,2,10,0.93,2.5,M,-34.3,M,0000,0000*51 
39.069          GPS_NMEA_FROM_GPS    iGPS            $GPGGA,194558.000,4144.3375,N,06959.5560,W,2,10,0.93,2.5,M,-34.3,M,0000,0000*5E 
39.069          GPS_NMEA_FROM_GPS    iGPS            $GPGGA,194558.000,4144.3375,N,06959.5560,W,2,10,0.93,2.5,M,-34.3,M,0000,0000*5E 
39.971          GPS_NMEA_FROM_GPS    iGPS            $GPGGA,194559.000,4144.3375,N,06959.5560,W,2,10,0.93,2.5,M,-34.3,M,0000,0000*5F 
40.974          GPS_NMEA_FROM_GPS    iGPS            $GPGGA,194600.000,4144.3375,N,06959.5560,W,2,10,0.93,2.5,M,-34.3,M,0000,0000*50 
42.077          GPS_NMEA_FROM_GPS    iGPS            $GPRMC,194601.000,A,4144.3375,N,06959.5560,W,0.08,103.59,300321,,,D*75 
42.979          GPS_NMEA_FROM_GPS    iGPS            $GPGGA,194602.000,4144.3375,N,06959.5560,W,2,10,0.93,2.5,M,-34.3,M,0000,0000*52 
44.082          GPS_NMEA_FROM_GPS    iGPS            $GPRMC,194603.000,A,4144.3375,N,06959.5560,W,0.08,95.89,300321,,,D*44 
45.085          GPS_NMEA_FROM_GPS    iGPS            $GPRMC,194604.000,A,4144.3375,N,06959.5560,W,0.09,89.81,300321,,,D*47 
46.088          GPS_NMEA_FROM_GPS    iGPS            $GPRMC,194605.000,A,4144.3375,N,06959.5560,W,0.14,108.32,300321,,,D*7A 
47.091          GPS_NMEA_FROM_GPS    iGPS            $GPRMC,194606.000,A,4144.3375,N,06959.5560,W,0.15,103.16,300321,,,D*75 
47.994          GPS_NMEA_FROM_GPS    iGPS            $GPGGA,194607.000,4144.3375,N,06959.5559,W,2,10,0.93,2.5,M,-34.3,M,0000,0000*5D 
48.996          GPS_NMEA_FROM_GPS    iGPS            $GPGGA,194608.000,4144.3375,N,06959.5559,W,2,10,0.93,2.5,M,-34.3,M,0000,0000*52 
50.100          GPS_NMEA_FROM_GPS    iGPS            $GPRMC,194609.000,A,4144.3375,N,06959.5559,W,0.10,103.70,300321,,,D*75 
51.102          GPS_NMEA_FROM_GPS    iGPS            $GPRMC,194610.000,A,4144.3375,N,06959.5559,W,0.13,107.31,300321,,,D*7F 
52.004          GPS_NMEA_FROM_GPS    iGPS            $GPGGA,194611.000,4144.3375,N,06959.5559,W,2,10,0.93,2.5,M,-34.3,M,0000,0000*5A 
53.006          GPS_NMEA_FROM_GPS    iGPS            $GPGGA,194612.000,4144.3375,N,06959.5559,W,2,10,0.93,2.5,M,-34.3,M,0000,0000*59 
54.009          GPS_NMEA_FROM_GPS    iGPS            $GPGGA,194613.000,4144.3375,N,06959.5559,W,2,10,0.93,2.5,M,-34.3,M,0000,0000*58 
55.012          GPS_NMEA_FROM_GPS    iGPS            $GPGGA,194614.000,4144.3375,N,06959.5559,W,2,10,0.93,2.5,M,-34.3,M,0000,0000*5F 
56.014          GPS_NMEA_FROM_GPS    iGPS            $GPGGA,194615.000,4144.3375,N,06959.5559,W,2,10,0.93,2.5,M,-34.3,M,0000,0000*5E 
57.017          GPS_NMEA_FROM_GPS    iGPS            $GPGGA,194616.000,4144.3375,N,06959.5559,W,2,10,0.93,2.5,M,-34.3,M,0000,0000*5D 
58.019          GPS_NMEA_FROM_GPS    iGPS            $GPGGA,194617.000,4144.3375,N,06959.5559,W,2,10,1.01,2.5,M,-34.3,M,0000,0000*56 
59.022          GPS_NMEA_FROM_GPS    iGPS            $GPRMC,194618.000,A,4144.3375,N,06959.5559,W,0.16,30.56,300321,,,D*46 
60.024          GPS_NMEA_FROM_GPS    iGPS            $GPGGA,194619.000,4144.3375,N,06959.5558,W,2,09,1.03,2.5,M,-34.3,M,0000,0000*53 
61.027          GPS_NMEA_FROM_GPS    iGPS            $GPRMC,194620.000,A,4144.3375,N,06959.5558,W,0.17,29.61,300321,,,D*41 
61.929          GPS_NMEA_FROM_GPS    iGPS            $GPGGA,194621.000,4144.3376,N,06959.5558,W,2,10,0.93,2.5,M,-34.3,M,0000,0000*5B 
63.032          GPS_NMEA_FROM_GPS    iGPS            $GPGGA,194622.000,4144.3376,N,06959.5558,W,2,10,0.93,2.5,M,-34.3,M,0000,0000*58 
64.034          GPS_NMEA_FROM_GPS    iGPS            $GPRMC,194623.000,A,4144.3377,N,06959.5558,W,0.35,20.79,300321,,,D*40 
64.936          GPS_NMEA_FROM_GPS    iGPS            $GPGGA,194624.000,4144.3378,N,06959.5558,W,2,09,1.19,2.5,M,-34.3,M,0000,0000*5B 
66.039          GPS_NMEA_FROM_GPS    iGPS            $GPGGA,194625.000,4144.3379,N,06959.5557,W,2,09,1.19,2.5,M,-34.3,M,0000,0000*54 
67.042          GPS_NMEA_FROM_GPS    iGPS            $GPGGA,194626.000,4144.3380,N,06959.5557,W,2,10,0.93,2.5,M,-34.3,M,0000,0000*5A 
68.045          GPS_NMEA_FROM_GPS    iGPS            $GPGGA,194627.000,4144.3383,N,06959.5557,W,2,10,0.93,2.5,M,-34.3,M,0000,0000*58 
68.947          GPS_NMEA_FROM_GPS    iGPS            $GPGGA,194628.000,4144.3385,N,06959.5556,W,2,10,0.93,2.6,M,-34.3,M,0000,0000*53 
69.950          GPS_NMEA_FROM_GPS    iGPS            $GPGGA,194629.000,4144.3388,N,06959.5555,W,2,10,0.93,2.7,M,-34.3,M,0000,0000*5D 
71.052          GPS_NMEA_FROM_GPS    iGPS            $GPGGA,194630.000,4144.3391,N,06959.5555,W,2,10,0.93,2.7,M,-34.3,M,0000,0000*5D 
71.955          GPS_NMEA_FROM_GPS    iGPS            $GPGGA,194631.000,4144.3393,N,06959.5555,W,2,10,0.93,2.7,M,-34.3,M,0000,0000*5E 
72.957          GPS_NMEA_FROM_GPS    iGPS            $GPGGA,194632.000,4144.3396,N,06959.5555,W,2,10,0.93,2.8,M,-34.3,M,0000,0000*57 
74.060          GPS_NMEA_FROM_GPS    iGPS            $GPGGA,194633.000,4144.3399,N,06959.5554,W,2,10,0.93,2.8,M,-34.3,M,0000,0000*58 
75.063          GPS_NMEA_FROM_GPS    iGPS            $GPRMC,194634.000,A,4144.3401,N,06959.5553,W,0.80,350.92,300321,,,D*74 
76.065          GPS_NMEA_FROM_GPS    iGPS            $GPGGA,194635.000,4144.3404,N,06959.5553,W,2,09,1.19,2.7,M,-34.3,M,0000,0000*5E 
77.068          GPS_NMEA_FROM_GPS    iGPS            $GPRMC,194636.000,A,4144.3407,N,06959.5552,W,0.74,351.32,300321,,,D*71 
78.071          GPS_NMEA_FROM_GPS    iGPS            $GPGGA,194637.000,4144.3409,N,06959.5552,W,2,11,0.91,2.8,M,-34.3,M,0000,0000*57 
79.073          GPS_NMEA_FROM_GPS    iGPS            $GPRMC,194638.000,A,4144.3412,N,06959.5551,W,0.69,349.73,300321,,,D*78 
80.076          GPS_NMEA_FROM_GPS    iGPS            $GPRMC,194639.000,A,4144.3415,N,06959.5551,W,0.72,348.32,300321,,,D*70 
81.078          GPS_NMEA_FROM_GPS    iGPS            $GPRMC,194640.000,A,4144.3417,N,06959.5551,W,0.78,346.62,300321,,,D*7D 
81.981          GPS_NMEA_FROM_GPS    iGPS            $GPGGA,194641.000,4144.3420,N,06959.5551,W,2,10,0.93,3.1,M,-34.3,M,0000,0000*55 
82.983          GPS_NMEA_FROM_GPS    iGPS            $GPGGA,194642.000,4144.3423,N,06959.5551,W,2,10,0.93,3.2,M,-34.3,M,0000,0000*56 
84.086          GPS_NMEA_FROM_GPS    iGPS            $GPRMC,194643.000,A,4144.3425,N,06959.5551,W,0.80,339.50,300321,,,D*71 
85.089          GPS_NMEA_FROM_GPS    iGPS            $GPRMC,194644.000,A,4144.3428,N,06959.5552,W,0.77,337.45,300321,,,D*7A 
85.991          GPS_NMEA_FROM_GPS    iGPS            $GPGGA,194645.000,4144.3430,N,06959.5552,W,2,10,0.93,3.4,M,-34.3,M,0000,0000*56 
86.993          GPS_NMEA_FROM_GPS    iGPS            $GPGGA,194646.000,4144.3433,N,06959.5553,W,2,10,0.93,3.5,M,-34.3,M,0000,0000*56 
87.996          GPS_NMEA_FROM_GPS    iGPS            $GPGGA,194647.000,4144.3436,N,06959.5553,W,2,10,0.93,3.7,M,-34.3,M,0000,0000*50 
89.099          GPS_NMEA_FROM_GPS    iGPS            $GPRMC,194648.000,A,4144.3438,N,06959.5553,W,0.72,337.94,300321,,,D*7F 
90.001          GPS_NMEA_FROM_GPS    iGPS            $GPGGA,194649.000,4144.3441,N,06959.5553,W,2,10,0.93,4.0,M,-34.3,M,0000,0000*5E 
91.003          GPS_NMEA_FROM_GPS    iGPS            $GPGGA,194650.000,4144.3443,N,06959.5554,W,2,10,0.93,4.1,M,-34.3,M,0000,0000*52 
92.007          GPS_NMEA_FROM_GPS    iGPS            $GPGGA,194651.000,4144.3446,N,06959.5554,W,2,10,0.93,4.3,M,-34.3,M,0000,0000*54 
93.009          GPS_NMEA_FROM_GPS    iGPS            $GPGGA,194652.000,4144.3448,N,06959.5555,W,2,10,0.93,4.4,M,-34.3,M,0000,0000*5F 
94.012          GPS_NMEA_FROM_GPS    iGPS            $GPGGA,194653.000,4144.3451,N,06959.5556,W,2,10,0.93,4.5,M,-34.3,M,0000,0000*54 
95.014          GPS_NMEA_FROM_GPS    iGPS            $GPGGA,194654.000,4144.3454,N,06959.5557,W,2,10,0.93,4.5,M,-34.3,M,0000,0000*57 
96.017          GPS_NMEA_FROM_GPS    iGPS            $GPGGA,194655.000,4144.3456,N,06959.5558,W,2,10,0.93,4.5,M,-34.3,M,0000,0000*5B 
97.019          GPS_NMEA_FROM_GPS    iGPS            $GPGGA,194656.000,4144.3459,N,06959.5560,W,2,10,0.93,4.5,M,-34.3,M,0000,0000*5C 
98.021          GPS_NMEA_FROM_GPS    iGPS            $GPGGA,194657.000,4144.3461,N,06959.5561,W,2,10,0.93,4.5,M,-34.3,M,0000,0000*57 
99.024          GPS_NMEA_FROM_GPS    iGPS            $GPRMC,194658.000,A,4144.3463,N,06959.5562,W,0.74,327.17,300321,,,D*7E 
100.026         GPS_NMEA_FROM_GPS    iGPS            $GPGGA,194659.000,4144.3465,N,06959.5563,W,2,09,1.01,4.5,M,-34.3,M,0000,0000*5D 
101.029         GPS_NMEA_FROM_GPS    iGPS            $GPGGA,194700.000,4144.3467,N,06959.5564,W,2,09,1.11,4.5,M,-34.3,M,0000,0000*54 
102.031         GPS_NMEA_FROM_GPS    iGPS            $GPGGA,194701.000,4144.3469,N,06959.5565,W,2,09,1.11,4.5,M,-34.3,M,0000,0000*5A 
103.033         GPS_NMEA_FROM_GPS    iGPS            $GPGGA,194702.000,4144.3471,N,06959.5566,W,2,09,1.01,4.6,M,-34.3,M,0000,0000*51 
104.036         GPS_NMEA_FROM_GPS    iGPS            $GPRMC,194703.000,A,4144.3474,N,06959.5567,W,0.82,328.32,300321,,,D*73 
105.038         GPS_NMEA_FROM_GPS    iGPS            $GPGGA,194704.000,4144.3476,N,06959.5568,W,2,09,1.11,4.8,M,-34.3,M,0000,0000*51 
105.940         GPS_NMEA_FROM_GPS    iGPS            $GPGGA,194705.000,4144.3479,N,06959.5569,W,2,09,1.01,4.8,M,-34.3,M,0000,0000*5F 
107.042         GPS_NMEA_FROM_GPS    iGPS            $GPGGA,194706.000,4144.3481,N,06959.5570,W,2,09,1.01,4.9,M,-34.3,M,0000,0000*52 
108.045         GPS_NMEA_FROM_GPS    iGPS            $GPGGA,194707.000,4144.3483,N,06959.5571,W,2,09,1.11,4.9,M,-34.3,M,0000,0000*51 
109.047         GPS_NMEA_FROM_GPS    iGPS            $GPGGA,194708.000,4144.3486,N,06959.5572,W,2,09,1.11,4.8,M,-34.3,M,0000,0000*59 
110.050         GPS_NMEA_FROM_GPS    iGPS            $GPGGA,194709.000,4144.3488,N,06959.5573,W,2,09,1.01,4.8,M,-34.3,M,0000,0000*56 
110.953         GPS_NMEA_FROM_GPS    iGPS            $GPGGA,194710.000,4144.3490,N,06959.5574,W,2,09,1.01,4.8,M,-34.3,M,0000,0000*50 
111.955         GPS_NMEA_FROM_GPS    iGPS            $GPGGA,194711.000,4144.3492,N,06959.5575,W,2,09,1.01,4.8,M,-34.3,M,0000,0000*52 
113.058         GPS_NMEA_FROM_GPS    iGPS            $GPGGA,194712.000,4144.3495,N,06959.5576,W,2,09,1.01,4.8,M,-34.3,M,0000,0000*55 
113.960         GPS_NMEA_FROM_GPS    iGPS            $GPGGA,194713.000,4144.3497,N,06959.5577,W,2,09,1.01,4.8,M,-34.3,M,0000,0000*57 
114.963         GPS_NMEA_FROM_GPS    iGPS            $GPGGA,194714.000,4144.3499,N,06959.5578,W,2,09,1.01,4.8,M,-34.3,M,0000,0000*51 
116.066         GPS_NMEA_FROM_GPS    iGPS            $GPRMC,194715.000,A,4144.3501,N,06959.5579,W,0.79,329.00,300321,,,D*7C 
117.068         GPS_NMEA_FROM_GPS    iGPS            $GPGGA,194716.000,4144.3503,N,06959.5580,W,2,09,1.01,4.8,M,-34.3,M,0000,0000*56 
117.970         GPS_NMEA_FROM_GPS    iGPS            $GPGGA,194717.000,4144.3505,N,06959.5581,W,2,10,0.97,4.7,M,-34.3,M,0000,0000*59 
118.973         GPS_NMEA_FROM_GPS    iGPS            $GPGGA,194718.000,4144.3507,N,06959.5582,W,2,10,1.01,4.6,M,-34.3,M,0000,0000*58 
120.076         GPS_NMEA_FROM_GPS    iGPS            $GPGGA,194719.000,4144.3509,N,06959.5583,W,2,10,0.97,4.4,M,-34.3,M,0000,0000*5A 
121.079         GPS_NMEA_FROM_GPS    iGPS            $GPRMC,194720.000,A,4144.3511,N,06959.5584,W,0.77,324.75,300321,,,D*78 
121.981         GPS_NMEA_FROM_GPS    iGPS            $GPGGA,194721.000,4144.3513,N,06959.5586,W,2,10,0.97,4.2,M,-34.3,M,0000,0000*59 
122.983         GPS_NMEA_FROM_GPS    iGPS            $GPGGA,194722.000,4144.3514,N,06959.5587,W,2,09,1.01,4.1,M,-34.3,M,0000,0000*59 
123.986         GPS_NMEA_FROM_GPS    iGPS            $GPGGA,194723.000,4144.3516,N,06959.5588,W,2,09,1.01,4.1,M,-34.3,M,0000,0000*55 
124.988         GPS_NMEA_FROM_GPS    iGPS            $GPGGA,194724.000,4144.3518,N,06959.5590,W,2,09,1.01,4.0,M,-34.3,M,0000,0000*54 
125.992         GPS_NMEA_FROM_GPS    iGPS            $GPGGA,194725.000,4144.3520,N,06959.5591,W,2,09,1.01,4.0,M,-34.3,M,0000,0000*5F 
127.095         GPS_NMEA_FROM_GPS    iGPS            $GPRMC,194726.000,A,4144.3522,N,06959.5593,W,0.80,319.59,300321,,,D*70 
127.997         GPS_NMEA_FROM_GPS    iGPS            $GPGGA,194727.000,4144.3523,N,06959.5594,W,2,10,0.95,3.9,M,-34.3,M,0000,0000*51 
129.100         GPS_NMEA_FROM_GPS    iGPS            $GPRMC,194728.000,A,4144.3525,N,06959.5596,W,0.77,317.80,300321,,,D*7E 
130.102         GPS_NMEA_FROM_GPS    iGPS            $GPRMC,194729.000,A,4144.3527,N,06959.5598,W,0.71,316.87,300321,,,D*73 
131.007         GPS_NMEA_FROM_GPS    iGPS            $GPGGA,194730.000,4144.3528,N,06959.5599,W,2,10,0.95,3.8,M,-34.3,M,0000,0000*50 
132.009         GPS_NMEA_FROM_GPS    iGPS            $GPGGA,194731.000,4144.3530,N,06959.5601,W,2,10,0.95,3.7,M,-34.3,M,0000,0000*55 
133.011         GPS_NMEA_FROM_GPS    iGPS            $GPGGA,194732.000,4144.3531,N,06959.5602,W,2,11,0.90,3.7,M,-34.3,M,0000,0000*50 
134.115         GPS_NMEA_FROM_GPS    iGPS            $GPRMC,194733.000,A,4144.3533,N,06959.5604,W,0.72,314.49,300321,,,D*78 
135.017         GPS_NMEA_FROM_GPS    iGPS            $GPGGA,194734.000,4144.3534,N,06959.5605,W,2,11,0.90,3.6,M,-34.3,M,0000,0000*55 
136.020         GPS_NMEA_FROM_GPS    iGPS            $GPGGA,194735.000,4144.3536,N,06959.5607,W,2,11,0.90,3.5,M,-34.3,M,0000,0000*57 
137.022         GPS_NMEA_FROM_GPS    iGPS            $GPGGA,194736.000,4144.3538,N,06959.5609,W,2,11,0.90,3.5,M,-34.3,M,0000,0000*54 
138.025         GPS_NMEA_FROM_GPS    iGPS            $GPGGA,194737.000,4144.3540,N,06959.5610,W,2,11,0.90,3.5,M,-34.3,M,0000,0000*52 
139.029         GPS_NMEA_FROM_GPS    iGPS            $GPRMC,194738.000,A,4144.3542,N,06959.5612,W,0.79,315.25,300321,,,D*72 
140.030         GPS_NMEA_FROM_GPS    iGPS            $GPRMC,194739.000,A,4144.3544,N,06959.5614,W,0.81,315.13,300321,,,D*71 
141.033         GPS_NMEA_FROM_GPS    iGPS            $GPGGA,194740.000,4144.3546,N,06959.5616,W,2,11,0.90,3.4,M,-34.3,M,0000,0000*53 
142.036         GPS_NMEA_FROM_GPS    iGPS            $GPRMC,194741.000,A,4144.3548,N,06959.5618,W,0.80,313.68,300321,,,D*75 
143.038         GPS_NMEA_FROM_GPS    iGPS            $GPGGA,194742.000,4144.3550,N,06959.5620,W,2,11,0.90,3.2,M,-34.3,M,0000,0000*55 
144.041         GPS_NMEA_FROM_GPS    iGPS            $GPRMC,194743.000,A,4144.3552,N,06959.5623,W,0.81,311.35,300321,,,D*7F 
145.044         GPS_NMEA_FROM_GPS    iGPS            $GPGGA,194744.000,4144.3553,N,06959.5625,W,2,10,1.02,3.0,M,-34.3,M,0000,0000*5C 
146.047         GPS_NMEA_FROM_GPS    iGPS            $GPRMC,194745.000,A,4144.3555,N,06959.5628,W,0.78,308.06,300321,,,D*7B 
146.949         GPS_NMEA_FROM_GPS    iGPS            $GPGGA,194746.000,4144.3556,N,06959.5630,W,2,10,1.02,2.9,M,-34.3,M,0000,0000*57 
148.052         GPS_NMEA_FROM_GPS    iGPS            $GPGGA,194747.000,4144.3557,N,06959.5633,W,2,11,0.90,2.8,M,-34.3,M,0000,0000*5E 
149.054         GPS_NMEA_FROM_GPS    iGPS            $GPGGA,194748.000,4144.3558,N,06959.5635,W,2,09,1.08,2.8,M,-34.3,M,0000,0000*51 
150.057         GPS_NMEA_FROM_GPS    iGPS            $GPGGA,194749.000,4144.3559,N,06959.5637,W,2,10,0.97,2.8,M,-34.3,M,0000,0000*5C 
151.059         GPS_NMEA_FROM_GPS    iGPS            $GPGGA,194750.000,4144.3560,N,06959.5640,W,2,10,0.93,2.8,M,-34.3,M,0000,0000*5A 
152.062         GPS_NMEA_FROM_GPS    iGPS            $GPRMC,194751.000,A,4144.3560,N,06959.5642,W,0.56,291.46,300321,,,D*7D 
153.064         GPS_NMEA_FROM_GPS    iGPS            $GPGGA,194752.000,4144.3560,N,06959.5645,W,2,10,0.97,2.8,M,-34.3,M,0000,0000*59 
154.067         GPS_NMEA_FROM_GPS    iGPS            $GPRMC,194753.000,A,4144.3560,N,06959.5647,W,0.59,283.12,300321,,,D*77 
154.969         GPS_NMEA_FROM_GPS    iGPS            $GPGGA,194754.000,4144.3561,N,06959.5650,W,2,09,1.10,2.8,M,-34.3,M,0000,0000*5C 
156.073         GPS_NMEA_FROM_GPS    iGPS            $GPGGA,194755.000,4144.3560,N,06959.5652,W,2,10,1.02,2.7,M,-34.3,M,0000,0000*5A 
157.075         GPS_NMEA_FROM_GPS    iGPS            $GPRMC,194756.000,A,4144.3560,N,06959.5654,W,0.56,266.82,300321,,,D*7D 
157.977         GPS_NMEA_FROM_GPS    iGPS            $GPGGA,194757.000,4144.3559,N,06959.5656,W,2,09,1.12,2.7,M,-34.3,M,0000,0000*5F 
159.080         GPS_NMEA_FROM_GPS    iGPS            $GPRMC,194758.000,A,4144.3557,N,06959.5659,W,0.60,251.07,300321,,,D*76 
160.083         GPS_NMEA_FROM_GPS    iGPS            $GPRMC,194759.000,A,4144.3556,N,06959.5660,W,0.56,244.37,300321,,,D*7E 
160.985         GPS_NMEA_FROM_GPS    iGPS            $GPGGA,194800.000,4144.3554,N,06959.5662,W,2,10,1.02,2.8,M,-34.3,M,0000,0000*5E 
162.088         GPS_NMEA_FROM_GPS    iGPS            $GPRMC,194801.000,A,4144.3552,N,06959.5663,W,0.60,231.24,300321,,,D*7E 
162.990         GPS_NMEA_FROM_GPS    iGPS            $GPGGA,194802.000,4144.3550,N,06959.5665,W,2,09,1.01,2.8,M,-34.3,M,0000,0000*54 
164.093         GPS_NMEA_FROM_GPS    iGPS            $GPRMC,194803.000,A,4144.3549,N,06959.5666,W,0.60,222.06,300321,,,D*71 
164.995         GPS_NMEA_FROM_GPS    iGPS            $GPGGA,194804.000,4144.3547,N,06959.5667,W,2,11,0.91,2.7,M,-34.3,M,0000,0000*58 
166.098         GPS_NMEA_FROM_GPS    iGPS            $GPRMC,194805.000,A,4144.3545,N,06959.5668,W,0.59,216.83,300321,,,D*75 
166.999         GPS_NMEA_FROM_GPS    iGPS            $GPGGA,194806.000,4144.3544,N,06959.5670,W,2,11,0.90,2.6,M,-34.3,M,0000,0000*5F 
168.001         GPS_NMEA_FROM_GPS    iGPS            $GPGGA,194807.000,4144.3542,N,06959.5671,W,2,11,0.90,2.6,M,-34.3,M,0000,0000*59 
169.104         GPS_NMEA_FROM_GPS    iGPS            $GPRMC,194808.000,A,4144.3540,N,06959.5673,W,0.61,214.69,300321,,,D*7A 
170.107         GPS_NMEA_FROM_GPS    iGPS            $GPRMC,194809.000,A,4144.3539,N,06959.5674,W,0.67,213.81,300321,,,D*75 
171.009         GPS_NMEA_FROM_GPS    iGPS            $GPGGA,194810.000,4144.3537,N,06959.5676,W,2,11,0.90,2.5,M,-34.3,M,0000,0000*59 
172.011         GPS_NMEA_FROM_GPS    iGPS            $GPGGA,194811.000,4144.3535,N,06959.5678,W,2,11,0.90,2.4,M,-34.3,M,0000,0000*55 
173.014         GPS_NMEA_FROM_GPS    iGPS            $GPGGA,194812.000,4144.3533,N,06959.5679,W,2,11,0.90,2.4,M,-34.3,M,0000,0000*51 
174.117         GPS_NMEA_FROM_GPS    iGPS            $GPRMC,194813.000,A,4144.3531,N,06959.5681,W,0.66,213.86,300321,,,D*7A 
175.019         GPS_NMEA_FROM_GPS    iGPS            $GPGGA,194814.000,4144.3529,N,06959.5683,W,2,11,0.90,2.3,M,-34.3,M,0000,0000*5E 
176.022         GPS_NMEA_FROM_GPS    iGPS            $GPGGA,194815.000,4144.3527,N,06959.5684,W,2,11,0.90,2.3,M,-34.3,M,0000,0000*56 
177.024         GPS_NMEA_FROM_GPS    iGPS            $GPGGA,194816.000,4144.3525,N,06959.5686,W,2,11,0.90,2.4,M,-34.3,M,0000,0000*52 
178.028         GPS_NMEA_FROM_GPS    iGPS            $GPRMC,194817.000,A,4144.3523,N,06959.5687,W,0.74,207.22,300321,,,D*73 
179.030         GPS_NMEA_FROM_GPS    iGPS            $GPGGA,194818.000,4144.3521,N,06959.5688,W,2,11,0.90,2.4,M,-34.3,M,0000,0000*56 
180.033         GPS_NMEA_FROM_GPS    iGPS            $GPGGA,194819.000,4144.3518,N,06959.5689,W,2,11,0.90,2.4,M,-34.3,M,0000,0000*5C 
181.036         GPS_NMEA_FROM_GPS    iGPS            $GPGGA,194820.000,4144.3516,N,06959.5690,W,2,11,0.90,2.4,M,-34.3,M,0000,0000*50 
182.038         GPS_NMEA_FROM_GPS    iGPS            $GPGGA,194821.000,4144.3514,N,06959.5691,W,2,11,0.90,2.5,M,-34.3,M,0000,0000*53 
183.041         GPS_NMEA_FROM_GPS    iGPS            $GPGGA,194822.000,4144.3512,N,06959.5692,W,2,10,0.93,2.5,M,-34.3,M,0000,0000*57 
184.043         GPS_NMEA_FROM_GPS    iGPS            $GPRMC,194823.000,A,4144.3510,N,06959.5694,W,0.74,203.65,300321,,,D*71 
185.045         GPS_NMEA_FROM_GPS    iGPS            $GPRMC,194824.000,A,4144.3508,N,06959.5695,W,0.74,205.45,300321,,,D*7A 
185.947         GPS_NMEA_FROM_GPS    iGPS            $GPGGA,194825.000,4144.3506,N,06959.5697,W,2,10,0.93,2.6,M,-34.3,M,0000,0000*53 
187.051         GPS_NMEA_FROM_GPS    iGPS            $GPRMC,194826.000,A,4144.3504,N,06959.5699,W,0.74,207.97,300321,,,D*75 
187.953         GPS_NMEA_FROM_GPS    iGPS            $GPGGA,194827.000,4144.3503,N,06959.5700,W,2,10,0.93,2.7,M,-34.3,M,0000,0000*5A 
188.955         GPS_NMEA_FROM_GPS    iGPS            $GPGGA,194828.000,4144.3501,N,06959.5702,W,2,10,0.93,2.8,M,-34.3,M,0000,0000*5A 
190.058         GPS_NMEA_FROM_GPS    iGPS            $GPGGA,194829.000,4144.3499,N,06959.5703,W,2,10,0.93,2.8,M,-34.3,M,0000,0000*5A 
191.061         GPS_NMEA_FROM_GPS    iGPS            $GPGGA,194830.000,4144.3497,N,06959.5704,W,2,09,1.04,2.7,M,-34.3,M,0000,0000*53 
192.063         GPS_NMEA_FROM_GPS    iGPS            $GPRMC,194831.000,A,4144.3496,N,06959.5705,W,0.73,208.08,300321,,,D*73 
193.066         GPS_NMEA_FROM_GPS    iGPS            $GPGGA,194832.000,4144.3494,N,06959.5707,W,2,10,1.00,2.7,M,-34.3,M,0000,0000*5D 
194.068         GPS_NMEA_FROM_GPS    iGPS            $GPGGA,194833.000,4144.3492,N,06959.5708,W,2,10,1.00,2.7,M,-34.3,M,0000,0000*55 
195.071         GPS_NMEA_FROM_GPS    iGPS            $GPRMC,194834.000,A,4144.3490,N,06959.5709,W,0.75,201.01,300321,,,D*7A 
196.074         GPS_NMEA_FROM_GPS    iGPS            $GPRMC,194835.000,A,4144.3488,N,06959.5710,W,0.73,199.23,300321,,,D*7E 
196.976         GPS_NMEA_FROM_GPS    iGPS            $GPGGA,194836.000,4144.3486,N,06959.5711,W,2,10,0.93,2.7,M,-34.3,M,0000,0000*56 
198.079         GPS_NMEA_FROM_GPS    iGPS            $GPRMC,194837.000,A,4144.3484,N,06959.5711,W,0.71,196.67,300321,,,D*7C 
198.982         GPS_NMEA_FROM_GPS    iGPS            $GPGGA,194838.000,4144.3482,N,06959.5712,W,2,09,1.07,2.6,M,-34.3,M,0000,0000*5A 
199.983         GPS_NMEA_FROM_GPS    iGPS            $GPGGA,194839.000,4144.3480,N,06959.5713,W,2,11,0.90,2.5,M,-34.3,M,0000,0000*5D 
201.086         GPS_NMEA_FROM_GPS    iGPS            $GPRMC,194840.000,A,4144.3479,N,06959.5714,W,0.72,197.00,300321,,,D*78 
202.089         GPS_NMEA_FROM_GPS    iGPS            $GPRMC,194841.000,A,4144.3476,N,06959.5715,W,0.78,197.73,300321,,,D*79 
202.991         GPS_NMEA_FROM_GPS    iGPS            $GPGGA,194842.000,4144.3474,N,06959.5716,W,2,11,0.90,2.5,M,-34.3,M,0000,0000*5F 
204.094         GPS_NMEA_FROM_GPS    iGPS            $GPRMC,194843.000,A,4144.3472,N,06959.5718,W,0.84,199.53,300321,,,D*7D 
204.996         GPS_NMEA_FROM_GPS    iGPS            $GPGGA,194844.000,4144.3469,N,06959.5719,W,2,11,0.90,2.5,M,-34.3,M,0000,0000*5A 
206.099         GPS_NMEA_FROM_GPS    iGPS            $GPRMC,194845.000,A,4144.3467,N,06959.5720,W,0.85,199.42,300321,,,D*75 
207.001         GPS_NMEA_FROM_GPS    iGPS            $GPGGA,194846.000,4144.3465,N,06959.5721,W,2,10,0.93,2.5,M,-34.3,M,0000,0000*5D 
208.004         GPS_NMEA_FROM_GPS    iGPS            $GPGGA,194847.000,4144.3463,N,06959.5722,W,2,10,0.93,2.5,M,-34.3,M,0000,0000*59 
209.006         GPS_NMEA_FROM_GPS    iGPS            $GPGGA,194848.000,4144.3461,N,06959.5723,W,2,11,0.90,2.5,M,-34.3,M,0000,0000*57 
210.008         GPS_NMEA_FROM_GPS    iGPS            $GPGGA,194849.000,4144.3460,N,06959.5724,W,2,10,0.93,2.5,M,-34.3,M,0000,0000*52 
211.010         GPS_NMEA_FROM_GPS    iGPS            $GPGGA,194850.000,4144.3458,N,06959.5724,W,2,10,0.93,2.5,M,-34.3,M,0000,0000*51 
212.012         GPS_NMEA_FROM_GPS    iGPS            $GPGGA,194851.000,4144.3457,N,06959.5725,W,2,10,0.93,2.4,M,-34.3,M,0000,0000*5F 
213.015         GPS_NMEA_FROM_GPS    iGPS            $GPGGA,194852.000,4144.3455,N,06959.5726,W,2,10,0.93,2.4,M,-34.3,M,0000,0000*5D 
214.017         GPS_NMEA_FROM_GPS    iGPS            $GPGGA,194853.000,4144.3453,N,06959.5727,W,2,09,1.04,2.3,M,-34.3,M,0000,0000*5B 
215.020         GPS_NMEA_FROM_GPS    iGPS            $GPGGA,194854.000,4144.3451,N,06959.5728,W,2,10,0.93,2.2,M,-34.3,M,0000,0000*57 
216.022         GPS_NMEA_FROM_GPS    iGPS            $GPGGA,194855.000,4144.3450,N,06959.5729,W,2,10,0.93,2.1,M,-34.3,M,0000,0000*55 
217.025         GPS_NMEA_FROM_GPS    iGPS            $GPGGA,194856.000,4144.3449,N,06959.5729,W,2,10,0.93,2.1,M,-34.3,M,0000,0000*5E 
218.028         GPS_NMEA_FROM_GPS    iGPS            $GPGGA,194857.000,4144.3447,N,06959.5730,W,2,10,0.93,2.1,M,-34.3,M,0000,0000*59 
219.032         GPS_NMEA_FROM_GPS    iGPS            $GPRMC,194858.000,A,4144.3446,N,06959.5730,W,0.58,190.47,300321,,,D*77 
219.934         GPS_NMEA_FROM_GPS    iGPS            $GPGGA,194859.000,4144.3444,N,06959.5729,W,2,10,0.93,2.0,M,-34.3,M,0000,0000*5D 
221.037         GPS_NMEA_FROM_GPS    iGPS            $GPRMC,194900.000,A,4144.3443,N,06959.5728,W,0.56,178.24,300321,,,D*7A 
222.039         GPS_NMEA_FROM_GPS    iGPS            $GPGGA,194901.000,4144.3441,N,06959.5727,W,2,10,0.93,1.9,M,-34.3,M,0000,0000*50 
223.042         GPS_NMEA_FROM_GPS    iGPS            $GPGGA,194902.000,4144.3439,N,06959.5725,W,2,10,0.93,1.9,M,-34.3,M,0000,0000*5E 
224.045         GPS_NMEA_FROM_GPS    iGPS            $GPRMC,194903.000,A,4144.3438,N,06959.5723,W,0.53,154.50,300321,,,D*76 
225.047         GPS_NMEA_FROM_GPS    iGPS            $GPRMC,194904.000,A,4144.3436,N,06959.5721,W,0.58,148.17,300321,,,D*78 
226.050         GPS_NMEA_FROM_GPS    iGPS            $GPGGA,194905.000,4144.3434,N,06959.5719,W,2,10,0.93,1.9,M,-34.3,M,0000,0000*5B 
227.052         GPS_NMEA_FROM_GPS    iGPS            $GPGGA,194906.000,4144.3433,N,06959.5717,W,2,10,0.93,1.9,M,-34.3,M,0000,0000*51 
228.055         GPS_NMEA_FROM_GPS    iGPS            $GPRMC,194907.000,A,4144.3431,N,06959.5715,W,0.63,137.32,300321,,,D*7C 
228.958         GPS_NMEA_FROM_GPS    iGPS            $GPGGA,194908.000,4144.3430,N,06959.5713,W,2,10,0.93,1.9,M,-34.3,M,0000,0000*58 
230.060         GPS_NMEA_FROM_GPS    iGPS            $GPGGA,194909.000,4144.3428,N,06959.5710,W,2,10,0.93,1.9,M,-34.3,M,0000,0000*53 
231.063         GPS_NMEA_FROM_GPS    iGPS            $GPRMC,194910.000,A,4144.3426,N,06959.5708,W,0.68,133.04,300321,,,D*7A 
232.065         GPS_NMEA_FROM_GPS    iGPS            $GPGGA,194911.000,4144.3425,N,06959.5705,W,2,10,0.93,1.9,M,-34.3,M,0000,0000*53 
232.968         GPS_NMEA_FROM_GPS    iGPS            $GPGGA,194912.000,4144.3423,N,06959.5703,W,2,10,0.93,2.0,M,-34.3,M,0000,0000*5A 
233.970         GPS_NMEA_FROM_GPS    iGPS            $GPGGA,194913.000,4144.3421,N,06959.5701,W,2,10,0.93,2.1,M,-34.3,M,0000,0000*5A 
235.073         GPS_NMEA_FROM_GPS    iGPS            $GPGGA,194914.000,4144.3420,N,06959.5698,W,2,10,0.93,2.2,M,-34.3,M,0000,0000*5E 
236.076         GPS_NMEA_FROM_GPS    iGPS            $GPRMC,194915.000,A,4144.3418,N,06959.5696,W,0.71,125.71,300321,,,D*79 
236.978         GPS_NMEA_FROM_GPS    iGPS            $GPGGA,194916.000,4144.3417,N,06959.5693,W,2,10,0.93,2.4,M,-34.3,M,0000,0000*55 
237.981         GPS_NMEA_FROM_GPS    iGPS            $GPGGA,194917.000,4144.3415,N,06959.5691,W,2,10,0.93,2.5,M,-34.3,M,0000,0000*55 
238.983         GPS_NMEA_FROM_GPS    iGPS            $GPGGA,194918.000,4144.3414,N,06959.5689,W,2,10,0.93,2.5,M,-34.3,M,0000,0000*52 
240.086         GPS_NMEA_FROM_GPS    iGPS            $GPRMC,194919.000,A,4144.3412,N,06959.5686,W,0.75,126.83,300321,,,D*74 
241.089         GPS_NMEA_FROM_GPS    iGPS            $GPRMC,194920.000,A,4144.3410,N,06959.5684,W,0.74,127.31,300321,,,D*77 
242.091         GPS_NMEA_FROM_GPS    iGPS            $GPRMC,194921.000,A,4144.3409,N,06959.5681,W,0.77,127.83,300321,,,D*71 
243.094         GPS_NMEA_FROM_GPS    iGPS            $GPRMC,194922.000,A,4144.3407,N,06959.5679,W,0.73,126.83,300321,,,D*7E 
243.996         GPS_NMEA_FROM_GPS    iGPS            $GPGGA,194923.000,4144.3406,N,06959.5676,W,2,10,0.93,2.6,M,-34.3,M,0000,0000*5A 
244.999         GPS_NMEA_FROM_GPS    iGPS            $GPGGA,194924.000,4144.3405,N,06959.5674,W,2,10,0.93,2.6,M,-34.3,M,0000,0000*5C 
246.102         GPS_NMEA_FROM_GPS    iGPS            $GPRMC,194925.000,A,4144.3403,N,06959.5671,W,0.73,122.97,300321,,,D*74 
247.004         GPS_NMEA_FROM_GPS    iGPS            $GPGGA,194926.000,4144.3402,N,06959.5669,W,2,10,0.93,2.7,M,-34.3,M,0000,0000*54 
248.006         GPS_NMEA_FROM_GPS    iGPS            $GPGGA,194927.000,4144.3401,N,06959.5667,W,2,10,0.93,2.7,M,-34.3,M,0000,0000*58 
249.109         GPS_NMEA_FROM_GPS    iGPS            $GPRMC,194928.000,A,4144.3400,N,06959.5664,W,0.74,119.95,300321,,,D*73 
250.011         GPS_NMEA_FROM_GPS    iGPS            $GPGGA,194929.000,4144.3398,N,06959.5662,W,2,10,0.93,2.8,M,-34.3,M,0000,0000*5B 
251.014         GPS_NMEA_FROM_GPS    iGPS            $GPGGA,194930.000,4144.3397,N,06959.5659,W,2,10,0.93,2.8,M,-34.3,M,0000,0000*54 
252.017         GPS_NMEA_FROM_GPS    iGPS            $GPRMC,194931.000,A,4144.3395,N,06959.5657,W,0.71,119.83,300321,,,D*72 
253.019         GPS_NMEA_FROM_GPS    iGPS            $GPGGA,194932.000,4144.3394,N,06959.5655,W,2,10,0.93,2.8,M,-34.3,M,0000,0000*59 
254.022         GPS_NMEA_FROM_GPS    iGPS            $GPGGA,194933.000,4144.3393,N,06959.5653,W,2,10,0.93,2.8,M,-34.3,M,0000,0000*59 
255.025         GPS_NMEA_FROM_GPS    iGPS            $GPRMC,194934.000,A,4144.3392,N,06959.5650,W,0.74,117.48,300321,,,D*7B 
256.027         GPS_NMEA_FROM_GPS    iGPS            $GPGGA,194935.000,4144.3391,N,06959.5648,W,2,10,0.93,2.7,M,-34.3,M,0000,0000*58 
257.029         GPS_NMEA_FROM_GPS    iGPS            $GPGGA,194936.000,4144.3390,N,06959.5645,W,2,10,0.93,2.8,M,-34.3,M,0000,0000*58 
258.032         GPS_NMEA_FROM_GPS    iGPS            $GPGGA,194937.000,4144.3390,N,06959.5642,W,2,10,0.93,2.9,M,-34.3,M,0000,0000*5F 
259.035         GPS_NMEA_FROM_GPS    iGPS            $GPGGA,194938.000,4144.3389,N,06959.5639,W,2,10,0.93,2.9,M,-34.3,M,0000,0000*54 
259.938         GPS_NMEA_FROM_GPS    iGPS            $GPGGA,194939.000,4144.3388,N,06959.5637,W,2,10,0.93,3.0,M,-34.3,M,0000,0000*52 
261.041         GPS_NMEA_FROM_GPS    iGPS            $GPRMC,194940.000,A,4144.3387,N,06959.5635,W,0.76,109.33,300321,,,D*7E 
262.043         GPS_NMEA_FROM_GPS    iGPS            $GPRMC,194941.000,A,4144.3386,N,06959.5632,W,0.74,110.26,300321,,,D*77 
263.046         GPS_NMEA_FROM_GPS    iGPS            $GPRMC,194942.000,A,4144.3386,N,06959.5630,W,0.73,111.09,300321,,,D*7D 
264.048         GPS_NMEA_FROM_GPS    iGPS            $GPGGA,194943.000,4144.3385,N,06959.5627,W,2,10,0.93,3.1,M,-34.3,M,0000,0000*52 
265.051         GPS_NMEA_FROM_GPS    iGPS            $GPGGA,194944.000,4144.3383,N,06959.5624,W,2,11,0.90,3.1,M,-34.3,M,0000,0000*52 
266.053         GPS_NMEA_FROM_GPS    iGPS            $GPRMC,194945.000,A,4144.3382,N,06959.5622,W,0.78,113.76,300321,,,D*7C 
267.056         GPS_NMEA_FROM_GPS    iGPS            $GPRMC,194946.000,A,4144.3381,N,06959.5619,W,0.72,112.86,300321,,,D*70 
268.058         GPS_NMEA_FROM_GPS    iGPS            $GPGGA,194947.000,4144.3380,N,06959.5617,W,2,11,0.90,3.2,M,-34.3,M,0000,0000*51 
269.061         GPS_NMEA_FROM_GPS    iGPS            $GPGGA,194948.000,4144.3380,N,06959.5614,W,2,11,0.91,3.3,M,-34.3,M,0000,0000*5D 
270.064         GPS_NMEA_FROM_GPS    iGPS            $GPGGA,194949.000,4144.3379,N,06959.5611,W,2,11,0.90,3.4,M,-34.3,M,0000,0000*59 
270.967         GPS_NMEA_FROM_GPS    iGPS            $GPGGA,194950.000,4144.3379,N,06959.5608,W,2,11,0.90,3.5,M,-34.3,M,0000,0000*58 
272.070         GPS_NMEA_FROM_GPS    iGPS            $GPGGA,194951.000,4144.3379,N,06959.5605,W,2,11,0.90,3.5,M,-34.3,M,0000,0000*54 
272.972         GPS_NMEA_FROM_GPS    iGPS            $GPGGA,194952.000,4144.3378,N,06959.5602,W,2,11,0.90,3.6,M,-34.3,M,0000,0000*52 
273.975         GPS_NMEA_FROM_GPS    iGPS            $GPGGA,194953.000,4144.3378,N,06959.5599,W,2,11,0.90,3.6,M,-34.3,M,0000,0000*52 
275.078         GPS_NMEA_FROM_GPS    iGPS            $GPGGA,194954.000,4144.3378,N,06959.5596,W,2,11,0.90,3.6,M,-34.3,M,0000,0000*5A 
275.980         GPS_NMEA_FROM_GPS    iGPS            $GPGGA,194955.000,4144.3378,N,06959.5593,W,2,11,0.90,3.6,M,-34.3,M,0000,0000*5E 
276.983         GPS_NMEA_FROM_GPS    iGPS            $GPGGA,194956.000,4144.3378,N,06959.5590,W,2,11,0.90,3.6,M,-34.3,M,0000,0000*5E 
278.086         GPS_NMEA_FROM_GPS    iGPS            $GPGGA,194957.000,4144.3378,N,06959.5587,W,2,12,0.83,3.6,M,-34.3,M,0000,0000*58 
279.089         GPS_NMEA_FROM_GPS    iGPS            $GPRMC,194958.000,A,4144.3378,N,06959.5584,W,0.77,100.05,300321,,,D*73 
280.091         GPS_NMEA_FROM_GPS    iGPS            $GPRMC,194959.000,A,4144.3378,N,06959.5581,W,0.78,99.74,300321,,,D*4F 
280.993         GPS_NMEA_FROM_GPS    iGPS            $GPGGA,195000.000,4144.3377,N,06959.5578,W,2,11,0.90,3.6,M,-34.3,M,0000,0000*5C 
281.996         GPS_NMEA_FROM_GPS    iGPS            $GPGGA,195001.000,4144.3377,N,06959.5575,W,2,12,0.83,3.7,M,-34.3,M,0000,0000*50 
283.099         GPS_NMEA_FROM_GPS    iGPS            $GPRMC,195002.000,A,4144.3377,N,06959.5572,W,0.81,99.43,300321,,,D*48 
284.001         GPS_NMEA_FROM_GPS    iGPS            $GPGGA,195003.000,4144.3377,N,06959.5569,W,2,12,0.83,3.7,M,-34.3,M,0000,0000*5F 
285.105         GPS_NMEA_FROM_GPS    iGPS            $GPRMC,195004.000,A,4144.3376,N,06959.5566,W,0.80,98.79,300321,,,D*43 
286.007         GPS_NMEA_FROM_GPS    iGPS            $GPGGA,195005.000,4144.3376,N,06959.5563,W,2,12,0.83,3.8,M,-34.3,M,0000,0000*5D 
287.009         GPS_NMEA_FROM_GPS    iGPS            $GPGGA,195006.000,4144.3376,N,06959.5561,W,2,11,0.90,3.9,M,-34.3,M,0000,0000*5C 
288.012         GPS_NMEA_FROM_GPS    iGPS            $GPGGA,195007.000,4144.3376,N,06959.5557,W,2,11,0.86,3.9,M,-34.3,M,0000,0000*5F 
289.014         GPS_NMEA_FROM_GPS    iGPS            $GPGGA,195008.000,4144.3376,N,06959.5554,W,2,12,0.83,4.0,M,-34.3,M,0000,0000*5B 
290.017         GPS_NMEA_FROM_GPS    iGPS            $GPGGA,195009.000,4144.3377,N,06959.5551,W,2,12,0.83,4.1,M,-34.3,M,0000,0000*5F 
291.020         GPS_NMEA_FROM_GPS    iGPS            $GPGGA,195010.000,4144.3376,N,06959.5548,W,2,10,0.93,4.1,M,-34.3,M,0000,0000*5D 
292.022         GPS_NMEA_FROM_GPS    iGPS            $GPGGA,195011.000,4144.3376,N,06959.5545,W,2,11,0.90,4.2,M,-34.3,M,0000,0000*50 
293.025         GPS_NMEA_FROM_GPS    iGPS            $GPGGA,195012.000,4144.3376,N,06959.5542,W,2,11,0.90,4.3,M,-34.3,M,0000,0000*55 
294.028         GPS_NMEA_FROM_GPS    iGPS            $GPRMC,195013.000,A,4144.3376,N,06959.5539,W,0.80,95.63,300321,,,D*49 
294.930         GPS_NMEA_FROM_GPS    iGPS            $GPGGA,195014.000,4144.3376,N,06959.5536,W,2,11,0.90,4.4,M,-34.3,M,0000,0000*57 
296.033         GPS_NMEA_FROM_GPS    iGPS            $GPGGA,195015.000,4144.3376,N,06959.5533,W,2,11,0.90,4.4,M,-34.3,M,0000,0000*53 
297.035         GPS_NMEA_FROM_GPS    iGPS            $GPGGA,195016.000,4144.3376,N,06959.5530,W,2,11,0.90,4.5,M,-34.3,M,0000,0000*52 
297.938         GPS_NMEA_FROM_GPS    iGPS            $GPGGA,195017.000,4144.3375,N,06959.5527,W,2,11,0.90,4.6,M,-34.3,M,0000,0000*55 
299.040         GPS_NMEA_FROM_GPS    iGPS            $GPGGA,195018.000,4144.3375,N,06959.5524,W,2,11,0.90,4.6,M,-34.3,M,0000,0000*59 
300.043         GPS_NMEA_FROM_GPS    iGPS            $GPGGA,195019.000,4144.3374,N,06959.5521,W,2,11,0.90,4.7,M,-34.3,M,0000,0000*5D 
301.046         GPS_NMEA_FROM_GPS    iGPS            $GPGGA,195020.000,4144.3374,N,06959.5518,W,2,11,0.90,4.8,M,-34.3,M,0000,0000*52 
302.048         GPS_NMEA_FROM_GPS    iGPS            $GPRMC,195021.000,A,4144.3374,N,06959.5515,W,0.77,98.06,300321,,,D*42 
303.051         GPS_NMEA_FROM_GPS    iGPS            $GPRMC,195022.000,A,4144.3374,N,06959.5513,W,0.76,97.94,300321,,,D*42 
304.053         GPS_NMEA_FROM_GPS    iGPS            $GPGGA,195023.000,4144.3374,N,06959.5510,W,2,11,0.90,4.7,M,-34.3,M,0000,0000*56 
305.056         GPS_NMEA_FROM_GPS    iGPS            $GPGGA,195024.000,4144.3373,N,06959.5507,W,2,11,0.90,4.7,M,-34.3,M,0000,0000*50 
306.058         GPS_NMEA_FROM_GPS    iGPS            $GPGGA,195025.000,4144.3373,N,06959.5504,W,2,11,0.90,4.7,M,-34.3,M,0000,0000*52 
307.061         GPS_NMEA_FROM_GPS    iGPS            $GPGGA,195026.000,4144.3373,N,06959.5502,W,2,11,0.90,4.7,M,-34.3,M,0000,0000*57 
308.064         GPS_NMEA_FROM_GPS    iGPS            $GPRMC,195027.000,A,4144.3373,N,06959.5499,W,0.76,94.18,300321,,,D*44 
308.966         GPS_NMEA_FROM_GPS    iGPS            $GPGGA,195028.000,4144.3373,N,06959.5495,W,2,12,0.83,4.7,M,-34.3,M,0000,0000*57 
310.069         GPS_NMEA_FROM_GPS    iGPS            $GPGGA,195029.000,4144.3373,N,06959.5492,W,2,12,0.83,4.7,M,-34.3,M,0000,0000*51 
310.971         GPS_NMEA_FROM_GPS    iGPS            $GPGGA,195030.000,4144.3373,N,06959.5489,W,2,12,0.83,4.6,M,-34.3,M,0000,0000*52 
312.074         GPS_NMEA_FROM_GPS    iGPS            $GPGGA,195031.000,4144.3373,N,06959.5486,W,2,12,0.83,4.6,M,-34.3,M,0000,0000*5C 
313.076         GPS_NMEA_FROM_GPS    iGPS            $GPGGA,195032.000,4144.3374,N,06959.5483,W,2,12,0.83,4.6,M,-34.3,M,0000,0000*5D 
314.079         GPS_NMEA_FROM_GPS    iGPS            $GPGGA,195033.000,4144.3374,N,06959.5480,W,2,12,0.83,4.6,M,-34.3,M,0000,0000*5F 
315.082         GPS_NMEA_FROM_GPS    iGPS            $GPRMC,195034.000,A,4144.3374,N,06959.5477,W,0.76,86.00,300321,,,D*4B 
316.084         GPS_NMEA_FROM_GPS    iGPS            $GPRMC,195035.000,A,4144.3375,N,06959.5474,W,0.78,85.82,300321,,,D*4F 
317.087         GPS_NMEA_FROM_GPS    iGPS            $GPRMC,195036.000,A,4144.3375,N,06959.5471,W,0.79,85.59,300321,,,D*4E 
317.989         GPS_NMEA_FROM_GPS    iGPS            $GPGGA,195037.000,4144.3375,N,06959.5467,W,2,11,0.90,4.5,M,-34.3,M,0000,0000*51 
319.092         GPS_NMEA_FROM_GPS    iGPS            $GPRMC,195038.000,A,4144.3375,N,06959.5465,W,0.79,86.74,300321,,,D*49 
320.094         GPS_NMEA_FROM_GPS    iGPS            $GPRMC,195039.000,A,4144.3375,N,06959.5461,W,0.79,87.79,300321,,,D*40 
321.097         GPS_NMEA_FROM_GPS    iGPS            $GPRMC,195040.000,A,4144.3375,N,06959.5458,W,0.78,88.96,300321,,,D*4B 
321.999         GPS_NMEA_FROM_GPS    iGPS            $GPGGA,195041.000,4144.3374,N,06959.5455,W,2,11,0.90,4.5,M,-34.3,M,0000,0000*50 
323.002         GPS_NMEA_FROM_GPS    iGPS            $GPGGA,195042.000,4144.3374,N,06959.5453,W,2,11,0.90,4.5,M,-34.3,M,0000,0000*55 
324.003         GPS_NMEA_FROM_GPS    iGPS            $GPGGA,195043.000,4144.3375,N,06959.5450,W,2,11,0.90,4.5,M,-34.3,M,0000,0000*56 
325.107         GPS_NMEA_FROM_GPS    iGPS            $GPRMC,195044.000,A,4144.3374,N,06959.5447,W,0.76,91.54,300321,,,D*48 
326.009         GPS_NMEA_FROM_GPS    iGPS            $GPGGA,195045.000,4144.3374,N,06959.5445,W,2,11,0.90,4.5,M,-34.3,M,0000,0000*55 
327.012         GPS_NMEA_FROM_GPS    iGPS            $GPGGA,195046.000,4144.3374,N,06959.5442,W,2,11,0.90,4.5,M,-34.3,M,0000,0000*51 
328.014         GPS_NMEA_FROM_GPS    iGPS            $GPGGA,195047.000,4144.3374,N,06959.5439,W,2,12,0.83,4.5,M,-34.3,M,0000,0000*5D 
329.017         GPS_NMEA_FROM_GPS    iGPS            $GPGGA,195048.000,4144.3374,N,06959.5436,W,2,12,0.83,4.5,M,-34.3,M,0000,0000*5D 
330.020         GPS_NMEA_FROM_GPS    iGPS            $GPGGA,195049.000,4144.3375,N,06959.5433,W,2,12,0.83,4.5,M,-34.3,M,0000,0000*58 
331.022         GPS_NMEA_FROM_GPS    iGPS            $GPGGA,195050.000,4144.3375,N,06959.5430,W,2,12,0.83,4.5,M,-34.3,M,0000,0000*53 
332.025         GPS_NMEA_FROM_GPS    iGPS            $GPGGA,195051.000,4144.3375,N,06959.5427,W,2,12,0.83,4.5,M,-34.3,M,0000,0000*54 
333.027         GPS_NMEA_FROM_GPS    iGPS            $GPGGA,195052.000,4144.3375,N,06959.5424,W,2,12,0.83,4.5,M,-34.3,M,0000,0000*54 
334.030         GPS_NMEA_FROM_GPS    iGPS            $GPRMC,195053.000,A,4144.3374,N,06959.5421,W,0.79,90.62,300321,,,D*45 
335.032         GPS_NMEA_FROM_GPS    iGPS            $GPGGA,195054.000,4144.3374,N,06959.5418,W,2,12,0.83,4.5,M,-34.3,M,0000,0000*5C 
336.035         GPS_NMEA_FROM_GPS    iGPS            $GPGGA,195055.000,4144.3374,N,06959.5415,W,2,11,0.90,4.5,M,-34.3,M,0000,0000*51 
336.637         GPS_NMEA_FROM_GPS    iGPS            $GPGGA,195056.000,4144.3374,N,06959.5412,W,2,11,0.90,4.5,M,-34.3,M,0000,0000*55 
337.640         GPS_NMEA_FROM_GPS    iGPS            $GPGGA,195057.000,4144.3373,N,06959.5409,W,2,11,0.90,4.5,M,-34.3,M,0000,0000*59 
338.642         GPS_NMEA_FROM_GPS    iGPS            $GPGGA,195058.000,4144.3373,N,06959.5406,W,2,11,0.90,4.5,M,-34.3,M,0000,0000*59 
339.644         GPS_NMEA_FROM_GPS    iGPS            $GPGGA,195059.000,4144.3373,N,06959.5403,W,2,11,0.90,4.6,M,-34.3,M,0000,0000*5E 
340.647         GPS_NMEA_FROM_GPS    iGPS            $GPGGA,195100.000,4144.3373,N,06959.5400,W,2,11,0.90,4.6,M,-34.3,M,0000,0000*50 
341.649         GPS_NMEA_FROM_GPS    iGPS            $GPGGA,195101.000,4144.3373,N,06959.5397,W,2,12,0.83,4.6,M,-34.3,M,0000,0000*59 
342.652         GPS_NMEA_FROM_GPS    iGPS            $GPGGA,195102.000,4144.3373,N,06959.5394,W,2,12,0.83,4.6,M,-34.3,M,0000,0000*59 
343.655         GPS_NMEA_FROM_GPS    iGPS            $GPGGA,195103.000,4144.3373,N,06959.5391,W,2,12,0.83,4.6,M,-34.3,M,0000,0000*5D 
344.657         GPS_NMEA_FROM_GPS    iGPS            $GPGGA,195104.000,4144.3373,N,06959.5388,W,2,11,0.90,4.5,M,-34.3,M,0000,0000*50 
345.660         GPS_NMEA_FROM_GPS    iGPS            $GPGGA,195105.000,4144.3374,N,06959.5385,W,2,11,0.90,4.5,M,-34.3,M,0000,0000*5B 
346.663         GPS_NMEA_FROM_GPS    iGPS            $GPGGA,195106.000,4144.3374,N,06959.5382,W,2,12,0.83,4.5,M,-34.3,M,0000,0000*5E 
347.666         GPS_NMEA_FROM_GPS    iGPS            $GPGGA,195107.000,4144.3374,N,06959.5380,W,2,12,0.83,4.5,M,-34.3,M,0000,0000*5D 
348.668         GPS_NMEA_FROM_GPS    iGPS            $GPGGA,195108.000,4144.3374,N,06959.5377,W,2,11,0.90,4.4,M,-34.3,M,0000,0000*5A 
349.671         GPS_NMEA_FROM_GPS    iGPS            $GPGGA,195109.000,4144.3374,N,06959.5374,W,2,11,0.90,4.4,M,-34.3,M,0000,0000*58 
350.674         GPS_NMEA_FROM_GPS    iGPS            $GPGGA,195110.000,4144.3374,N,06959.5370,W,2,12,0.83,4.4,M,-34.3,M,0000,0000*55 
351.676         GPS_NMEA_FROM_GPS    iGPS            $GPRMC,195111.000,A,4144.3374,N,06959.5367,W,0.76,87.64,300321,,,D*48 
352.680         GPS_NMEA_FROM_GPS    iGPS            $GPGGA,195112.000,4144.3375,N,06959.5364,W,2,11,0.90,4.3,M,-34.3,M,0000,0000*55 
353.682         GPS_NMEA_FROM_GPS    iGPS            $GPGGA,195113.000,4144.3375,N,06959.5362,W,2,12,0.83,4.3,M,-34.3,M,0000,0000*53 
354.685         GPS_NMEA_FROM_GPS    iGPS            $GPRMC,195114.000,A,4144.3375,N,06959.5359,W,0.72,86.47,300321,,,D*45 
355.688         GPS_NMEA_FROM_GPS    iGPS            $GPRMC,195115.000,A,4144.3375,N,06959.5357,W,0.71,85.67,300321,,,D*48 
356.690         GPS_NMEA_FROM_GPS    iGPS            $GPRMC,195116.000,A,4144.3376,N,06959.5354,W,0.77,83.77,300321,,,D*4A 
357.692         GPS_NMEA_FROM_GPS    iGPS            $GPRMC,195117.000,A,4144.3376,N,06959.5351,W,0.73,81.79,300321,,,D*46 
358.695         GPS_NMEA_FROM_GPS    iGPS            $GPRMC,195118.000,A,4144.3377,N,06959.5348,W,0.75,80.19,300321,,,D*41 
359.697         GPS_NMEA_FROM_GPS    iGPS            $GPRMC,195119.000,A,4144.3377,N,06959.5345,W,0.75,78.60,300321,,,D*44 
360.700         GPS_NMEA_FROM_GPS    iGPS            $GPRMC,195120.000,A,4144.3378,N,06959.5342,W,0.75,77.62,300321,,,D*4B 
361.702         GPS_NMEA_FROM_GPS    iGPS            $GPRMC,195121.000,A,4144.3378,N,06959.5339,W,0.74,76.54,300321,,,D*43 
362.705         GPS_NMEA_FROM_GPS    iGPS            $GPRMC,195122.000,A,4144.3379,N,06959.5337,W,0.76,76.31,300321,,,D*4E 
363.607         GPS_NMEA_FROM_GPS    iGPS            $GPGGA,195123.000,4144.3380,N,06959.5334,W,2,12,0.83,3.8,M,-34.3,M,0000,0000*55 
364.710         GPS_NMEA_FROM_GPS    iGPS            $GPRMC,195124.000,A,4144.3380,N,06959.5331,W,0.76,75.66,300321,,,D*49 
366.113         GPS_NMEA_FROM_GPS    iGPS            $GPRMC,195125.000,A,4144.3380,N,06959.5328,W,0.77,75.75,300321,,,D*43 
367.015         GPS_NMEA_FROM_GPS    iGPS            $GPGGA,195126.000,4144.3381,N,06959.5325,W,2,12,0.83,3.7,M,-34.3,M,0000,0000*5E 
368.018         GPS_NMEA_FROM_GPS    iGPS            $GPGGA,195127.000,4144.3381,N,06959.5322,W,2,12,0.83,3.6,M,-34.3,M,0000,0000*59 
369.020         GPS_NMEA_FROM_GPS    iGPS            $GPGGA,195128.000,4144.3382,N,06959.5319,W,2,12,0.83,3.5,M,-34.3,M,0000,0000*5E 
370.023         GPS_NMEA_FROM_GPS    iGPS            $GPGGA,195129.000,4144.3382,N,06959.5316,W,2,12,0.83,3.5,M,-34.3,M,0000,0000*50 
371.026         GPS_NMEA_FROM_GPS    iGPS            $GPGGA,195130.000,4144.3383,N,06959.5313,W,2,12,0.83,3.4,M,-34.3,M,0000,0000*5D 
372.028         GPS_NMEA_FROM_GPS    iGPS            $GPGGA,195131.000,4144.3384,N,06959.5310,W,2,12,0.83,3.3,M,-34.3,M,0000,0000*5F 
373.031         GPS_NMEA_FROM_GPS    iGPS            $GPRMC,195132.000,A,4144.3384,N,06959.5307,W,0.76,74.92,300321,,,D*45 
374.033         GPS_NMEA_FROM_GPS    iGPS            $GPGGA,195133.000,4144.3385,N,06959.5304,W,2,12,0.83,3.2,M,-34.3,M,0000,0000*58 
375.036         GPS_NMEA_FROM_GPS    iGPS            $GPRMC,195134.000,A,4144.3386,N,06959.5302,W,0.75,73.95,300321,,,D*47 
376.039         GPS_NMEA_FROM_GPS    iGPS            $GPGGA,195135.000,4144.3386,N,06959.5299,W,2,12,0.83,3.1,M,-34.3,M,0000,0000*5B 
377.041         GPS_NMEA_FROM_GPS    iGPS            $GPRMC,195136.000,A,4144.3387,N,06959.5296,W,0.77,73.03,300321,,,D*45 
378.044         GPS_NMEA_FROM_GPS    iGPS            $GPGGA,195137.000,4144.3388,N,06959.5294,W,2,12,0.83,3.0,M,-34.3,M,0000,0000*5B 
378.946         GPS_NMEA_FROM_GPS    iGPS            $GPGGA,195138.000,4144.3389,N,06959.5292,W,2,11,0.90,3.0,M,-34.3,M,0000,0000*52 
380.049         GPS_NMEA_FROM_GPS    iGPS            $GPRMC,195139.000,A,4144.3390,N,06959.5289,W,0.79,71.49,300321,,,D*40 
381.052         GPS_NMEA_FROM_GPS    iGPS            $GPGGA,195140.000,4144.3390,N,06959.5286,W,2,12,0.83,3.0,M,-34.3,M,0000,0000*51 
382.054         GPS_NMEA_FROM_GPS    iGPS            $GPGGA,195141.000,4144.3391,N,06959.5284,W,2,12,0.83,2.9,M,-34.3,M,0000,0000*5B 
382.957         GPS_NMEA_FROM_GPS    iGPS            $GPGGA,195142.000,4144.3392,N,06959.5281,W,2,11,0.90,2.8,M,-34.3,M,0000,0000*5E 
384.059         GPS_NMEA_FROM_GPS    iGPS            $GPGGA,195143.000,4144.3393,N,06959.5279,W,2,12,0.83,2.8,M,-34.3,M,0000,0000*58 
385.062         GPS_NMEA_FROM_GPS    iGPS            $GPGGA,195144.000,4144.3394,N,06959.5276,W,2,12,0.83,2.7,M,-34.3,M,0000,0000*58 
386.065         GPS_NMEA_FROM_GPS    iGPS            $GPGGA,195145.000,4144.3394,N,06959.5273,W,2,12,0.83,2.7,M,-34.3,M,0000,0000*5C 
387.067         GPS_NMEA_FROM_GPS    iGPS            $GPGGA,195146.000,4144.3395,N,06959.5270,W,2,12,0.83,2.7,M,-34.3,M,0000,0000*5D 
387.970         GPS_NMEA_FROM_GPS    iGPS            $GPGGA,195147.000,4144.3396,N,06959.5267,W,2,12,0.83,2.7,M,-34.3,M,0000,0000*59 
389.073         GPS_NMEA_FROM_GPS    iGPS            $GPGGA,195148.000,4144.3396,N,06959.5265,W,2,12,0.83,2.6,M,-34.3,M,0000,0000*55 
389.975         GPS_NMEA_FROM_GPS    iGPS            $GPGGA,195149.000,4144.3397,N,06959.5263,W,2,12,0.83,2.6,M,-34.3,M,0000,0000*53 
391.078         GPS_NMEA_FROM_GPS    iGPS            $GPGGA,195150.000,4144.3397,N,06959.5260,W,2,12,0.83,2.6,M,-34.3,M,0000,0000*58 
392.081         GPS_NMEA_FROM_GPS    iGPS            $GPRMC,195151.000,A,4144.3398,N,06959.5258,W,0.76,72.59,300321,,,D*47 
392.983         GPS_NMEA_FROM_GPS    iGPS            $GPGGA,195152.000,4144.3398,N,06959.5256,W,2,12,0.83,2.6,M,-34.3,M,0000,0000*50 
394.085         GPS_NMEA_FROM_GPS    iGPS            $GPGGA,195153.000,4144.3399,N,06959.5253,W,2,11,0.90,2.7,M,-34.3,M,0000,0000*55 
395.088         GPS_NMEA_FROM_GPS    iGPS            $GPRMC,195154.000,A,4144.3399,N,06959.5250,W,0.74,71.04,300321,,,D*42 
395.991         GPS_NMEA_FROM_GPS    iGPS            $GPGGA,195155.000,4144.3400,N,06959.5247,W,2,12,0.83,2.6,M,-34.3,M,0000,0000*51 
397.094         GPS_NMEA_FROM_GPS    iGPS            $GPRMC,195156.000,A,4144.3401,N,06959.5245,W,0.78,70.47,300321,,,D*48 
397.996         GPS_NMEA_FROM_GPS    iGPS            $GPGGA,195157.000,4144.3401,N,06959.5242,W,2,12,0.83,2.6,M,-34.3,M,0000,0000*57 
399.098         GPS_NMEA_FROM_GPS    iGPS            $GPGGA,195158.000,4144.3402,N,06959.5240,W,2,11,0.90,2.5,M,-34.3,M,0000,0000*5B 
400.000         GPS_NMEA_FROM_GPS    iGPS            $GPGGA,195159.000,4144.3404,N,06959.5238,W,2,11,0.90,2.4,M,-34.3,M,0000,0000*52 
401.003         GPS_NMEA_FROM_GPS    iGPS            $GPGGA,195200.000,4144.3405,N,06959.5236,W,2,12,0.83,2.3,M,-34.3,M,0000,0000*54 
402.106         GPS_NMEA_FROM_GPS    iGPS            $GPRMC,195201.000,A,4144.3406,N,06959.5233,W,0.75,66.69,300321,,,D*49 
403.008         GPS_NMEA_FROM_GPS    iGPS            $GPGGA,195202.000,4144.3407,N,06959.5231,W,2,12,0.83,2.2,M,-34.3,M,0000,0000*52 
404.011         GPS_NMEA_FROM_GPS    iGPS            $GPGGA,195203.000,4144.3409,N,06959.5228,W,2,12,0.83,2.2,M,-34.3,M,0000,0000*55 
405.114         GPS_NMEA_FROM_GPS    iGPS            $GPRMC,195204.000,A,4144.3409,N,06959.5226,W,0.77,67.77,300321,,,D*4B 
406.116         GPS_NMEA_FROM_GPS    iGPS            $GPRMC,195205.000,A,4144.3410,N,06959.5223,W,0.78,68.76,300321,,,D*46 
407.018         GPS_NMEA_FROM_GPS    iGPS            $GPGGA,195206.000,4144.3411,N,06959.5220,W,2,12,0.83,2.2,M,-34.3,M,0000,0000*51 
408.021         GPS_NMEA_FROM_GPS    iGPS            $GPGGA,195207.000,4144.3412,N,06959.5217,W,2,12,0.83,2.2,M,-34.3,M,0000,0000*57 
409.023         GPS_NMEA_FROM_GPS    iGPS            $GPGGA,195208.000,4144.3412,N,06959.5214,W,2,11,0.90,2.2,M,-34.3,M,0000,0000*5A 
410.026         GPS_NMEA_FROM_GPS    iGPS            $GPGGA,195209.000,4144.3413,N,06959.5211,W,2,12,0.83,2.1,M,-34.3,M,0000,0000*5D 
411.028         GPS_NMEA_FROM_GPS    iGPS            $GPGGA,195210.000,4144.3414,N,06959.5208,W,2,12,0.83,2.1,M,-34.3,M,0000,0000*5A 
412.031         GPS_NMEA_FROM_GPS    iGPS            $GPGGA,195211.000,4144.3414,N,06959.5205,W,2,12,0.83,2.0,M,-34.3,M,0000,0000*57 
413.034         GPS_NMEA_FROM_GPS    iGPS            $GPGGA,195212.000,4144.3415,N,06959.5202,W,2,12,0.83,2.0,M,-34.3,M,0000,0000*52 
414.037         GPS_NMEA_FROM_GPS    iGPS            $GPGGA,195213.000,4144.3416,N,06959.5199,W,2,12,0.83,1.9,M,-34.3,M,0000,0000*5B 
415.040         GPS_NMEA_FROM_GPS    iGPS            $GPRMC,195214.000,A,4144.3417,N,06959.5196,W,0.77,71.49,300321,,,D*47 
416.042         GPS_NMEA_FROM_GPS    iGPS            $GPGGA,195215.000,4144.3418,N,06959.5194,W,2,11,0.90,1.9,M,-34.3,M,0000,0000*5F 
417.045         GPS_NMEA_FROM_GPS    iGPS            $GPRMC,195216.000,A,4144.3419,N,06959.5192,W,0.77,69.23,300321,,,D*4A 
418.048         GPS_NMEA_FROM_GPS    iGPS            $GPGGA,195217.000,4144.3420,N,06959.5190,W,2,12,0.83,1.8,M,-34.3,M,0000,0000*52 
419.051         GPS_NMEA_FROM_GPS    iGPS            $GPGGA,195218.000,4144.3421,N,06959.5188,W,2,11,0.90,1.8,M,-34.3,M,0000,0000*54 
420.053         GPS_NMEA_FROM_GPS    iGPS            $GPGGA,195219.000,4144.3422,N,06959.5186,W,2,11,0.90,1.8,M,-34.3,M,0000,0000*58 
420.956         GPS_NMEA_FROM_GPS    iGPS            $GPGGA,195220.000,4144.3423,N,06959.5184,W,2,11,0.90,1.8,M,-34.3,M,0000,0000*51 
421.958         GPS_NMEA_FROM_GPS    iGPS            $GPGGA,195221.000,4144.3424,N,06959.5182,W,2,11,0.90,1.8,M,-34.3,M,0000,0000*51 
423.060         GPS_NMEA_FROM_GPS    iGPS            $GPGGA,195222.000,4144.3425,N,06959.5180,W,2,11,0.90,1.7,M,-34.3,M,0000,0000*5E 
423.963         GPS_NMEA_FROM_GPS    iGPS            $GPGGA,195223.000,4144.3427,N,06959.5178,W,2,12,0.83,1.7,M,-34.3,M,0000,0000*5B 
425.066         GPS_NMEA_FROM_GPS    iGPS            $GPGGA,195224.000,4144.3428,N,06959.5176,W,2,10,1.14,1.7,M,-34.3,M,0000,0000*50 
426.068         GPS_NMEA_FROM_GPS    iGPS            $GPGGA,195225.000,4144.3429,N,06959.5174,W,2,11,0.90,1.6,M,-34.3,M,0000,0000*5F 
427.071         GPS_NMEA_FROM_GPS    iGPS            $GPRMC,195226.000,A,4144.3430,N,06959.5172,W,0.72,60.24,300321,,,D*47 
428.073         GPS_NMEA_FROM_GPS    iGPS            $GPRMC,195227.000,A,4144.3431,N,06959.5170,W,0.74,58.63,300321,,,D*4B 
429.076         GPS_NMEA_FROM_GPS    iGPS            $GPGGA,195228.000,4144.3433,N,06959.5168,W,2,11,0.90,1.5,M,-34.3,M,0000,0000*57 
430.078         GPS_NMEA_FROM_GPS    iGPS            $GPRMC,195229.000,A,4144.3434,N,06959.5166,W,0.72,55.39,300321,,,D*43 
431.081         GPS_NMEA_FROM_GPS    iGPS            $GPGGA,195230.000,4144.3435,N,06959.5164,W,2,11,0.90,1.5,M,-34.3,M,0000,0000*54 
431.983         GPS_NMEA_FROM_GPS    iGPS            $GPGGA,195231.000,4144.3436,N,06959.5162,W,2,11,0.90,1.5,M,-34.3,M,0000,0000*50 
433.086         GPS_NMEA_FROM_GPS    iGPS            $GPGGA,195232.000,4144.3438,N,06959.5160,W,2,11,0.90,1.4,M,-34.3,M,0000,0000*5E 
434.089         GPS_NMEA_FROM_GPS    iGPS            $GPRMC,195233.000,A,4144.3439,N,06959.5158,W,0.76,49.00,300321,,,D*4B 
434.991         GPS_NMEA_FROM_GPS    iGPS            $GPGGA,195234.000,4144.3441,N,06959.5156,W,2,12,0.83,1.5,M,-34.3,M,0000,0000*53 
435.994         GPS_NMEA_FROM_GPS    iGPS            $GPGGA,195235.000,4144.3442,N,06959.5154,W,2,11,0.90,1.5,M,-34.3,M,0000,0000*52 
436.997         GPS_NMEA_FROM_GPS    iGPS            $GPGGA,195236.000,4144.3444,N,06959.5152,W,2,11,0.90,1.5,M,-34.3,M,0000,0000*51 
438.101         GPS_NMEA_FROM_GPS    iGPS            $GPRMC,195237.000,A,4144.3445,N,06959.5150,W,0.78,44.62,300321,,,D*4B 
439.003         GPS_NMEA_FROM_GPS    iGPS            $GPGGA,195238.000,4144.3447,N,06959.5148,W,2,11,0.90,1.5,M,-34.3,M,0000,0000*57 
440.005         GPS_NMEA_FROM_GPS    iGPS            $GPRMC,195239.000,A,4144.3449,N,06959.5146,W,0.79,42.93,300321,,,D*47 
441.008         GPS_NMEA_FROM_GPS    iGPS            $GPGGA,195240.000,4144.3451,N,06959.5145,W,2,12,0.83,1.5,M,-34.3,M,0000,0000*53 
442.010         GPS_NMEA_FROM_GPS    iGPS            $GPGGA,195241.000,4144.3453,N,06959.5143,W,2,12,0.83,1.5,M,-34.3,M,0000,0000*56 
443.013         GPS_NMEA_FROM_GPS    iGPS            $GPGGA,195242.000,4144.3454,N,06959.5141,W,2,12,0.83,1.5,M,-34.3,M,0000,0000*50 
444.016         GPS_NMEA_FROM_GPS    iGPS            $GPGGA,195243.000,4144.3456,N,06959.5139,W,2,12,0.83,1.6,M,-34.3,M,0000,0000*5F 
444.919         GPS_NMEA_FROM_GPS    iGPS            $GPGGA,195244.000,4144.3458,N,06959.5138,W,2,11,0.90,1.6,M,-34.3,M,0000,0000*56 
446.022         GPS_NMEA_FROM_GPS    iGPS            $GPRMC,195245.000,A,4144.3460,N,06959.5136,W,0.79,40.29,300321,,,D*43 
447.024         GPS_NMEA_FROM_GPS    iGPS            $GPGGA,195246.000,4144.3462,N,06959.5134,W,2,11,0.90,1.6,M,-34.3,M,0000,0000*51 
448.027         GPS_NMEA_FROM_GPS    iGPS            $GPGGA,195247.000,4144.3463,N,06959.5133,W,2,12,0.83,1.6,M,-34.3,M,0000,0000*57 
449.029         GPS_NMEA_FROM_GPS    iGPS            $GPGGA,195248.000,4144.3465,N,06959.5131,W,2,12,0.83,1.7,M,-34.3,M,0000,0000*5D 
450.032         GPS_NMEA_FROM_GPS    iGPS            $GPGGA,195249.000,4144.3467,N,06959.5130,W,2,11,0.90,1.7,M,-34.3,M,0000,0000*5E 
451.035         GPS_NMEA_FROM_GPS    iGPS            $GPRMC,195250.000,A,4144.3468,N,06959.5128,W,0.80,37.50,300321,,,D*48 
452.037         GPS_NMEA_FROM_GPS    iGPS            $GPGGA,195251.000,4144.3470,N,06959.5127,W,2,12,0.83,1.7,M,-34.3,M,0000,0000*56 
