2.164           GPS_NMEA_FROM_GPS    iGPS            $GPGGA,212241.000,4144.3602,N,06959.5816,W,2,11,1.03,8.3,M,-34.3,M,0000,0000*50 
3.267           GPS_NMEA_FROM_GPS    iGPS            $GPRMC,212242.000,A,4144.3602,N,06959.5816,W,0.03,7.05,210321,,,D*75 
3.267           GPS_NMEA_FROM_GPS    iGPS            $GPRMC,212242.000,A,4144.3602,N,06959.5816,W,0.03,7.05,210321,,,D*75 
4.270           GPS_NMEA_FROM_GPS    iGPS            $GPGGA,212243.000,4144.3602,N,06959.5816,W,2,12,1.01,8.3,M,-34.3,M,0000,0000*53 
5.172           GPS_NMEA_FROM_GPS    iGPS            $GPGGA,212244.000,4144.3602,N,06959.5816,W,2,11,1.03,8.3,M,-34.3,M,0000,0000*55 
5.172           GPS_NMEA_FROM_GPS    iGPS            $GPGGA,212244.000,4144.3602,N,06959.5816,W,2,11,1.03,8.3,M,-34.3,M,0000,0000*55 
6.275           GPS_NMEA_FROM_GPS    iGPS            $GPGGA,212245.000,4144.3602,N,06959.5816,W,2,11,1.03,8.3,M,-34.3,M,0000,0000*54 
6.275           GPS_NMEA_FROM_GPS    iGPS            $GPGGA,212245.000,4144.3602,N,06959.5816,W,2,11,1.03,8.3,M,-34.3,M,0000,0000*54 
7.277           GPS_NMEA_FROM_GPS    iGPS            $GPGGA,212246.000,4144.3602,N,06959.5816,W,2,12,1.01,8.3,M,-34.3,M,0000,0000*56 
8.280           GPS_NMEA_FROM_GPS    iGPS            $GPGGA,212247.000,4144.3602,N,06959.5816,W,2,12,1.01,8.3,M,-34.3,M,0000,0000*57 
9.282           GPS_NMEA_FROM_GPS    iGPS            $GPGGA,212248.000,4144.3602,N,06959.5816,W,2,12,1.01,8.3,M,-34.3,M,0000,0000*58 
10.285          GPS_NMEA_FROM_GPS    iGPS            $GPGGA,212249.000,4144.3602,N,06959.5816,W,2,11,1.03,8.3,M,-34.3,M,0000,0000*58 
11.187          GPS_NMEA_FROM_GPS    iGPS            $GPGGA,212250.000,4144.3602,N,06959.5816,W,2,11,1.03,8.3,M,-34.3,M,0000,0000*50 
11.187          GPS_NMEA_FROM_GPS    iGPS            $GPGGA,212250.000,4144.3602,N,06959.5816,W,2,11,1.03,8.3,M,-34.3,M,0000,0000*50 
12.290          GPS_NMEA_FROM_GPS    iGPS            $GPRMC,212251.000,A,4144.3602,N,06959.5816,W,0.02,343.65,210321,,,D*73 
12.290          GPS_NMEA_FROM_GPS    iGPS            $GPRMC,212251.000,A,4144.3602,N,06959.5816,W,0.02,343.65,210321,,,D*73 
13.293          GPS_NMEA_FROM_GPS    iGPS            $GPRMC,212252.000,A,4144.3602,N,06959.5816,W,0.01,9.88,210321,,,D*7D 
14.296          GPS_NMEA_FROM_GPS    iGPS            $GPRMC,212253.000,A,4144.3602,N,06959.5816,W,0.01,13.26,210321,,,D*43 
15.299          GPS_NMEA_FROM_GPS    iGPS            $GPRMC,212254.000,A,4144.3602,N,06959.5816,W,0.01,2.56,210321,,,D*73 
16.201          GPS_NMEA_FROM_GPS    iGPS            $GPGGA,212255.000,4144.3602,N,06959.5816,W,2,12,1.01,8.3,M,-34.3,M,0000,0000*54 
17.203          GPS_NMEA_FROM_GPS    iGPS            $GPGGA,212256.000,4144.3602,N,06959.5816,W,2,12,1.01,8.3,M,-34.3,M,0000,0000*57 
18.206          GPS_NMEA_FROM_GPS    iGPS            $GPGGA,212257.000,4144.3602,N,06959.5816,W,2,12,1.01,8.3,M,-34.3,M,0000,0000*56 
19.209          GPS_NMEA_FROM_GPS    iGPS            $GPGGA,212258.000,4144.3602,N,06959.5816,W,2,12,1.01,8.3,M,-34.3,M,0000,0000*59 
20.211          GPS_NMEA_FROM_GPS    iGPS            $GPGGA,212259.000,4144.3602,N,06959.5816,W,2,12,1.01,8.3,M,-34.3,M,0000,0000*58 
21.114          GPS_NMEA_FROM_GPS    iGPS            $GPGGA,212300.000,4144.3602,N,06959.5816,W,2,11,1.03,8.3,M,-34.3,M,0000,0000*54 
22.217          GPS_NMEA_FROM_GPS    iGPS            $GPGGA,212301.000,4144.3602,N,06959.5816,W,2,12,1.01,8.3,M,-34.3,M,0000,0000*54 
23.220          GPS_NMEA_FROM_GPS    iGPS            $GPGGA,212302.000,4144.3602,N,06959.5816,W,2,11,1.03,8.3,M,-34.3,M,0000,0000*56 
24.122          GPS_NMEA_FROM_GPS    iGPS            $GPGGA,212303.000,4144.3602,N,06959.5816,W,2,11,1.03,8.3,M,-34.3,M,0000,0000*57 
25.225          GPS_NMEA_FROM_GPS    iGPS            $GPGGA,212304.000,4144.3602,N,06959.5816,W,2,11,1.03,8.3,M,-34.3,M,0000,0000*50 
26.228          GPS_NMEA_FROM_GPS    iGPS            $GPRMC,212305.000,A,4144.3602,N,06959.5816,W,0.04,165.30,210321,,,D*73 
27.230          GPS_NMEA_FROM_GPS    iGPS            $GPGGA,212306.000,4144.3602,N,06959.5816,W,2,12,1.01,8.3,M,-34.3,M,0000,0000*53 
28.233          GPS_NMEA_FROM_GPS    iGPS            $GPGGA,212307.000,4144.3602,N,06959.5816,W,2,12,1.01,8.3,M,-34.3,M,0000,0000*52 
29.236          GPS_NMEA_FROM_GPS    iGPS            $GPGGA,212308.000,4144.3602,N,06959.5816,W,2,12,1.01,8.3,M,-34.3,M,0000,0000*5D 
30.238          GPS_NMEA_FROM_GPS    iGPS            $GPGGA,212309.000,4144.3602,N,06959.5816,W,2,12,1.01,8.3,M,-34.3,M,0000,0000*5C 
31.241          GPS_NMEA_FROM_GPS    iGPS            $GPGGA,212310.000,4144.3602,N,06959.5816,W,2,12,1.01,8.3,M,-34.3,M,0000,0000*54 
32.244          GPS_NMEA_FROM_GPS    iGPS            $GPGGA,212311.000,4144.3602,N,06959.5816,W,2,12,0.89,8.3,M,-34.3,M,0000,0000*54 
33.247          GPS_NMEA_FROM_GPS    iGPS            $GPGGA,212312.000,4144.3601,N,06959.5816,W,2,12,0.89,8.3,M,-34.3,M,0000,0000*54 
34.249          GPS_NMEA_FROM_GPS    iGPS            $GPGGA,212313.000,4144.3599,N,06959.5816,W,2,12,1.01,8.3,M,-34.3,M,0000,0000*56 
35.152          GPS_NMEA_FROM_GPS    iGPS            $GPGGA,212314.000,4144.3597,N,06959.5817,W,2,12,0.89,8.3,M,-34.3,M,0000,0000*5F 
36.255          GPS_NMEA_FROM_GPS    iGPS            $GPRMC,212315.000,A,4144.3595,N,06959.5818,W,0.78,183.64,210321,,,D*73 
37.157          GPS_NMEA_FROM_GPS    iGPS            $GPGGA,212316.000,4144.3593,N,06959.5818,W,2,12,0.89,8.3,M,-34.3,M,0000,0000*56 
38.260          GPS_NMEA_FROM_GPS    iGPS            $GPGGA,212317.000,4144.3591,N,06959.5819,W,2,12,0.89,8.2,M,-34.3,M,0000,0000*55 
39.263          GPS_NMEA_FROM_GPS    iGPS            $GPRMC,212318.000,A,4144.3589,N,06959.5819,W,0.81,179.93,210321,,,D*79 
40.265          GPS_NMEA_FROM_GPS    iGPS            $GPGGA,212319.000,4144.3587,N,06959.5819,W,2,12,0.89,8.2,M,-34.3,M,0000,0000*5C 
41.268          GPS_NMEA_FROM_GPS    iGPS            $GPRMC,212320.000,A,4144.3585,N,06959.5820,W,0.81,177.21,210321,,,D*73 
42.270          GPS_NMEA_FROM_GPS    iGPS            $GPRMC,212321.000,A,4144.3583,N,06959.5820,W,0.77,176.41,210321,,,D*7A 
43.172          GPS_NMEA_FROM_GPS    iGPS            $GPGGA,212322.000,4144.3581,N,06959.5820,W,2,12,0.89,8.2,M,-34.3,M,0000,0000*58 
44.175          GPS_NMEA_FROM_GPS    iGPS            $GPGGA,212323.000,4144.3579,N,06959.5821,W,2,12,0.89,8.2,M,-34.3,M,0000,0000*5F 
45.178          GPS_NMEA_FROM_GPS    iGPS            $GPGGA,212324.000,4144.3578,N,06959.5821,W,2,12,0.89,8.2,M,-34.3,M,0000,0000*59 
46.281          GPS_NMEA_FROM_GPS    iGPS            $GPRMC,212325.000,A,4144.3576,N,06959.5821,W,0.78,175.10,210321,,,D*7D 
47.183          GPS_NMEA_FROM_GPS    iGPS            $GPGGA,212326.000,4144.3574,N,06959.5822,W,2,12,0.89,8.2,M,-34.3,M,0000,0000*54 
48.286          GPS_NMEA_FROM_GPS    iGPS            $GPRMC,212327.000,A,4144.3572,N,06959.5822,W,0.82,174.72,210321,,,D*78 
49.188          GPS_NMEA_FROM_GPS    iGPS            $GPGGA,212328.000,4144.3570,N,06959.5822,W,2,12,0.89,8.2,M,-34.3,M,0000,0000*5E 
50.191          GPS_NMEA_FROM_GPS    iGPS            $GPGGA,212329.000,4144.3568,N,06959.5822,W,2,12,0.89,8.2,M,-34.3,M,0000,0000*56 
51.194          GPS_NMEA_FROM_GPS    iGPS            $GPGGA,212330.000,4144.3566,N,06959.5822,W,2,12,0.89,8.2,M,-34.3,M,0000,0000*50 
52.196          GPS_NMEA_FROM_GPS    iGPS            $GPGGA,212331.000,4144.3564,N,06959.5822,W,2,12,0.89,8.2,M,-34.3,M,0000,0000*53 
53.199          GPS_NMEA_FROM_GPS    iGPS            $GPGGA,212332.000,4144.3562,N,06959.5822,W,2,12,0.89,8.2,M,-34.3,M,0000,0000*56 
54.202          GPS_NMEA_FROM_GPS    iGPS            $GPGGA,212333.000,4144.3560,N,06959.5821,W,2,12,0.89,8.2,M,-34.3,M,0000,0000*56 
55.206          GPS_NMEA_FROM_GPS    iGPS            $GPGGA,212334.000,4144.3558,N,06959.5821,W,2,12,0.89,8.2,M,-34.3,M,0000,0000*5A 
56.211          GPS_NMEA_FROM_GPS    iGPS            $GPRMC,212335.000,A,4144.3556,N,06959.5821,W,0.73,172.48,210321,,,D*7F 
57.214          GPS_NMEA_FROM_GPS    iGPS            $GPGGA,212336.000,4144.3555,N,06959.5822,W,2,12,0.89,8.3,M,-34.3,M,0000,0000*57 
58.216          GPS_NMEA_FROM_GPS    iGPS            $GPGGA,212337.000,4144.3553,N,06959.5822,W,2,12,0.89,8.3,M,-34.3,M,0000,0000*50 
59.219          GPS_NMEA_FROM_GPS    iGPS            $GPRMC,212338.000,A,4144.3551,N,06959.5822,W,0.74,174.17,210321,,,D*7D 
60.222          GPS_NMEA_FROM_GPS    iGPS            $GPGGA,212339.000,4144.3549,N,06959.5822,W,2,12,0.89,8.4,M,-34.3,M,0000,0000*52 
61.224          GPS_NMEA_FROM_GPS    iGPS            $GPGGA,212340.000,4144.3547,N,06959.5822,W,2,12,0.89,8.4,M,-34.3,M,0000,0000*52 
62.227          GPS_NMEA_FROM_GPS    iGPS            $GPGGA,212341.000,4144.3545,N,06959.5822,W,2,12,0.89,8.4,M,-34.3,M,0000,0000*51 
63.229          GPS_NMEA_FROM_GPS    iGPS            $GPGGA,212342.000,4144.3543,N,06959.5821,W,2,12,0.89,8.5,M,-34.3,M,0000,0000*56 
64.232          GPS_NMEA_FROM_GPS    iGPS            $GPGGA,212343.000,4144.3541,N,06959.5821,W,2,12,0.89,8.5,M,-34.3,M,0000,0000*55 
65.236          GPS_NMEA_FROM_GPS    iGPS            $GPRMC,212344.000,A,4144.3538,N,06959.5821,W,0.88,173.01,210321,,,D*79 
66.137          GPS_NMEA_FROM_GPS    iGPS            $GPGGA,212345.000,4144.3536,N,06959.5821,W,2,12,0.89,8.6,M,-34.3,M,0000,0000*50 
67.240          GPS_NMEA_FROM_GPS    iGPS            $GPGGA,212346.000,4144.3535,N,06959.5821,W,2,12,0.89,8.6,M,-34.3,M,0000,0000*50 
68.142          GPS_NMEA_FROM_GPS    iGPS            $GPGGA,212347.000,4144.3533,N,06959.5821,W,2,12,0.89,8.6,M,-34.3,M,0000,0000*57 
69.145          GPS_NMEA_FROM_GPS    iGPS            $GPGGA,212348.000,4144.3531,N,06959.5821,W,2,12,0.89,8.6,M,-34.3,M,0000,0000*5A 
70.248          GPS_NMEA_FROM_GPS    iGPS            $GPGGA,212349.000,4144.3529,N,06959.5821,W,2,12,0.89,8.6,M,-34.3,M,0000,0000*52 
71.251          GPS_NMEA_FROM_GPS    iGPS            $GPGGA,212350.000,4144.3528,N,06959.5821,W,2,12,0.89,8.6,M,-34.3,M,0000,0000*5B 
72.254          GPS_NMEA_FROM_GPS    iGPS            $GPGGA,212351.000,4144.3525,N,06959.5821,W,2,12,0.89,8.6,M,-34.3,M,0000,0000*57 
73.256          GPS_NMEA_FROM_GPS    iGPS            $GPGGA,212352.000,4144.3523,N,06959.5821,W,2,12,0.89,8.6,M,-34.3,M,0000,0000*52 
74.259          GPS_NMEA_FROM_GPS    iGPS            $GPGGA,212353.000,4144.3521,N,06959.5821,W,2,12,0.89,8.6,M,-34.3,M,0000,0000*51 
75.262          GPS_NMEA_FROM_GPS    iGPS            $GPRMC,212354.000,A,4144.3519,N,06959.5821,W,0.87,169.41,210321,,,D*7B 
76.264          GPS_NMEA_FROM_GPS    iGPS            $GPGGA,212355.000,4144.3517,N,06959.5821,W,2,12,0.89,8.7,M,-34.3,M,0000,0000*53 
77.267          GPS_NMEA_FROM_GPS    iGPS            $GPRMC,212356.000,A,4144.3514,N,06959.5821,W,0.83,169.52,210321,,,D*72 
78.269          GPS_NMEA_FROM_GPS    iGPS            $GPGGA,212357.000,4144.3512,N,06959.5820,W,2,12,0.89,8.8,M,-34.3,M,0000,0000*5A 
79.172          GPS_NMEA_FROM_GPS    iGPS            $GPGGA,212358.000,4144.3510,N,06959.5820,W,2,12,0.89,8.8,M,-34.3,M,0000,0000*57 
80.276          GPS_NMEA_FROM_GPS    iGPS            $GPRMC,212359.000,A,4144.3508,N,06959.5820,W,0.78,171.65,210321,,,D*78 
81.278          GPS_NMEA_FROM_GPS    iGPS            $GPGGA,212400.000,4144.3506,N,06959.5820,W,2,12,0.89,8.7,M,-34.3,M,0000,0000*55 
82.281          GPS_NMEA_FROM_GPS    iGPS            $GPRMC,212401.000,A,4144.3504,N,06959.5820,W,0.74,173.15,210321,,,D*77 
83.183          GPS_NMEA_FROM_GPS    iGPS            $GPGGA,212402.000,4144.3502,N,06959.5820,W,2,12,0.89,8.7,M,-34.3,M,0000,0000*53 
84.286          GPS_NMEA_FROM_GPS    iGPS            $GPRMC,212403.000,A,4144.3500,N,06959.5819,W,0.82,173.18,210321,,,D*7F 
85.188          GPS_NMEA_FROM_GPS    iGPS            $GPGGA,212404.000,4144.3498,N,06959.5819,W,2,12,0.89,8.8,M,-34.3,M,0000,0000*52 
86.191          GPS_NMEA_FROM_GPS    iGPS            $GPGGA,212405.000,4144.3496,N,06959.5819,W,2,12,0.89,8.8,M,-34.3,M,0000,0000*5D 
87.193          GPS_NMEA_FROM_GPS    iGPS            $GPGGA,212406.000,4144.3494,N,06959.5818,W,2,12,0.89,8.9,M,-34.3,M,0000,0000*5C 
88.196          GPS_NMEA_FROM_GPS    iGPS            $GPGGA,212407.000,4144.3491,N,06959.5818,W,2,11,0.98,9.0,M,-34.3,M,0000,0000*53 
89.199          GPS_NMEA_FROM_GPS    iGPS            $GPGGA,212408.000,4144.3489,N,06959.5817,W,2,11,0.98,9.0,M,-34.3,M,0000,0000*5A 
90.201          GPS_NMEA_FROM_GPS    iGPS            $GPGGA,212409.000,4144.3487,N,06959.5816,W,2,11,0.98,9.1,M,-34.3,M,0000,0000*55 
91.204          GPS_NMEA_FROM_GPS    iGPS            $GPRMC,212410.000,A,4144.3485,N,06959.5816,W,0.81,170.44,210321,,,D*77 
92.307          GPS_NMEA_FROM_GPS    iGPS            $GPRMC,212411.000,A,4144.3483,N,06959.5816,W,0.77,169.77,210321,,,D*71 
93.209          GPS_NMEA_FROM_GPS    iGPS            $GPGGA,212412.000,4144.3481,N,06959.5815,W,2,11,0.98,9.1,M,-34.3,M,0000,0000*5A 
94.211          GPS_NMEA_FROM_GPS    iGPS            $GPGGA,212413.000,4144.3479,N,06959.5815,W,2,11,0.98,9.1,M,-34.3,M,0000,0000*5C 
95.214          GPS_NMEA_FROM_GPS    iGPS            $GPRMC,212414.000,A,4144.3477,N,06959.5815,W,0.70,169.17,210321,,,D*7D 
96.217          GPS_NMEA_FROM_GPS    iGPS            $GPGGA,212415.000,4144.3475,N,06959.5815,W,2,11,0.98,9.0,M,-34.3,M,0000,0000*57 
97.219          GPS_NMEA_FROM_GPS    iGPS            $GPGGA,212416.000,4144.3473,N,06959.5814,W,2,11,0.98,9.0,M,-34.3,M,0000,0000*53 
98.222          GPS_NMEA_FROM_GPS    iGPS            $GPGGA,212417.000,4144.3471,N,06959.5814,W,2,11,0.98,9.1,M,-34.3,M,0000,0000*51 
99.225          GPS_NMEA_FROM_GPS    iGPS            $GPGGA,212418.000,4144.3469,N,06959.5814,W,2,11,0.98,9.1,M,-34.3,M,0000,0000*57 
100.227         GPS_NMEA_FROM_GPS    iGPS            $GPGGA,212419.000,4144.3467,N,06959.5814,W,2,11,0.98,9.2,M,-34.3,M,0000,0000*5B 
101.230         GPS_NMEA_FROM_GPS    iGPS            $GPRMC,212420.000,A,4144.3465,N,06959.5813,W,0.80,168.65,210321,,,D*74 
102.232         GPS_NMEA_FROM_GPS    iGPS            $GPGGA,212421.000,4144.3463,N,06959.5813,W,2,11,0.98,9.3,M,-34.3,M,0000,0000*52 
103.235         GPS_NMEA_FROM_GPS    iGPS            $GPGGA,212422.000,4144.3461,N,06959.5812,W,2,11,0.98,9.3,M,-34.3,M,0000,0000*52 
104.238         GPS_NMEA_FROM_GPS    iGPS            $GPGGA,212423.000,4144.3459,N,06959.5811,W,2,11,0.98,9.3,M,-34.3,M,0000,0000*5B 
105.240         GPS_NMEA_FROM_GPS    iGPS            $GPGGA,212424.000,4144.3457,N,06959.5811,W,2,11,0.98,9.3,M,-34.3,M,0000,0000*52 
106.243         GPS_NMEA_FROM_GPS    iGPS            $GPGGA,212425.000,4144.3455,N,06959.5811,W,2,11,0.98,9.3,M,-34.3,M,0000,0000*51 
107.246         GPS_NMEA_FROM_GPS    iGPS            $GPRMC,212426.000,A,4144.3453,N,06959.5810,W,0.74,171.78,210321,,,D*7B 
108.148         GPS_NMEA_FROM_GPS    iGPS            $GPGGA,212427.000,4144.3451,N,06959.5810,W,2,11,0.98,9.3,M,-34.3,M,0000,0000*56 
109.151         GPS_NMEA_FROM_GPS    iGPS            $GPGGA,212428.000,4144.3449,N,06959.5809,W,2,11,0.98,9.3,M,-34.3,M,0000,0000*58 
110.154         GPS_NMEA_FROM_GPS    iGPS            $GPGGA,212429.000,4144.3447,N,06959.5809,W,2,11,0.98,9.3,M,-34.3,M,0000,0000*57 
111.257         GPS_NMEA_FROM_GPS    iGPS            $GPRMC,212430.000,A,4144.3444,N,06959.5808,W,0.82,172.52,210321,,,D*71 
112.159         GPS_NMEA_FROM_GPS    iGPS            $GPGGA,212431.000,4144.3442,N,06959.5808,W,2,10,1.00,9.4,M,-34.3,M,0000,0000*5C 
113.262         GPS_NMEA_FROM_GPS    iGPS            $GPRMC,212432.000,A,4144.3439,N,06959.5808,W,0.86,172.13,210321,,,D*78 
114.164         GPS_NMEA_FROM_GPS    iGPS            $GPGGA,212433.000,4144.3437,N,06959.5808,W,2,10,1.00,9.6,M,-34.3,M,0000,0000*5E 
115.267         GPS_NMEA_FROM_GPS    iGPS            $GPRMC,212434.000,A,4144.3435,N,06959.5807,W,0.76,171.87,210321,,,D*7C 
116.270         GPS_NMEA_FROM_GPS    iGPS            $GPRMC,212435.000,A,4144.3432,N,06959.5807,W,0.79,171.89,210321,,,D*7B 
117.172         GPS_NMEA_FROM_GPS    iGPS            $GPGGA,212436.000,4144.3430,N,06959.5807,W,2,11,0.98,9.6,M,-34.3,M,0000,0000*52 
118.275         GPS_NMEA_FROM_GPS    iGPS            $GPRMC,212437.000,A,4144.3428,N,06959.5806,W,0.72,171.25,210321,,,D*7E 
119.277         GPS_NMEA_FROM_GPS    iGPS            $GPRMC,212438.000,A,4144.3426,N,06959.5806,W,0.73,170.66,210321,,,D*78 
120.280         GPS_NMEA_FROM_GPS    iGPS            $GPRMC,212439.000,A,4144.3424,N,06959.5805,W,0.75,170.61,210321,,,D*79 
121.182         GPS_NMEA_FROM_GPS    iGPS            $GPGGA,212440.000,4144.3422,N,06959.5805,W,2,11,0.98,9.5,M,-34.3,M,0000,0000*51 
122.185         GPS_NMEA_FROM_GPS    iGPS            $GPGGA,212441.000,4144.3420,N,06959.5804,W,2,11,0.98,9.5,M,-34.3,M,0000,0000*53 
123.187         GPS_NMEA_FROM_GPS    iGPS            $GPGGA,212442.000,4144.3417,N,06959.5804,W,2,11,0.98,9.6,M,-34.3,M,0000,0000*57 
124.190         GPS_NMEA_FROM_GPS    iGPS            $GPGGA,212443.000,4144.3415,N,06959.5803,W,2,11,0.98,9.7,M,-34.3,M,0000,0000*52 
125.293         GPS_NMEA_FROM_GPS    iGPS            $GPGGA,212444.000,4144.3412,N,06959.5803,W,2,11,0.98,9.8,M,-34.3,M,0000,0000*5D 
126.296         GPS_NMEA_FROM_GPS    iGPS            $GPRMC,212445.000,A,4144.3410,N,06959.5802,W,0.79,172.77,210321,,,D*7B 
127.198         GPS_NMEA_FROM_GPS    iGPS            $GPGGA,212446.000,4144.3408,N,06959.5802,W,2,11,0.98,9.9,M,-34.3,M,0000,0000*54 
128.201         GPS_NMEA_FROM_GPS    iGPS            $GPGGA,212447.000,4144.3406,N,06959.5802,W,2,11,0.98,9.9,M,-34.3,M,0000,0000*5B 
129.204         GPS_NMEA_FROM_GPS    iGPS            $GPRMC,212448.000,A,4144.3404,N,06959.5801,W,0.76,174.80,210321,,,D*71 
130.206         GPS_NMEA_FROM_GPS    iGPS            $GPGGA,212449.000,4144.3402,N,06959.5801,W,2,11,0.98,9.8,M,-34.3,M,0000,0000*53 
131.209         GPS_NMEA_FROM_GPS    iGPS            $GPRMC,212450.000,A,4144.3400,N,06959.5801,W,0.70,175.22,210321,,,D*73 
132.211         GPS_NMEA_FROM_GPS    iGPS            $GPGGA,212451.000,4144.3398,N,06959.5800,W,2,11,0.98,9.8,M,-34.3,M,0000,0000*5F 
133.114         GPS_NMEA_FROM_GPS    iGPS            $GPGGA,212452.000,4144.3396,N,06959.5799,W,2,10,1.00,9.8,M,-34.3,M,0000,0000*5C 
134.217         GPS_NMEA_FROM_GPS    iGPS            $GPGGA,212453.000,4144.3394,N,06959.5799,W,2,11,0.98,9.8,M,-34.3,M,0000,0000*5E 
135.119         GPS_NMEA_FROM_GPS    iGPS            $GPGGA,212454.000,4144.3392,N,06959.5798,W,2,10,1.00,9.9,M,-34.3,M,0000,0000*5E 
136.222         GPS_NMEA_FROM_GPS    iGPS            $GPGGA,212455.000,4144.3389,N,06959.5797,W,2,11,0.98,9.9,M,-34.3,M,0000,0000*5B 
137.225         GPS_NMEA_FROM_GPS    iGPS            $GPGGA,212456.000,4144.3387,N,06959.5797,W,2,11,0.98,10.0,M,-34.3,M,0000,0000*67 
138.228         GPS_NMEA_FROM_GPS    iGPS            $GPGGA,212457.000,4144.3385,N,06959.5796,W,2,11,0.98,10.1,M,-34.3,M,0000,0000*64 
139.230         GPS_NMEA_FROM_GPS    iGPS            $GPGGA,212458.000,4144.3382,N,06959.5795,W,2,11,0.98,10.1,M,-34.3,M,0000,0000*6F 
140.233         GPS_NMEA_FROM_GPS    iGPS            $GPGGA,212459.000,4144.3380,N,06959.5795,W,2,11,0.98,10.1,M,-34.3,M,0000,0000*6C 
141.136         GPS_NMEA_FROM_GPS    iGPS            $GPGGA,212500.000,4144.3378,N,06959.5795,W,2,11,0.98,10.1,M,-34.3,M,0000,0000*66 
142.239         GPS_NMEA_FROM_GPS    iGPS            $GPGGA,212501.000,4144.3376,N,06959.5795,W,2,11,0.98,10.1,M,-34.3,M,0000,0000*69 
143.242         GPS_NMEA_FROM_GPS    iGPS            $GPRMC,212502.000,A,4144.3374,N,06959.5794,W,0.76,173.90,210321,,,D*7B 
144.244         GPS_NMEA_FROM_GPS    iGPS            $GPGGA,212503.000,4144.3372,N,06959.5794,W,2,11,0.98,10.0,M,-34.3,M,0000,0000*6F 
145.247         GPS_NMEA_FROM_GPS    iGPS            $GPGGA,212504.000,4144.3370,N,06959.5793,W,2,10,1.00,10.0,M,-34.3,M,0000,0000*6C 
146.250         GPS_NMEA_FROM_GPS    iGPS            $GPRMC,212505.000,A,4144.3368,N,06959.5793,W,0.82,174.00,210321,,,D*73 
147.253         GPS_NMEA_FROM_GPS    iGPS            $GPRMC,212506.000,A,4144.3366,N,06959.5793,W,0.83,173.69,210321,,,D*77 
148.255         GPS_NMEA_FROM_GPS    iGPS            $GPGGA,212507.000,4144.3364,N,06959.5792,W,2,11,0.98,10.2,M,-34.3,M,0000,0000*68 
149.258         GPS_NMEA_FROM_GPS    iGPS            $GPGGA,212508.000,4144.3361,N,06959.5792,W,2,11,0.98,10.3,M,-34.3,M,0000,0000*63 
150.160         GPS_NMEA_FROM_GPS    iGPS            $GPGGA,212509.000,4144.3359,N,06959.5791,W,2,11,0.98,10.5,M,-34.3,M,0000,0000*6C 
151.163         GPS_NMEA_FROM_GPS    iGPS            $GPGGA,212510.000,4144.3357,N,06959.5791,W,2,11,0.98,10.5,M,-34.3,M,0000,0000*6A 
152.166         GPS_NMEA_FROM_GPS    iGPS            $GPGGA,212511.000,4144.3356,N,06959.5790,W,2,10,1.00,10.5,M,-34.3,M,0000,0000*6A 
153.168         GPS_NMEA_FROM_GPS    iGPS            $GPGGA,212512.000,4144.3354,N,06959.5790,W,2,11,0.98,10.5,M,-34.3,M,0000,0000*6A 
154.171         GPS_NMEA_FROM_GPS    iGPS            $GPGGA,212513.000,4144.3352,N,06959.5790,W,2,11,0.98,10.4,M,-34.3,M,0000,0000*6C 
155.174         GPS_NMEA_FROM_GPS    iGPS            $GPGGA,212514.000,4144.3350,N,06959.5790,W,2,11,0.98,10.4,M,-34.3,M,0000,0000*69 
156.177         GPS_NMEA_FROM_GPS    iGPS            $GPGGA,212515.000,4144.3348,N,06959.5789,W,2,11,0.98,10.3,M,-34.3,M,0000,0000*6E 
157.280         GPS_NMEA_FROM_GPS    iGPS            $GPRMC,212516.000,A,4144.3346,N,06959.5789,W,0.82,173.14,210321,,,D*74 
158.282         GPS_NMEA_FROM_GPS    iGPS            $GPGGA,212517.000,4144.3343,N,06959.5789,W,2,11,0.98,10.4,M,-34.3,M,0000,0000*60 
159.285         GPS_NMEA_FROM_GPS    iGPS            $GPRMC,212518.000,A,4144.3341,N,06959.5788,W,0.82,174.50,210321,,,D*7B 
160.288         GPS_NMEA_FROM_GPS    iGPS            $GPRMC,212519.000,A,4144.3338,N,06959.5788,W,0.72,175.34,210321,,,D*78 
161.290         GPS_NMEA_FROM_GPS    iGPS            $GPRMC,212520.000,A,4144.3337,N,06959.5788,W,0.61,176.13,210321,,,D*79 
162.193         GPS_NMEA_FROM_GPS    iGPS            $GPGGA,212521.000,4144.3335,N,06959.5788,W,2,10,1.11,10.6,M,-34.3,M,0000,0000*66 
163.195         GPS_NMEA_FROM_GPS    iGPS            $GPGGA,212522.000,4144.3334,N,06959.5788,W,2,10,1.11,10.6,M,-34.3,M,0000,0000*64 
164.298         GPS_NMEA_FROM_GPS    iGPS            $GPRMC,212523.000,A,4144.3333,N,06959.5788,W,0.42,181.97,210321,,,D*7B 
165.201         GPS_NMEA_FROM_GPS    iGPS            $GPRMC,212524.000,A,4144.3333,N,06959.5789,W,0.38,185.54,210321,,,D*7B 
166.203         GPS_NMEA_FROM_GPS    iGPS            $GPGGA,212525.000,4144.3332,N,06959.5790,W,2,11,1.06,10.6,M,-34.3,M,0000,0000*6B 
167.206         GPS_NMEA_FROM_GPS    iGPS            $GPGGA,212526.000,4144.3331,N,06959.5790,W,2,11,1.06,10.6,M,-34.3,M,0000,0000*6B 
168.208         GPS_NMEA_FROM_GPS    iGPS            $GPGGA,212527.000,4144.3330,N,06959.5791,W,2,11,1.06,10.6,M,-34.3,M,0000,0000*6A 
169.211         GPS_NMEA_FROM_GPS    iGPS            $GPGGA,212528.000,4144.3330,N,06959.5791,W,2,11,1.06,10.6,M,-34.3,M,0000,0000*65 
170.214         GPS_NMEA_FROM_GPS    iGPS            $GPGGA,212529.000,4144.3329,N,06959.5792,W,2,10,1.11,10.6,M,-34.3,M,0000,0000*68 
171.217         GPS_NMEA_FROM_GPS    iGPS            $GPGGA,212530.000,4144.3329,N,06959.5792,W,2,11,1.06,10.6,M,-34.3,M,0000,0000*67 
172.219         GPS_NMEA_FROM_GPS    iGPS            $GPGGA,212531.000,4144.3329,N,06959.5792,W,2,09,1.22,10.6,M,-34.3,M,0000,0000*69 
173.222         GPS_NMEA_FROM_GPS    iGPS            $GPGGA,212532.000,4144.3329,N,06959.5792,W,2,10,1.17,10.5,M,-34.3,M,0000,0000*67 
174.225         GPS_NMEA_FROM_GPS    iGPS            $GPGGA,212533.000,4144.3328,N,06959.5792,W,2,10,1.17,10.5,M,-34.3,M,0000,0000*67 
175.227         GPS_NMEA_FROM_GPS    iGPS            $GPGGA,212534.000,4144.3328,N,06959.5792,W,2,10,1.17,10.5,M,-34.3,M,0000,0000*60 
176.230         GPS_NMEA_FROM_GPS    iGPS            $GPGGA,212535.000,4144.3329,N,06959.5792,W,2,11,1.06,10.5,M,-34.3,M,0000,0000*61 
177.233         GPS_NMEA_FROM_GPS    iGPS            $GPRMC,212536.000,A,4144.3329,N,06959.5792,W,0.30,359.78,210321,,,D*7C 
178.235         GPS_NMEA_FROM_GPS    iGPS            $GPGGA,212537.000,4144.3330,N,06959.5792,W,2,11,1.06,10.5,M,-34.3,M,0000,0000*6B 
179.238         GPS_NMEA_FROM_GPS    iGPS            $GPGGA,212538.000,4144.3331,N,06959.5792,W,2,11,1.06,10.5,M,-34.3,M,0000,0000*65 
180.241         GPS_NMEA_FROM_GPS    iGPS            $GPGGA,212539.000,4144.3333,N,06959.5792,W,2,09,1.22,10.4,M,-34.3,M,0000,0000*68 
181.243         GPS_NMEA_FROM_GPS    iGPS            $GPGGA,212540.000,4144.3334,N,06959.5791,W,2,09,1.22,10.3,M,-34.3,M,0000,0000*65 
182.246         GPS_NMEA_FROM_GPS    iGPS            $GPGGA,212541.000,4144.3336,N,06959.5791,W,2,11,1.06,10.2,M,-34.3,M,0000,0000*68 
183.249         GPS_NMEA_FROM_GPS    iGPS            $GPGGA,212542.000,4144.3338,N,06959.5790,W,2,11,1.06,10.1,M,-34.3,M,0000,0000*67 
184.251         GPS_NMEA_FROM_GPS    iGPS            $GPGGA,212543.000,4144.3341,N,06959.5789,W,2,11,1.06,10.0,M,-34.3,M,0000,0000*61 
185.254         GPS_NMEA_FROM_GPS    iGPS            $GPRMC,212544.000,A,4144.3343,N,06959.5788,W,0.71,355.39,210321,,,D*72 
186.257         GPS_NMEA_FROM_GPS    iGPS            $GPRMC,212545.000,A,4144.3345,N,06959.5788,W,0.75,354.25,210321,,,D*7D 
187.259         GPS_NMEA_FROM_GPS    iGPS            $GPGGA,212546.000,4144.3347,N,06959.5787,W,2,11,1.06,9.9,M,-34.3,M,0000,0000*5D 
188.262         GPS_NMEA_FROM_GPS    iGPS            $GPGGA,212547.000,4144.3348,N,06959.5786,W,2,11,1.06,9.8,M,-34.3,M,0000,0000*53 
189.265         GPS_NMEA_FROM_GPS    iGPS            $GPGGA,212548.000,4144.3350,N,06959.5786,W,2,11,1.06,9.8,M,-34.3,M,0000,0000*55 
190.267         GPS_NMEA_FROM_GPS    iGPS            $GPGGA,212549.000,4144.3352,N,06959.5785,W,2,11,1.06,9.8,M,-34.3,M,0000,0000*55 
191.170         GPS_NMEA_FROM_GPS    iGPS            $GPGGA,212550.000,4144.3354,N,06959.5784,W,2,11,1.06,9.8,M,-34.3,M,0000,0000*5A 
192.273         GPS_NMEA_FROM_GPS    iGPS            $GPGGA,212551.000,4144.3356,N,06959.5784,W,2,11,1.06,9.8,M,-34.3,M,0000,0000*59 
193.175         GPS_NMEA_FROM_GPS    iGPS            $GPGGA,212552.000,4144.3358,N,06959.5783,W,2,11,1.06,9.8,M,-34.3,M,0000,0000*53 
194.178         GPS_NMEA_FROM_GPS    iGPS            $GPGGA,212553.000,4144.3360,N,06959.5783,W,2,11,1.06,9.8,M,-34.3,M,0000,0000*59 
195.281         GPS_NMEA_FROM_GPS    iGPS            $GPGGA,212554.000,4144.3361,N,06959.5782,W,2,11,1.06,9.8,M,-34.3,M,0000,0000*5E 
196.183         GPS_NMEA_FROM_GPS    iGPS            $GPGGA,212555.000,4144.3363,N,06959.5782,W,2,11,1.06,9.7,M,-34.3,M,0000,0000*52 
197.186         GPS_NMEA_FROM_GPS    iGPS            $GPGGA,212556.000,4144.3365,N,06959.5782,W,2,11,1.06,9.7,M,-34.3,M,0000,0000*57 
198.189         GPS_NMEA_FROM_GPS    iGPS            $GPGGA,212557.000,4144.3368,N,06959.5781,W,2,11,1.06,9.8,M,-34.3,M,0000,0000*57 
199.292         GPS_NMEA_FROM_GPS    iGPS            $GPRMC,212558.000,A,4144.3371,N,06959.5781,W,0.82,352.17,210321,,,D*70 
200.294         GPS_NMEA_FROM_GPS    iGPS            $GPRMC,212559.000,A,4144.3373,N,06959.5781,W,0.90,352.82,210321,,,D*7C 
201.197         GPS_NMEA_FROM_GPS    iGPS            $GPGGA,212600.000,4144.3376,N,06959.5780,W,2,11,1.06,9.7,M,-34.3,M,0000,0000*57 
202.300         GPS_NMEA_FROM_GPS    iGPS            $GPRMC,212601.000,A,4144.3379,N,06959.5780,W,0.91,353.87,210321,,,D*7C 
203.202         GPS_NMEA_FROM_GPS    iGPS            $GPGGA,212602.000,4144.3382,N,06959.5779,W,2,10,1.10,9.6,M,-34.3,M,0000,0000*5F 
204.305         GPS_NMEA_FROM_GPS    iGPS            $GPRMC,212603.000,A,4144.3385,N,06959.5779,W,0.88,354.91,210321,,,D*73 
205.207         GPS_NMEA_FROM_GPS    iGPS            $GPGGA,212604.000,4144.3387,N,06959.5779,W,2,10,1.10,9.4,M,-34.3,M,0000,0000*5E 
206.210         GPS_NMEA_FROM_GPS    iGPS            $GPGGA,212605.000,4144.3389,N,06959.5778,W,2,10,1.10,9.4,M,-34.3,M,0000,0000*50 
207.212         GPS_NMEA_FROM_GPS    iGPS            $GPRMC,212606.000,A,4144.3391,N,06959.5778,W,0.85,357.07,210321,,,D*73 
208.215         GPS_NMEA_FROM_GPS    iGPS            $GPGGA,212607.000,4144.3393,N,06959.5778,W,2,11,1.06,9.2,M,-34.3,M,0000,0000*59 
209.217         GPS_NMEA_FROM_GPS    iGPS            $GPGGA,212608.000,4144.3395,N,06959.5778,W,2,11,1.06,9.2,M,-34.3,M,0000,0000*50 
210.220         GPS_NMEA_FROM_GPS    iGPS            $GPGGA,212609.000,4144.3397,N,06959.5777,W,2,11,1.06,9.2,M,-34.3,M,0000,0000*5C 
211.223         GPS_NMEA_FROM_GPS    iGPS            $GPGGA,212610.000,4144.3399,N,06959.5777,W,2,11,1.06,9.1,M,-34.3,M,0000,0000*59 
212.225         GPS_NMEA_FROM_GPS    iGPS            $GPGGA,212611.000,4144.3401,N,06959.5777,W,2,11,1.06,9.2,M,-34.3,M,0000,0000*5D 
213.228         GPS_NMEA_FROM_GPS    iGPS            $GPGGA,212612.000,4144.3403,N,06959.5777,W,2,11,0.98,9.1,M,-34.3,M,0000,0000*59 
214.230         GPS_NMEA_FROM_GPS    iGPS            $GPRMC,212613.000,A,4144.3404,N,06959.5777,W,0.76,3.95,210321,,,D*76 
215.233         GPS_NMEA_FROM_GPS    iGPS            $GPRMC,212614.000,A,4144.3406,N,06959.5777,W,0.77,3.38,210321,,,D*75 
216.235         GPS_NMEA_FROM_GPS    iGPS            $GPGGA,212615.000,4144.3409,N,06959.5776,W,2,11,1.06,8.8,M,-34.3,M,0000,0000*5B 
217.238         GPS_NMEA_FROM_GPS    iGPS            $GPRMC,212616.000,A,4144.3411,N,06959.5776,W,0.70,0.08,210321,,,D*77 
218.241         GPS_NMEA_FROM_GPS    iGPS            $GPRMC,212617.000,A,4144.3413,N,06959.5776,W,0.73,358.21,210321,,,D*72 
219.243         GPS_NMEA_FROM_GPS    iGPS            $GPGGA,212618.000,4144.3415,N,06959.5776,W,2,11,1.06,8.8,M,-34.3,M,0000,0000*5B 
220.246         GPS_NMEA_FROM_GPS    iGPS            $GPGGA,212619.000,4144.3417,N,06959.5776,W,2,11,1.06,8.8,M,-34.3,M,0000,0000*58 
221.148         GPS_NMEA_FROM_GPS    iGPS            $GPGGA,212620.000,4144.3419,N,06959.5776,W,2,11,1.06,8.8,M,-34.3,M,0000,0000*5C 
222.251         GPS_NMEA_FROM_GPS    iGPS            $GPRMC,212621.000,A,4144.3421,N,06959.5776,W,0.76,354.03,210321,,,D*7F 
223.153         GPS_NMEA_FROM_GPS    iGPS            $GPGGA,212622.000,4144.3424,N,06959.5775,W,2,11,1.06,9.0,M,-34.3,M,0000,0000*5A 
224.256         GPS_NMEA_FROM_GPS    iGPS            $GPGGA,212623.000,4144.3426,N,06959.5776,W,2,11,1.06,9.0,M,-34.3,M,0000,0000*5A 
225.259         GPS_NMEA_FROM_GPS    iGPS            $GPGGA,212624.000,4144.3429,N,06959.5776,W,2,11,1.06,9.0,M,-34.3,M,0000,0000*52 
226.261         GPS_NMEA_FROM_GPS    iGPS            $GPGGA,212625.000,4144.3431,N,06959.5776,W,2,11,1.06,9.0,M,-34.3,M,0000,0000*5A 
227.264         GPS_NMEA_FROM_GPS    iGPS            $GPGGA,212626.000,4144.3434,N,06959.5776,W,2,11,1.06,9.0,M,-34.3,M,0000,0000*5C 
228.267         GPS_NMEA_FROM_GPS    iGPS            $GPRMC,212627.000,A,4144.3437,N,06959.5776,W,0.93,353.23,210321,,,D*70 
229.169         GPS_NMEA_FROM_GPS    iGPS            $GPGGA,212628.000,4144.3439,N,06959.5776,W,2,11,1.06,9.0,M,-34.3,M,0000,0000*5F 
230.272         GPS_NMEA_FROM_GPS    iGPS            $GPGGA,212629.000,4144.3441,N,06959.5776,W,2,11,1.06,9.1,M,-34.3,M,0000,0000*50 
231.174         GPS_NMEA_FROM_GPS    iGPS            $GPGGA,212630.000,4144.3443,N,06959.5776,W,2,11,1.06,9.1,M,-34.3,M,0000,0000*5A 
232.278         GPS_NMEA_FROM_GPS    iGPS            $GPRMC,212631.000,A,4144.3446,N,06959.5776,W,0.72,354.36,210321,,,D*7D 
233.180         GPS_NMEA_FROM_GPS    iGPS            $GPGGA,212632.000,4144.3448,N,06959.5776,W,2,11,1.06,9.3,M,-34.3,M,0000,0000*51 
234.182         GPS_NMEA_FROM_GPS    iGPS            $GPGGA,212633.000,4144.3450,N,06959.5776,W,2,11,1.06,9.4,M,-34.3,M,0000,0000*5E 
235.185         GPS_NMEA_FROM_GPS    iGPS            $GPGGA,212634.000,4144.3452,N,06959.5776,W,2,10,1.10,9.5,M,-34.3,M,0000,0000*5C 
236.188         GPS_NMEA_FROM_GPS    iGPS            $GPGGA,212635.000,4144.3454,N,06959.5776,W,2,10,1.10,9.5,M,-34.3,M,0000,0000*5B 
237.190         GPS_NMEA_FROM_GPS    iGPS            $GPGGA,212636.000,4144.3456,N,06959.5776,W,2,10,1.10,9.5,M,-34.3,M,0000,0000*5A 
238.193         GPS_NMEA_FROM_GPS    iGPS            $GPGGA,212637.000,4144.3458,N,06959.5776,W,2,10,1.10,9.5,M,-34.3,M,0000,0000*55 
239.196         GPS_NMEA_FROM_GPS    iGPS            $GPGGA,212638.000,4144.3460,N,06959.5776,W,2,10,1.00,9.6,M,-34.3,M,0000,0000*53 
240.198         GPS_NMEA_FROM_GPS    iGPS            $GPGGA,212639.000,4144.3462,N,06959.5776,W,2,11,1.06,9.6,M,-34.3,M,0000,0000*57 
241.201         GPS_NMEA_FROM_GPS    iGPS            $GPGGA,212640.000,4144.3464,N,06959.5777,W,2,11,1.06,9.7,M,-34.3,M,0000,0000*5F 
242.204         GPS_NMEA_FROM_GPS    iGPS            $GPGGA,212641.000,4144.3466,N,06959.5777,W,2,11,1.06,9.8,M,-34.3,M,0000,0000*53 
243.206         GPS_NMEA_FROM_GPS    iGPS            $GPGGA,212642.000,4144.3468,N,06959.5777,W,2,11,1.06,9.8,M,-34.3,M,0000,0000*5E 
244.209         GPS_NMEA_FROM_GPS    iGPS            $GPGGA,212643.000,4144.3470,N,06959.5777,W,2,11,1.06,9.9,M,-34.3,M,0000,0000*57 
245.211         GPS_NMEA_FROM_GPS    iGPS            $GPGGA,212644.000,4144.3471,N,06959.5776,W,2,11,1.06,9.9,M,-34.3,M,0000,0000*50 
246.314         GPS_NMEA_FROM_GPS    iGPS            $GPRMC,212645.000,A,4144.3473,N,06959.5776,W,0.72,10.92,210321,,,D*45 
247.217         GPS_NMEA_FROM_GPS    iGPS            $GPGGA,212646.000,4144.3475,N,06959.5776,W,2,11,1.06,9.9,M,-34.3,M,0000,0000*56 
248.219         GPS_NMEA_FROM_GPS    iGPS            $GPGGA,212647.000,4144.3477,N,06959.5775,W,2,11,1.06,9.9,M,-34.3,M,0000,0000*56 
249.222         GPS_NMEA_FROM_GPS    iGPS            $GPGGA,212648.000,4144.3480,N,06959.5775,W,2,11,1.05,9.9,M,-34.3,M,0000,0000*52 
250.325         GPS_NMEA_FROM_GPS    iGPS            $GPRMC,212649.000,A,4144.3482,N,06959.5775,W,0.84,10.11,210321,,,D*46 
251.227         GPS_NMEA_FROM_GPS    iGPS            $GPGGA,212650.000,4144.3484,N,06959.5775,W,2,11,1.05,9.9,M,-34.3,M,0000,0000*5F 
252.229         GPS_NMEA_FROM_GPS    iGPS            $GPGGA,212651.000,4144.3486,N,06959.5775,W,2,11,1.05,9.8,M,-34.3,M,0000,0000*5D 
253.232         GPS_NMEA_FROM_GPS    iGPS            $GPGGA,212652.000,4144.3488,N,06959.5775,W,2,10,1.10,9.7,M,-34.3,M,0000,0000*5A 
254.235         GPS_NMEA_FROM_GPS    iGPS            $GPGGA,212653.000,4144.3490,N,06959.5775,W,2,11,1.05,9.7,M,-34.3,M,0000,0000*57 
255.238         GPS_NMEA_FROM_GPS    iGPS            $GPRMC,212654.000,A,4144.3493,N,06959.5775,W,0.75,2.99,210321,,,D*77 
256.240         GPS_NMEA_FROM_GPS    iGPS            $GPGGA,212655.000,4144.3495,N,06959.5774,W,2,11,1.05,9.6,M,-34.3,M,0000,0000*54 
257.143         GPS_NMEA_FROM_GPS    iGPS            $GPGGA,212656.000,4144.3497,N,06959.5774,W,2,11,1.05,9.6,M,-34.3,M,0000,0000*55 
258.246         GPS_NMEA_FROM_GPS    iGPS            $GPRMC,212657.000,A,4144.3500,N,06959.5774,W,0.79,357.77,210321,,,D*71 
259.148         GPS_NMEA_FROM_GPS    iGPS            $GPGGA,212658.000,4144.3502,N,06959.5774,W,2,11,1.05,9.7,M,-34.3,M,0000,0000*57 
260.151         GPS_NMEA_FROM_GPS    iGPS            $GPGGA,212659.000,4144.3505,N,06959.5774,W,2,11,1.05,9.7,M,-34.3,M,0000,0000*51 
261.153         GPS_NMEA_FROM_GPS    iGPS            $GPGGA,212700.000,4144.3507,N,06959.5774,W,2,11,1.05,9.7,M,-34.3,M,0000,0000*5E 
262.156         GPS_NMEA_FROM_GPS    iGPS            $GPGGA,212701.000,4144.3509,N,06959.5774,W,2,11,1.05,9.8,M,-34.3,M,0000,0000*5E 
263.159         GPS_NMEA_FROM_GPS    iGPS            $GPGGA,212702.000,4144.3511,N,06959.5774,W,2,11,1.05,9.8,M,-34.3,M,0000,0000*54 
264.261         GPS_NMEA_FROM_GPS    iGPS            $GPGGA,212703.000,4144.3514,N,06959.5774,W,2,10,1.10,9.7,M,-34.3,M,0000,0000*5A 
265.264         GPS_NMEA_FROM_GPS    iGPS            $GPGGA,212704.000,4144.3516,N,06959.5774,W,2,10,1.10,9.8,M,-34.3,M,0000,0000*50 
266.267         GPS_NMEA_FROM_GPS    iGPS            $GPRMC,212705.000,A,4144.3518,N,06959.5774,W,0.76,355.93,210321,,,D*79 
267.270         GPS_NMEA_FROM_GPS    iGPS            $GPRMC,212706.000,A,4144.3521,N,06959.5775,W,0.77,355.88,210321,,,D*7A 
268.172         GPS_NMEA_FROM_GPS    iGPS            $GPGGA,212707.000,4144.3523,N,06959.5775,W,2,11,1.05,9.8,M,-34.3,M,0000,0000*51 
269.275         GPS_NMEA_FROM_GPS    iGPS            $GPGGA,212708.000,4144.3526,N,06959.5775,W,2,11,1.05,9.8,M,-34.3,M,0000,0000*5B 
270.177         GPS_NMEA_FROM_GPS    iGPS            $GPGGA,212709.000,4144.3528,N,06959.5775,W,2,11,1.05,9.8,M,-34.3,M,0000,0000*54 
271.180         GPS_NMEA_FROM_GPS    iGPS            $GPGGA,212710.000,4144.3531,N,06959.5775,W,2,11,1.05,9.9,M,-34.3,M,0000,0000*55 
272.283         GPS_NMEA_FROM_GPS    iGPS            $GPRMC,212711.000,A,4144.3533,N,06959.5775,W,0.77,354.07,210321,,,D*79 
273.185         GPS_NMEA_FROM_GPS    iGPS            $GPGGA,212712.000,4144.3535,N,06959.5775,W,2,11,1.05,9.9,M,-34.3,M,0000,0000*53 
274.288         GPS_NMEA_FROM_GPS    iGPS            $GPGGA,212713.000,4144.3537,N,06959.5775,W,2,11,1.05,9.9,M,-34.3,M,0000,0000*50 
275.291         GPS_NMEA_FROM_GPS    iGPS            $GPRMC,212714.000,A,4144.3539,N,06959.5776,W,0.72,352.07,210321,,,D*76 
276.293         GPS_NMEA_FROM_GPS    iGPS            $GPRMC,212715.000,A,4144.3541,N,06959.5776,W,0.75,350.69,210321,,,D*75 
277.196         GPS_NMEA_FROM_GPS    iGPS            $GPGGA,212716.000,4144.3543,N,06959.5777,W,2,11,1.05,9.8,M,-34.3,M,0000,0000*55 
278.198         GPS_NMEA_FROM_GPS    iGPS            $GPGGA,212717.000,4144.3546,N,06959.5777,W,2,11,1.05,9.8,M,-34.3,M,0000,0000*51 
279.201         GPS_NMEA_FROM_GPS    iGPS            $GPGGA,212718.000,4144.3548,N,06959.5778,W,2,11,1.05,9.9,M,-34.3,M,0000,0000*5E 
280.304         GPS_NMEA_FROM_GPS    iGPS            $GPRMC,212719.000,A,4144.3550,N,06959.5778,W,0.78,348.30,210321,,,D*7F 
281.206         GPS_NMEA_FROM_GPS    iGPS            $GPRMC,212720.000,A,4144.3553,N,06959.5778,W,0.80,348.26,210321,,,D*76 
282.208         GPS_NMEA_FROM_GPS    iGPS            $GPGGA,212721.000,4144.3555,N,06959.5779,W,2,11,1.05,10.1,M,-34.3,M,0000,0000*69 
283.211         GPS_NMEA_FROM_GPS    iGPS            $GPGGA,212722.000,4144.3557,N,06959.5779,W,2,11,1.05,10.1,M,-34.3,M,0000,0000*68 
284.214         GPS_NMEA_FROM_GPS    iGPS            $GPGGA,212723.000,4144.3559,N,06959.5779,W,2,11,0.98,10.1,M,-34.3,M,0000,0000*62 
285.216         GPS_NMEA_FROM_GPS    iGPS            $GPGGA,212724.000,4144.3561,N,06959.5780,W,2,11,1.05,10.0,M,-34.3,M,0000,0000*6C 
286.219         GPS_NMEA_FROM_GPS    iGPS            $GPGGA,212725.000,4144.3563,N,06959.5780,W,2,11,1.05,10.0,M,-34.3,M,0000,0000*6F 
287.222         GPS_NMEA_FROM_GPS    iGPS            $GPGGA,212726.000,4144.3565,N,06959.5781,W,2,11,1.05,9.9,M,-34.3,M,0000,0000*5A 
288.224         GPS_NMEA_FROM_GPS    iGPS            $GPGGA,212727.000,4144.3567,N,06959.5781,W,2,11,1.05,9.9,M,-34.3,M,0000,0000*59 
289.227         GPS_NMEA_FROM_GPS    iGPS            $GPGGA,212728.000,4144.3569,N,06959.5781,W,2,11,1.05,9.9,M,-34.3,M,0000,0000*58 
290.230         GPS_NMEA_FROM_GPS    iGPS            $GPGGA,212729.000,4144.3571,N,06959.5781,W,2,11,1.05,9.9,M,-34.3,M,0000,0000*50 
291.232         GPS_NMEA_FROM_GPS    iGPS            $GPGGA,212730.000,4144.3574,N,06959.5782,W,2,11,1.05,10.0,M,-34.3,M,0000,0000*6F 
292.235         GPS_NMEA_FROM_GPS    iGPS            $GPGGA,212731.000,4144.3576,N,06959.5782,W,2,11,1.05,10.0,M,-34.3,M,0000,0000*6C 
293.238         GPS_NMEA_FROM_GPS    iGPS            $GPGGA,212732.000,4144.3578,N,06959.5782,W,2,11,1.05,10.0,M,-34.3,M,0000,0000*61 
294.240         GPS_NMEA_FROM_GPS    iGPS            $GPGGA,212733.000,4144.3580,N,06959.5783,W,2,11,1.05,10.1,M,-34.3,M,0000,0000*67 
295.243         GPS_NMEA_FROM_GPS    iGPS            $GPGGA,212734.000,4144.3583,N,06959.5783,W,2,11,1.05,10.1,M,-34.3,M,0000,0000*63 
296.246         GPS_NMEA_FROM_GPS    iGPS            $GPGGA,212735.000,4144.3585,N,06959.5783,W,2,11,1.05,10.2,M,-34.3,M,0000,0000*67 
297.148         GPS_NMEA_FROM_GPS    iGPS            $GPGGA,212736.000,4144.3587,N,06959.5784,W,2,11,1.05,10.2,M,-34.3,M,0000,0000*61 
298.251         GPS_NMEA_FROM_GPS    iGPS            $GPGGA,212737.000,4144.3590,N,06959.5784,W,2,11,1.05,10.2,M,-34.3,M,0000,0000*66 
299.254         GPS_NMEA_FROM_GPS    iGPS            $GPGGA,212738.000,4144.3592,N,06959.5784,W,2,11,1.05,10.2,M,-34.3,M,0000,0000*6B 
300.156         GPS_NMEA_FROM_GPS    iGPS            $GPGGA,212739.000,4144.3595,N,06959.5784,W,2,11,1.05,10.2,M,-34.3,M,0000,0000*6D 
301.159         GPS_NMEA_FROM_GPS    iGPS            $GPGGA,212740.000,4144.3597,N,06959.5785,W,2,10,1.10,10.2,M,-34.3,M,0000,0000*65 
302.262         GPS_NMEA_FROM_GPS    iGPS            $GPGGA,212741.000,4144.3599,N,06959.5785,W,2,10,1.10,10.2,M,-34.3,M,0000,0000*6A 
303.165         GPS_NMEA_FROM_GPS    iGPS            $GPGGA,212742.000,4144.3601,N,06959.5785,W,2,10,1.10,10.2,M,-34.3,M,0000,0000*6B 
304.167         GPS_NMEA_FROM_GPS    iGPS            $GPGGA,212743.000,4144.3603,N,06959.5786,W,2,10,1.10,10.1,M,-34.3,M,0000,0000*68 
305.170         GPS_NMEA_FROM_GPS    iGPS            $GPGGA,212744.000,4144.3605,N,06959.5786,W,2,11,1.05,10.1,M,-34.3,M,0000,0000*6C 
306.273         GPS_NMEA_FROM_GPS    iGPS            $GPGGA,212745.000,4144.3607,N,06959.5787,W,2,11,1.05,10.0,M,-34.3,M,0000,0000*6F 
307.175         GPS_NMEA_FROM_GPS    iGPS            $GPGGA,212746.000,4144.3608,N,06959.5787,W,2,11,1.05,9.9,M,-34.3,M,0000,0000*52 
308.278         GPS_NMEA_FROM_GPS    iGPS            $GPGGA,212747.000,4144.3610,N,06959.5788,W,2,10,1.10,9.9,M,-34.3,M,0000,0000*50 
309.181         GPS_NMEA_FROM_GPS    iGPS            $GPGGA,212748.000,4144.3613,N,06959.5788,W,2,11,1.05,9.9,M,-34.3,M,0000,0000*59 
310.283         GPS_NMEA_FROM_GPS    iGPS            $GPGGA,212749.000,4144.3615,N,06959.5788,W,2,11,1.05,9.9,M,-34.3,M,0000,0000*5E 
311.286         GPS_NMEA_FROM_GPS    iGPS            $GPRMC,212750.000,A,4144.3617,N,06959.5789,W,0.71,354.70,210321,,,D*7C 
312.289         GPS_NMEA_FROM_GPS    iGPS            $GPRMC,212751.000,A,4144.3619,N,06959.5789,W,0.66,353.81,210321,,,D*7C 
313.191         GPS_NMEA_FROM_GPS    iGPS            $GPGGA,212752.000,4144.3619,N,06959.5789,W,2,10,1.09,9.8,M,-34.3,M,0000,0000*55 
314.295         GPS_NMEA_FROM_GPS    iGPS            $GPRMC,212753.000,A,4144.3620,N,06959.5789,W,0.50,352.05,210321,,,D*7C 
315.298         GPS_NMEA_FROM_GPS    iGPS            $GPRMC,212754.000,A,4144.3621,N,06959.5790,W,0.43,351.23,210321,,,D*77 
316.301         GPS_NMEA_FROM_GPS    iGPS            $GPRMC,212755.000,A,4144.3622,N,06959.5790,W,0.39,350.41,210321,,,D*7D 
317.303         GPS_NMEA_FROM_GPS    iGPS            $GPRMC,212756.000,A,4144.3623,N,06959.5790,W,0.28,349.86,210321,,,D*7C 
318.205         GPS_NMEA_FROM_GPS    iGPS            $GPGGA,212757.000,4144.3624,N,06959.5791,W,2,11,1.05,9.7,M,-34.3,M,0000,0000*55 
319.208         GPS_NMEA_FROM_GPS    iGPS            $GPGGA,212758.000,4144.3624,N,06959.5791,W,2,11,1.05,9.7,M,-34.3,M,0000,0000*5A 
320.210         GPS_NMEA_FROM_GPS    iGPS            $GPGGA,212759.000,4144.3625,N,06959.5791,W,2,10,1.09,9.7,M,-34.3,M,0000,0000*57 
