1.672           GPS_NMEA_FROM_GPS    iGPS            $GPRMC,204706.000,A,4144.3511,N,06959.5661,W,0.04,289.29,230321,,,D*77 
2.373           GPS_NMEA_FROM_GPS    iGPS            $GPGGA,204707.000,4144.3511,N,06959.5661,W,2,11,1.03,4.9,M,-34.3,M,0000,0000*59 
2.373           GPS_NMEA_FROM_GPS    iGPS            $GPGGA,204707.000,4144.3511,N,06959.5661,W,2,11,1.03,4.9,M,-34.3,M,0000,0000*59 
3.375           GPS_NMEA_FROM_GPS    iGPS            $GPGGA,204708.000,4144.3511,N,06959.5661,W,2,11,1.03,4.9,M,-34.3,M,0000,0000*56 
4.378           GPS_NMEA_FROM_GPS    iGPS            $GPGGA,204709.000,4144.3511,N,06959.5662,W,2,11,1.03,4.9,M,-34.3,M,0000,0000*54 
5.280           GPS_NMEA_FROM_GPS    iGPS            $GPGGA,204710.000,4144.3511,N,06959.5662,W,2,11,1.03,4.9,M,-34.3,M,0000,0000*5C 
6.383           GPS_NMEA_FROM_GPS    iGPS            $GPGGA,204711.000,4144.3511,N,06959.5662,W,2,11,1.03,4.9,M,-34.3,M,0000,0000*5D 
7.285           GPS_NMEA_FROM_GPS    iGPS            $GPGGA,204712.000,4144.3511,N,06959.5662,W,2,11,1.03,4.9,M,-34.3,M,0000,0000*5E 
8.388           GPS_NMEA_FROM_GPS    iGPS            $GPRMC,204713.000,A,4144.3511,N,06959.5662,W,0.04,253.79,230321,,,D*72 
9.390           GPS_NMEA_FROM_GPS    iGPS            $GPGGA,204714.000,4144.3511,N,06959.5662,W,2,11,1.03,4.9,M,-34.3,M,0000,0000*58 
10.392          GPS_NMEA_FROM_GPS    iGPS            $GPGGA,204715.000,4144.3511,N,06959.5662,W,2,11,1.03,4.9,M,-34.3,M,0000,0000*59 
11.395          GPS_NMEA_FROM_GPS    iGPS            $GPRMC,204716.000,A,4144.3511,N,06959.5662,W,0.04,266.04,230321,,,D*7B 
11.395          GPS_NMEA_FROM_GPS    iGPS            $GPRMC,204716.000,A,4144.3511,N,06959.5662,W,0.04,266.04,230321,,,D*7B 
12.297          GPS_NMEA_FROM_GPS    iGPS            $GPGGA,204717.000,4144.3511,N,06959.5662,W,2,11,1.03,4.9,M,-34.3,M,0000,0000*5B 
12.297          GPS_NMEA_FROM_GPS    iGPS            $GPGGA,204717.000,4144.3511,N,06959.5662,W,2,11,1.03,4.9,M,-34.3,M,0000,0000*5B 
13.400          GPS_NMEA_FROM_GPS    iGPS            $GPGGA,204718.000,4144.3511,N,06959.5662,W,2,11,1.03,4.9,M,-34.3,M,0000,0000*54 
14.403          GPS_NMEA_FROM_GPS    iGPS            $GPGGA,204719.000,4144.3511,N,06959.5662,W,2,11,1.03,4.9,M,-34.3,M,0000,0000*55 
15.406          GPS_NMEA_FROM_GPS    iGPS            $GPGGA,204720.000,4144.3510,N,06959.5662,W,2,11,1.03,4.9,M,-34.3,M,0000,0000*5E 
16.309          GPS_NMEA_FROM_GPS    iGPS            $GPGGA,204721.000,4144.3510,N,06959.5662,W,2,11,1.03,4.9,M,-34.3,M,0000,0000*5F 
17.312          GPS_NMEA_FROM_GPS    iGPS            $GPGGA,204722.000,4144.3510,N,06959.5662,W,2,11,1.03,4.9,M,-34.3,M,0000,0000*5C 
18.315          GPS_NMEA_FROM_GPS    iGPS            $GPGGA,204723.000,4144.3510,N,06959.5662,W,2,11,1.03,4.9,M,-34.3,M,0000,0000*5D 
19.418          GPS_NMEA_FROM_GPS    iGPS            $GPGGA,204724.000,4144.3510,N,06959.5662,W,2,11,1.03,4.9,M,-34.3,M,0000,0000*5A 
20.320          GPS_NMEA_FROM_GPS    iGPS            $GPGGA,204725.000,4144.3510,N,06959.5662,W,2,11,1.03,4.9,M,-34.3,M,0000,0000*5B 
21.423          GPS_NMEA_FROM_GPS    iGPS            $GPRMC,204726.000,A,4144.3510,N,06959.5662,W,0.04,255.41,230321,,,D*78 
22.426          GPS_NMEA_FROM_GPS    iGPS            $GPRMC,204727.000,A,4144.3510,N,06959.5662,W,0.04,250.56,230321,,,D*7A 
23.428          GPS_NMEA_FROM_GPS    iGPS            $GPRMC,204728.000,A,4144.3510,N,06959.5662,W,0.05,250.68,230321,,,D*79 
23.428          GPS_NMEA_FROM_GPS    iGPS            $GPRMC,204728.000,A,4144.3510,N,06959.5662,W,0.05,250.68,230321,,,D*79 
24.330          GPS_NMEA_FROM_GPS    iGPS            $GPGGA,204729.000,4144.3510,N,06959.5662,W,2,11,1.03,4.9,M,-34.3,M,0000,0000*57 
25.333          GPS_NMEA_FROM_GPS    iGPS            $GPGGA,204730.000,4144.3510,N,06959.5662,W,2,11,1.03,4.9,M,-34.3,M,0000,0000*5F 
26.437          GPS_NMEA_FROM_GPS    iGPS            $GPRMC,204731.000,A,4144.3510,N,06959.5662,W,0.05,244.98,230321,,,D*7B 
27.337          GPS_NMEA_FROM_GPS    iGPS            $GPGGA,204732.000,4144.3510,N,06959.5662,W,2,11,1.03,4.9,M,-34.3,M,0000,0000*5D 
28.339          GPS_NMEA_FROM_GPS    iGPS            $GPGGA,204733.000,4144.3510,N,06959.5662,W,2,11,1.03,4.9,M,-34.3,M,0000,0000*5C 
29.442          GPS_NMEA_FROM_GPS    iGPS            $GPRMC,204734.000,A,4144.3510,N,06959.5662,W,0.02,243.66,230321,,,D*7F 
29.442          GPS_NMEA_FROM_GPS    iGPS            $GPRMC,204734.000,A,4144.3510,N,06959.5662,W,0.02,243.66,230321,,,D*7F 
30.344          GPS_NMEA_FROM_GPS    iGPS            $GPGGA,204735.000,4144.3510,N,06959.5662,W,2,11,1.03,4.9,M,-34.3,M,0000,0000*5A 
31.347          GPS_NMEA_FROM_GPS    iGPS            $GPGGA,204736.000,4144.3510,N,06959.5663,W,2,11,1.03,4.9,M,-34.3,M,0000,0000*58 
32.349          GPS_NMEA_FROM_GPS    iGPS            $GPGGA,204737.000,4144.3510,N,06959.5663,W,2,11,1.03,4.9,M,-34.3,M,0000,0000*59 
33.352          GPS_NMEA_FROM_GPS    iGPS            $GPGGA,204738.000,4144.3510,N,06959.5662,W,2,11,1.03,4.9,M,-34.3,M,0000,0000*57 
34.354          GPS_NMEA_FROM_GPS    iGPS            $GPGGA,204739.000,4144.3510,N,06959.5662,W,2,11,0.91,4.9,M,-34.3,M,0000,0000*5C 
35.357          GPS_NMEA_FROM_GPS    iGPS            $GPGGA,204740.000,4144.3510,N,06959.5662,W,2,11,0.91,4.9,M,-34.3,M,0000,0000*52 
36.359          GPS_NMEA_FROM_GPS    iGPS            $GPGGA,204741.000,4144.3510,N,06959.5662,W,2,11,1.03,4.9,M,-34.3,M,0000,0000*59 
37.362          GPS_NMEA_FROM_GPS    iGPS            $GPGGA,204742.000,4144.3510,N,06959.5662,W,2,11,1.03,4.9,M,-34.3,M,0000,0000*5A 
38.365          GPS_NMEA_FROM_GPS    iGPS            $GPGGA,204743.000,4144.3510,N,06959.5662,W,2,11,1.03,4.9,M,-34.3,M,0000,0000*5B 
39.367          GPS_NMEA_FROM_GPS    iGPS            $GPRMC,204744.000,A,4144.3510,N,06959.5662,W,0.06,74.70,230321,,,D*4D 
40.370          GPS_NMEA_FROM_GPS    iGPS            $GPGGA,204745.000,4144.3510,N,06959.5662,W,2,10,1.15,4.9,M,-34.3,M,0000,0000*5B 
41.272          GPS_NMEA_FROM_GPS    iGPS            $GPGGA,204746.000,4144.3510,N,06959.5662,W,2,10,1.15,4.9,M,-34.3,M,0000,0000*58 
42.375          GPS_NMEA_FROM_GPS    iGPS            $GPRMC,204747.000,A,4144.3510,N,06959.5662,W,0.12,72.39,230321,,,D*40 
43.377          GPS_NMEA_FROM_GPS    iGPS            $GPGGA,204748.000,4144.3510,N,06959.5662,W,2,11,1.03,4.9,M,-34.3,M,0000,0000*50 
44.380          GPS_NMEA_FROM_GPS    iGPS            $GPGGA,204749.000,4144.3510,N,06959.5662,W,2,10,1.11,4.9,M,-34.3,M,0000,0000*53 
45.383          GPS_NMEA_FROM_GPS    iGPS            $GPGGA,204750.000,4144.3510,N,06959.5662,W,2,10,1.11,4.9,M,-34.3,M,0000,0000*5B 
46.385          GPS_NMEA_FROM_GPS    iGPS            $GPGGA,204751.000,4144.3510,N,06959.5661,W,2,10,1.11,4.9,M,-34.3,M,0000,0000*59 
47.388          GPS_NMEA_FROM_GPS    iGPS            $GPGGA,204752.000,4144.3510,N,06959.5660,W,2,11,1.03,4.9,M,-34.3,M,0000,0000*59 
48.291          GPS_NMEA_FROM_GPS    iGPS            $GPGGA,204753.000,4144.3510,N,06959.5659,W,2,11,0.91,4.9,M,-34.3,M,0000,0000*58 
49.393          GPS_NMEA_FROM_GPS    iGPS            $GPGGA,204754.000,4144.3510,N,06959.5657,W,2,11,0.91,4.9,M,-34.3,M,0000,0000*51 
50.396          GPS_NMEA_FROM_GPS    iGPS            $GPRMC,204755.000,A,4144.3509,N,06959.5655,W,0.65,95.12,230321,,,D*4F 
51.398          GPS_NMEA_FROM_GPS    iGPS            $GPGGA,204756.000,4144.3508,N,06959.5653,W,2,11,0.91,4.9,M,-34.3,M,0000,0000*5E 
52.301          GPS_NMEA_FROM_GPS    iGPS            $GPGGA,204757.000,4144.3507,N,06959.5651,W,2,10,0.99,4.8,M,-34.3,M,0000,0000*5A 
53.404          GPS_NMEA_FROM_GPS    iGPS            $GPRMC,204758.000,A,4144.3507,N,06959.5649,W,0.68,94.66,230321,,,D*4E 
54.407          GPS_NMEA_FROM_GPS    iGPS            $GPRMC,204759.000,A,4144.3507,N,06959.5647,W,0.69,93.70,230321,,,D*40 
55.309          GPS_NMEA_FROM_GPS    iGPS            $GPGGA,204800.000,4144.3506,N,06959.5645,W,2,10,1.06,4.9,M,-34.3,M,0000,0000*55 
56.412          GPS_NMEA_FROM_GPS    iGPS            $GPGGA,204801.000,4144.3506,N,06959.5642,W,2,10,1.06,4.9,M,-34.3,M,0000,0000*53 
57.415          GPS_NMEA_FROM_GPS    iGPS            $GPRMC,204802.000,A,4144.3506,N,06959.5640,W,0.70,88.60,230321,,,D*44 
58.417          GPS_NMEA_FROM_GPS    iGPS            $GPGGA,204803.000,4144.3506,N,06959.5638,W,2,11,0.91,4.9,M,-34.3,M,0000,0000*52 
59.319          GPS_NMEA_FROM_GPS    iGPS            $GPGGA,204804.000,4144.3506,N,06959.5635,W,2,11,0.91,4.9,M,-34.3,M,0000,0000*58 
60.323          GPS_NMEA_FROM_GPS    iGPS            $GPGGA,204805.000,4144.3507,N,06959.5632,W,2,11,0.91,4.9,M,-34.3,M,0000,0000*5F 
61.426          GPS_NMEA_FROM_GPS    iGPS            $GPRMC,204806.000,A,4144.3507,N,06959.5630,W,0.75,80.49,230321,,,D*40 
62.328          GPS_NMEA_FROM_GPS    iGPS            $GPGGA,204807.000,4144.3507,N,06959.5627,W,2,11,0.91,4.9,M,-34.3,M,0000,0000*59 
63.331          GPS_NMEA_FROM_GPS    iGPS            $GPGGA,204808.000,4144.3508,N,06959.5624,W,2,10,1.06,4.9,M,-34.3,M,0000,0000*54 
64.333          GPS_NMEA_FROM_GPS    iGPS            $GPGGA,204809.000,4144.3509,N,06959.5622,W,2,10,1.06,4.9,M,-34.3,M,0000,0000*52 
65.336          GPS_NMEA_FROM_GPS    iGPS            $GPGGA,204810.000,4144.3509,N,06959.5619,W,2,11,0.91,4.9,M,-34.3,M,0000,0000*5C 
66.439          GPS_NMEA_FROM_GPS    iGPS            $GPRMC,204811.000,A,4144.3510,N,06959.5616,W,0.76,74.43,230321,,,D*46 
67.441          GPS_NMEA_FROM_GPS    iGPS            $GPRMC,204812.000,A,4144.3511,N,06959.5613,W,0.77,74.34,230321,,,D*40 
68.344          GPS_NMEA_FROM_GPS    iGPS            $GPGGA,204813.000,4144.3511,N,06959.5610,W,2,11,0.91,4.8,M,-34.3,M,0000,0000*5E 
69.347          GPS_NMEA_FROM_GPS    iGPS            $GPGGA,204814.000,4144.3512,N,06959.5608,W,2,11,0.91,4.8,M,-34.3,M,0000,0000*53 
70.349          GPS_NMEA_FROM_GPS    iGPS            $GPGGA,204815.000,4144.3512,N,06959.5605,W,2,10,1.06,4.7,M,-34.3,M,0000,0000*5E 
71.351          GPS_NMEA_FROM_GPS    iGPS            $GPGGA,204816.000,4144.3513,N,06959.5602,W,2,10,1.06,4.6,M,-34.3,M,0000,0000*5A 
72.354          GPS_NMEA_FROM_GPS    iGPS            $GPGGA,204817.000,4144.3513,N,06959.5600,W,2,10,1.06,4.6,M,-34.3,M,0000,0000*59 
73.357          GPS_NMEA_FROM_GPS    iGPS            $GPGGA,204818.000,4144.3513,N,06959.5597,W,2,11,1.03,4.6,M,-34.3,M,0000,0000*5F 
74.359          GPS_NMEA_FROM_GPS    iGPS            $GPGGA,204819.000,4144.3513,N,06959.5594,W,2,11,0.91,4.6,M,-34.3,M,0000,0000*57 
75.362          GPS_NMEA_FROM_GPS    iGPS            $GPRMC,204820.000,A,4144.3513,N,06959.5592,W,0.79,81.78,230321,,,D*45 
76.364          GPS_NMEA_FROM_GPS    iGPS            $GPGGA,204821.000,4144.3513,N,06959.5589,W,2,11,0.91,4.7,M,-34.3,M,0000,0000*51 
77.367          GPS_NMEA_FROM_GPS    iGPS            $GPGGA,204822.000,4144.3512,N,06959.5587,W,2,10,1.11,4.7,M,-34.3,M,0000,0000*55 
78.369          GPS_NMEA_FROM_GPS    iGPS            $GPGGA,204823.000,4144.3512,N,06959.5584,W,2,10,1.00,4.7,M,-34.3,M,0000,0000*57 
79.372          GPS_NMEA_FROM_GPS    iGPS            $GPGGA,204824.000,4144.3511,N,06959.5582,W,2,10,1.00,4.7,M,-34.3,M,0000,0000*55 
80.374          GPS_NMEA_FROM_GPS    iGPS            $GPGGA,204825.000,4144.3510,N,06959.5579,W,2,10,1.00,4.7,M,-34.3,M,0000,0000*51 
81.377          GPS_NMEA_FROM_GPS    iGPS            $GPGGA,204826.000,4144.3511,N,06959.5577,W,2,10,1.00,4.7,M,-34.3,M,0000,0000*5D 
82.380          GPS_NMEA_FROM_GPS    iGPS            $GPRMC,204827.000,A,4144.3510,N,06959.5575,W,0.70,88.58,230321,,,D*4A 
83.382          GPS_NMEA_FROM_GPS    iGPS            $GPRMC,204828.000,A,4144.3510,N,06959.5572,W,0.71,87.69,230321,,,D*4E 
84.385          GPS_NMEA_FROM_GPS    iGPS            $GPGGA,204829.000,4144.3510,N,06959.5570,W,2,11,0.91,4.6,M,-34.3,M,0000,0000*5D 
85.287          GPS_NMEA_FROM_GPS    iGPS            $GPGGA,204830.000,4144.3510,N,06959.5568,W,2,11,0.91,4.6,M,-34.3,M,0000,0000*5C 
86.390          GPS_NMEA_FROM_GPS    iGPS            $GPRMC,204831.000,A,4144.3510,N,06959.5566,W,0.78,86.41,230321,,,D*41 
87.392          GPS_NMEA_FROM_GPS    iGPS            $GPGGA,204832.000,4144.3510,N,06959.5563,W,2,11,0.91,4.5,M,-34.3,M,0000,0000*56 
88.395          GPS_NMEA_FROM_GPS    iGPS            $GPGGA,204833.000,4144.3509,N,06959.5561,W,2,10,1.06,4.6,M,-34.3,M,0000,0000*50 
89.397          GPS_NMEA_FROM_GPS    iGPS            $GPGGA,204834.000,4144.3509,N,06959.5558,W,2,11,1.03,4.7,M,-34.3,M,0000,0000*58 
90.300          GPS_NMEA_FROM_GPS    iGPS            $GPGGA,204835.000,4144.3509,N,06959.5556,W,2,11,0.91,4.8,M,-34.3,M,0000,0000*52 
91.303          GPS_NMEA_FROM_GPS    iGPS            $GPGGA,204836.000,4144.3508,N,06959.5553,W,2,10,1.06,4.8,M,-34.3,M,0000,0000*5B 
92.406          GPS_NMEA_FROM_GPS    iGPS            $GPRMC,204837.000,A,4144.3509,N,06959.5551,W,0.70,89.03,230321,,,D*4A 
93.308          GPS_NMEA_FROM_GPS    iGPS            $GPGGA,204838.000,4144.3509,N,06959.5548,W,2,10,1.06,4.9,M,-34.3,M,0000,0000*5F 
94.412          GPS_NMEA_FROM_GPS    iGPS            $GPRMC,204839.000,A,4144.3509,N,06959.5545,W,0.75,84.01,230321,,,D*4B 
95.414          GPS_NMEA_FROM_GPS    iGPS            $GPRMC,204840.000,A,4144.3509,N,06959.5542,W,0.77,82.60,230321,,,D*41 
96.316          GPS_NMEA_FROM_GPS    iGPS            $GPGGA,204841.000,4144.3509,N,06959.5540,W,2,10,1.06,4.8,M,-34.3,M,0000,0000*58 
97.319          GPS_NMEA_FROM_GPS    iGPS            $GPGGA,204842.000,4144.3510,N,06959.5537,W,2,11,0.91,4.8,M,-34.3,M,0000,0000*5D 
98.422          GPS_NMEA_FROM_GPS    iGPS            $GPRMC,204843.000,A,4144.3511,N,06959.5534,W,0.77,78.19,230321,,,D*41 
99.324          GPS_NMEA_FROM_GPS    iGPS            $GPGGA,204844.000,4144.3511,N,06959.5532,W,2,10,1.06,4.8,M,-34.3,M,0000,0000*51 
100.327         GPS_NMEA_FROM_GPS    iGPS            $GPGGA,204845.000,4144.3511,N,06959.5529,W,2,10,1.06,4.8,M,-34.3,M,0000,0000*5A 
101.430         GPS_NMEA_FROM_GPS    iGPS            $GPRMC,204846.000,A,4144.3511,N,06959.5526,W,0.74,79.13,230321,,,D*4F 
102.332         GPS_NMEA_FROM_GPS    iGPS            $GPGGA,204847.000,4144.3512,N,06959.5523,W,2,10,1.06,4.8,M,-34.3,M,0000,0000*51 
103.335         GPS_NMEA_FROM_GPS    iGPS            $GPGGA,204848.000,4144.3512,N,06959.5521,W,2,10,1.06,4.9,M,-34.3,M,0000,0000*5D 
104.337         GPS_NMEA_FROM_GPS    iGPS            $GPGGA,204849.000,4144.3512,N,06959.5518,W,2,10,1.06,4.9,M,-34.3,M,0000,0000*56 
105.340         GPS_NMEA_FROM_GPS    iGPS            $GPGGA,204850.000,4144.3512,N,06959.5515,W,2,10,1.06,4.9,M,-34.3,M,0000,0000*53 
106.343         GPS_NMEA_FROM_GPS    iGPS            $GPGGA,204851.000,4144.3513,N,06959.5512,W,2,10,1.06,4.9,M,-34.3,M,0000,0000*54 
107.346         GPS_NMEA_FROM_GPS    iGPS            $GPRMC,204852.000,A,4144.3513,N,06959.5509,W,0.78,79.12,230321,,,D*48 
108.348         GPS_NMEA_FROM_GPS    iGPS            $GPGGA,204853.000,4144.3513,N,06959.5507,W,2,10,1.06,4.8,M,-34.3,M,0000,0000*53 
109.351         GPS_NMEA_FROM_GPS    iGPS            $GPGGA,204854.000,4144.3514,N,06959.5504,W,2,10,1.06,4.7,M,-34.3,M,0000,0000*5F 
110.354         GPS_NMEA_FROM_GPS    iGPS            $GPGGA,204855.000,4144.3514,N,06959.5501,W,2,10,1.06,4.7,M,-34.3,M,0000,0000*5B 
111.357         GPS_NMEA_FROM_GPS    iGPS            $GPRMC,204856.000,A,4144.3513,N,06959.5498,W,0.80,82.44,230321,,,D*45 
112.359         GPS_NMEA_FROM_GPS    iGPS            $GPGGA,204857.000,4144.3513,N,06959.5496,W,2,10,1.06,4.7,M,-34.3,M,0000,0000*51 
113.361         GPS_NMEA_FROM_GPS    iGPS            $GPGGA,204858.000,4144.3512,N,06959.5493,W,2,11,0.91,4.8,M,-34.3,M,0000,0000*5B 
114.264         GPS_NMEA_FROM_GPS    iGPS            $GPGGA,204859.000,4144.3512,N,06959.5491,W,2,11,0.91,4.8,M,-34.3,M,0000,0000*58 
115.366         GPS_NMEA_FROM_GPS    iGPS            $GPGGA,204900.000,4144.3511,N,06959.5488,W,2,11,0.91,4.8,M,-34.3,M,0000,0000*5E 
116.369         GPS_NMEA_FROM_GPS    iGPS            $GPGGA,204901.000,4144.3511,N,06959.5486,W,2,11,1.03,4.9,M,-34.3,M,0000,0000*5A 
117.372         GPS_NMEA_FROM_GPS    iGPS            $GPRMC,204902.000,A,4144.3511,N,06959.5484,W,0.71,88.33,230321,,,D*4E 
118.374         GPS_NMEA_FROM_GPS    iGPS            $GPRMC,204903.000,A,4144.3511,N,06959.5481,W,0.72,86.75,230321,,,D*45 
119.376         GPS_NMEA_FROM_GPS    iGPS            $GPGGA,204904.000,4144.3511,N,06959.5479,W,2,10,1.15,4.8,M,-34.3,M,0000,0000*58 
120.379         GPS_NMEA_FROM_GPS    iGPS            $GPRMC,204905.000,A,4144.3511,N,06959.5476,W,0.73,83.91,230321,,,D*45 
121.382         GPS_NMEA_FROM_GPS    iGPS            $GPGGA,204906.000,4144.3512,N,06959.5473,W,2,10,1.06,4.7,M,-34.3,M,0000,0000*5E 
122.384         GPS_NMEA_FROM_GPS    iGPS            $GPGGA,204907.000,4144.3512,N,06959.5470,W,2,10,1.15,4.6,M,-34.3,M,0000,0000*5F 
123.387         GPS_NMEA_FROM_GPS    iGPS            $GPGGA,204908.000,4144.3512,N,06959.5467,W,2,10,1.06,4.7,M,-34.3,M,0000,0000*55 
124.390         GPS_NMEA_FROM_GPS    iGPS            $GPRMC,204909.000,A,4144.3512,N,06959.5464,W,0.72,83.02,230321,,,D*42 
125.392         GPS_NMEA_FROM_GPS    iGPS            $GPRMC,204910.000,A,4144.3512,N,06959.5461,W,0.72,82.98,230321,,,D*4D 
126.294         GPS_NMEA_FROM_GPS    iGPS            $GPGGA,204911.000,4144.3513,N,06959.5458,W,2,10,1.06,4.7,M,-34.3,M,0000,0000*50 
127.397         GPS_NMEA_FROM_GPS    iGPS            $GPGGA,204912.000,4144.3513,N,06959.5455,W,2,11,0.91,4.7,M,-34.3,M,0000,0000*50 
128.300         GPS_NMEA_FROM_GPS    iGPS            $GPGGA,204913.000,4144.3514,N,06959.5452,W,2,11,0.91,4.7,M,-34.3,M,0000,0000*51 
129.403         GPS_NMEA_FROM_GPS    iGPS            $GPRMC,204914.000,A,4144.3514,N,06959.5450,W,0.79,78.89,230321,,,D*43 
130.405         GPS_NMEA_FROM_GPS    iGPS            $GPRMC,204915.000,A,4144.3515,N,06959.5447,W,0.80,76.22,230321,,,D*4C 
131.407         GPS_NMEA_FROM_GPS    iGPS            $GPGGA,204916.000,4144.3517,N,06959.5443,W,2,10,1.06,4.4,M,-34.3,M,0000,0000*5A 
132.410         GPS_NMEA_FROM_GPS    iGPS            $GPRMC,204917.000,A,4144.3518,N,06959.5440,W,0.80,71.87,230321,,,D*4C 
133.312         GPS_NMEA_FROM_GPS    iGPS            $GPGGA,204918.000,4144.3519,N,06959.5437,W,2,10,1.06,4.1,M,-34.3,M,0000,0000*5C 
134.315         GPS_NMEA_FROM_GPS    iGPS            $GPGGA,204919.000,4144.3521,N,06959.5434,W,2,10,1.06,4.0,M,-34.3,M,0000,0000*54 
135.418         GPS_NMEA_FROM_GPS    iGPS            $GPRMC,204920.000,A,4144.3522,N,06959.5432,W,0.75,70.55,230321,,,D*40 
136.420         GPS_NMEA_FROM_GPS    iGPS            $GPRMC,204921.000,A,4144.3522,N,06959.5429,W,0.76,71.75,230321,,,D*4B 
137.423         GPS_NMEA_FROM_GPS    iGPS            $GPRMC,204922.000,A,4144.3523,N,06959.5426,W,0.79,73.71,230321,,,D*4F 
138.325         GPS_NMEA_FROM_GPS    iGPS            $GPGGA,204923.000,4144.3524,N,06959.5423,W,2,10,1.06,4.1,M,-34.3,M,0000,0000*5F 
139.328         GPS_NMEA_FROM_GPS    iGPS            $GPGGA,204924.000,4144.3524,N,06959.5420,W,2,10,1.06,4.1,M,-34.3,M,0000,0000*5B 
140.431         GPS_NMEA_FROM_GPS    iGPS            $GPRMC,204925.000,A,4144.3525,N,06959.5417,W,0.80,78.52,230321,,,D*40 
141.433         GPS_NMEA_FROM_GPS    iGPS            $GPRMC,204926.000,A,4144.3525,N,06959.5414,W,0.83,78.64,230321,,,D*46 
142.335         GPS_NMEA_FROM_GPS    iGPS            $GPGGA,204927.000,4144.3525,N,06959.5411,W,2,10,1.06,4.2,M,-34.3,M,0000,0000*58 
143.338         GPS_NMEA_FROM_GPS    iGPS            $GPGGA,204928.000,4144.3526,N,06959.5408,W,2,10,1.06,4.2,M,-34.3,M,0000,0000*5C 
144.340         GPS_NMEA_FROM_GPS    iGPS            $GPGGA,204929.000,4144.3526,N,06959.5405,W,2,10,1.06,4.2,M,-34.3,M,0000,0000*50 
145.343         GPS_NMEA_FROM_GPS    iGPS            $GPGGA,204930.000,4144.3527,N,06959.5403,W,2,10,1.06,4.1,M,-34.3,M,0000,0000*5C 
146.345         GPS_NMEA_FROM_GPS    iGPS            $GPGGA,204931.000,4144.3527,N,06959.5400,W,2,10,1.06,4.0,M,-34.3,M,0000,0000*5F 
147.348         GPS_NMEA_FROM_GPS    iGPS            $GPGGA,204932.000,4144.3527,N,06959.5397,W,2,10,1.06,4.1,M,-34.3,M,0000,0000*54 
148.351         GPS_NMEA_FROM_GPS    iGPS            $GPGGA,204933.000,4144.3527,N,06959.5394,W,2,10,1.06,4.1,M,-34.3,M,0000,0000*56 
149.353         GPS_NMEA_FROM_GPS    iGPS            $GPGGA,204934.000,4144.3527,N,06959.5391,W,2,10,1.06,4.2,M,-34.3,M,0000,0000*57 
150.356         GPS_NMEA_FROM_GPS    iGPS            $GPGGA,204935.000,4144.3527,N,06959.5388,W,2,10,1.06,4.2,M,-34.3,M,0000,0000*5E 
151.358         GPS_NMEA_FROM_GPS    iGPS            $GPGGA,204936.000,4144.3526,N,06959.5386,W,2,10,1.06,4.3,M,-34.3,M,0000,0000*53 
152.361         GPS_NMEA_FROM_GPS    iGPS            $GPGGA,204937.000,4144.3526,N,06959.5383,W,2,10,1.15,4.4,M,-34.3,M,0000,0000*52 
153.363         GPS_NMEA_FROM_GPS    iGPS            $GPGGA,204938.000,4144.3527,N,06959.5380,W,2,10,1.06,4.3,M,-34.3,M,0000,0000*5A 
154.366         GPS_NMEA_FROM_GPS    iGPS            $GPGGA,204939.000,4144.3527,N,06959.5378,W,2,10,1.06,4.3,M,-34.3,M,0000,0000*5C 
155.369         GPS_NMEA_FROM_GPS    iGPS            $GPGGA,204940.000,4144.3527,N,06959.5375,W,2,10,1.06,4.3,M,-34.3,M,0000,0000*5F 
156.371         GPS_NMEA_FROM_GPS    iGPS            $GPRMC,204941.000,A,4144.3528,N,06959.5372,W,0.81,78.54,230321,,,D*4C 
157.374         GPS_NMEA_FROM_GPS    iGPS            $GPGGA,204942.000,4144.3529,N,06959.5369,W,2,10,1.06,4.2,M,-34.3,M,0000,0000*5F 
158.376         GPS_NMEA_FROM_GPS    iGPS            $GPRMC,204943.000,A,4144.3529,N,06959.5365,W,0.82,77.82,230321,,,D*4E 
159.379         GPS_NMEA_FROM_GPS    iGPS            $GPGGA,204944.000,4144.3530,N,06959.5362,W,2,10,1.06,4.2,M,-34.3,M,0000,0000*5A 
160.381         GPS_NMEA_FROM_GPS    iGPS            $GPGGA,204945.000,4144.3530,N,06959.5359,W,2,10,1.06,4.1,M,-34.3,M,0000,0000*50 
161.384         GPS_NMEA_FROM_GPS    iGPS            $GPRMC,204946.000,A,4144.3531,N,06959.5356,W,0.74,78.68,230321,,,D*40 
162.386         GPS_NMEA_FROM_GPS    iGPS            $GPGGA,204947.000,4144.3531,N,06959.5353,W,2,10,1.06,4.1,M,-34.3,M,0000,0000*59 
163.389         GPS_NMEA_FROM_GPS    iGPS            $GPRMC,204948.000,A,4144.3532,N,06959.5350,W,0.71,78.46,230321,,,D*42 
164.391         GPS_NMEA_FROM_GPS    iGPS            $GPGGA,204949.000,4144.3532,N,06959.5347,W,2,10,1.06,4.1,M,-34.3,M,0000,0000*51 
165.394         GPS_NMEA_FROM_GPS    iGPS            $GPRMC,204950.000,A,4144.3534,N,06959.5344,W,0.81,75.68,230321,,,D*46 
166.397         GPS_NMEA_FROM_GPS    iGPS            $GPRMC,204951.000,A,4144.3535,N,06959.5342,W,0.80,73.62,230321,,,D*4D 
167.299         GPS_NMEA_FROM_GPS    iGPS            $GPGGA,204952.000,4144.3536,N,06959.5339,W,2,10,1.06,3.9,M,-34.3,M,0000,0000*59 
168.301         GPS_NMEA_FROM_GPS    iGPS            $GPGGA,204953.000,4144.3537,N,06959.5336,W,2,10,1.06,3.8,M,-34.3,M,0000,0000*57 
169.304         GPS_NMEA_FROM_GPS    iGPS            $GPGGA,204954.000,4144.3539,N,06959.5333,W,2,10,1.06,3.7,M,-34.3,M,0000,0000*54 
170.307         GPS_NMEA_FROM_GPS    iGPS            $GPGGA,204955.000,4144.3540,N,06959.5331,W,2,10,1.06,3.5,M,-34.3,M,0000,0000*5B 
171.309         GPS_NMEA_FROM_GPS    iGPS            $GPGGA,204956.000,4144.3541,N,06959.5328,W,2,10,1.06,3.5,M,-34.3,M,0000,0000*51 
172.412         GPS_NMEA_FROM_GPS    iGPS            $GPGGA,204957.000,4144.3541,N,06959.5325,W,2,10,1.06,3.5,M,-34.3,M,0000,0000*5D 
173.415         GPS_NMEA_FROM_GPS    iGPS            $GPRMC,204958.000,A,4144.3542,N,06959.5322,W,0.78,75.44,230321,,,D*47 
174.417         GPS_NMEA_FROM_GPS    iGPS            $GPRMC,204959.000,A,4144.3542,N,06959.5319,W,0.78,77.30,230321,,,D*4F 
175.420         GPS_NMEA_FROM_GPS    iGPS            $GPRMC,205000.000,A,4144.3542,N,06959.5316,W,0.74,78.30,230321,,,D*47 
176.422         GPS_NMEA_FROM_GPS    iGPS            $GPRMC,205001.000,A,4144.3543,N,06959.5314,W,0.78,78.41,230321,,,D*4F 
177.324         GPS_NMEA_FROM_GPS    iGPS            $GPGGA,205002.000,4144.3543,N,06959.5311,W,2,11,0.91,3.4,M,-34.3,M,0000,0000*5F 
178.328         GPS_NMEA_FROM_GPS    iGPS            $GPGGA,205003.000,4144.3544,N,06959.5309,W,2,10,1.06,3.3,M,-34.3,M,0000,0000*59 
179.330         GPS_NMEA_FROM_GPS    iGPS            $GPGGA,205004.000,4144.3545,N,06959.5306,W,2,10,1.06,3.2,M,-34.3,M,0000,0000*51 
180.333         GPS_NMEA_FROM_GPS    iGPS            $GPGGA,205005.000,4144.3546,N,06959.5304,W,2,11,0.91,3.1,M,-34.3,M,0000,0000*5C 
181.335         GPS_NMEA_FROM_GPS    iGPS            $GPGGA,205006.000,4144.3546,N,06959.5301,W,2,11,0.91,3.0,M,-34.3,M,0000,0000*5B 
182.438         GPS_NMEA_FROM_GPS    iGPS            $GPRMC,205007.000,A,4144.3547,N,06959.5298,W,0.82,76.04,230321,,,D*42 
183.340         GPS_NMEA_FROM_GPS    iGPS            $GPGGA,205008.000,4144.3547,N,06959.5296,W,2,10,1.06,2.8,M,-34.3,M,0000,0000*5C 
184.343         GPS_NMEA_FROM_GPS    iGPS            $GPGGA,205009.000,4144.3548,N,06959.5293,W,2,10,1.06,2.8,M,-34.3,M,0000,0000*57 
185.346         GPS_NMEA_FROM_GPS    iGPS            $GPGGA,205010.000,4144.3548,N,06959.5290,W,2,10,1.06,2.8,M,-34.3,M,0000,0000*5C 
186.348         GPS_NMEA_FROM_GPS    iGPS            $GPGGA,205011.000,4144.3548,N,06959.5288,W,2,11,0.91,2.8,M,-34.3,M,0000,0000*5A 
187.351         GPS_NMEA_FROM_GPS    iGPS            $GPGGA,205012.000,4144.3548,N,06959.5285,W,2,11,0.91,2.8,M,-34.3,M,0000,0000*54 
188.353         GPS_NMEA_FROM_GPS    iGPS            $GPGGA,205013.000,4144.3548,N,06959.5283,W,2,11,0.91,2.7,M,-34.3,M,0000,0000*5C 
189.356         GPS_NMEA_FROM_GPS    iGPS            $GPGGA,205014.000,4144.3549,N,06959.5280,W,2,11,0.91,2.6,M,-34.3,M,0000,0000*58 
190.359         GPS_NMEA_FROM_GPS    iGPS            $GPGGA,205015.000,4144.3549,N,06959.5277,W,2,11,0.91,2.5,M,-34.3,M,0000,0000*52 
191.361         GPS_NMEA_FROM_GPS    iGPS            $GPGGA,205016.000,4144.3550,N,06959.5275,W,2,11,0.91,2.4,M,-34.3,M,0000,0000*5A 
192.364         GPS_NMEA_FROM_GPS    iGPS            $GPRMC,205017.000,A,4144.3551,N,06959.5272,W,0.76,75.33,230321,,,D*4C 
193.366         GPS_NMEA_FROM_GPS    iGPS            $GPGGA,205018.000,4144.3552,N,06959.5269,W,2,11,0.91,2.1,M,-34.3,M,0000,0000*5E 
194.369         GPS_NMEA_FROM_GPS    iGPS            $GPGGA,205019.000,4144.3553,N,06959.5266,W,2,10,1.06,2.0,M,-34.3,M,0000,0000*5E 
195.372         GPS_NMEA_FROM_GPS    iGPS            $GPGGA,205020.000,4144.3553,N,06959.5263,W,2,10,1.06,2.0,M,-34.3,M,0000,0000*51 
196.274         GPS_NMEA_FROM_GPS    iGPS            $GPGGA,205021.000,4144.3553,N,06959.5260,W,2,10,1.06,2.0,M,-34.3,M,0000,0000*53 
197.377         GPS_NMEA_FROM_GPS    iGPS            $GPGGA,205022.000,4144.3554,N,06959.5257,W,2,10,1.06,2.0,M,-34.3,M,0000,0000*53 
198.281         GPS_NMEA_FROM_GPS    iGPS            $GPGGA,205023.000,4144.3554,N,06959.5254,W,2,10,1.06,2.1,M,-34.3,M,0000,0000*50 
199.283         GPS_NMEA_FROM_GPS    iGPS            $GPGGA,205024.000,4144.3554,N,06959.5251,W,2,10,1.06,2.1,M,-34.3,M,0000,0000*52 
200.386         GPS_NMEA_FROM_GPS    iGPS            $GPGGA,205025.000,4144.3555,N,06959.5248,W,2,10,1.06,2.2,M,-34.3,M,0000,0000*59 
201.388         GPS_NMEA_FROM_GPS    iGPS            $GPGGA,205026.000,4144.3556,N,06959.5245,W,2,10,1.06,2.1,M,-34.3,M,0000,0000*57 
202.291         GPS_NMEA_FROM_GPS    iGPS            $GPGGA,205027.000,4144.3557,N,06959.5242,W,2,10,1.06,2.0,M,-34.3,M,0000,0000*51 
203.294         GPS_NMEA_FROM_GPS    iGPS            $GPGGA,205028.000,4144.3558,N,06959.5240,W,2,10,1.06,1.9,M,-34.3,M,0000,0000*59 
204.397         GPS_NMEA_FROM_GPS    iGPS            $GPGGA,205029.000,4144.3559,N,06959.5237,W,2,10,1.06,1.8,M,-34.3,M,0000,0000*58 
205.399         GPS_NMEA_FROM_GPS    iGPS            $GPGGA,205030.000,4144.3561,N,06959.5234,W,2,10,1.06,1.6,M,-34.3,M,0000,0000*56 
206.403         GPS_NMEA_FROM_GPS    iGPS            $GPRMC,205031.000,A,4144.3562,N,06959.5232,W,0.78,71.70,230321,,,D*41 
207.405         GPS_NMEA_FROM_GPS    iGPS            $GPRMC,205032.000,A,4144.3562,N,06959.5229,W,0.76,72.32,230321,,,D*43 
208.307         GPS_NMEA_FROM_GPS    iGPS            $GPGGA,205033.000,4144.3563,N,06959.5226,W,2,10,1.06,1.5,M,-34.3,M,0000,0000*57 
209.310         GPS_NMEA_FROM_GPS    iGPS            $GPGGA,205034.000,4144.3564,N,06959.5223,W,2,10,1.06,1.5,M,-34.3,M,0000,0000*52 
210.413         GPS_NMEA_FROM_GPS    iGPS            $GPRMC,205035.000,A,4144.3565,N,06959.5220,W,0.78,72.92,230321,,,D*4E 
211.315         GPS_NMEA_FROM_GPS    iGPS            $GPGGA,205036.000,4144.3566,N,06959.5218,W,2,10,1.06,1.5,M,-34.3,M,0000,0000*5A 
212.418         GPS_NMEA_FROM_GPS    iGPS            $GPRMC,205037.000,A,4144.3567,N,06959.5215,W,0.78,72.17,230321,,,D*45 
213.320         GPS_NMEA_FROM_GPS    iGPS            $GPGGA,205038.000,4144.3568,N,06959.5212,W,2,10,1.06,1.4,M,-34.3,M,0000,0000*51 
214.423         GPS_NMEA_FROM_GPS    iGPS            $GPRMC,205039.000,A,4144.3569,N,06959.5209,W,0.76,72.02,230321,,,D*42 
215.325         GPS_NMEA_FROM_GPS    iGPS            $GPGGA,205040.000,4144.3571,N,06959.5207,W,2,10,1.06,1.2,M,-34.3,M,0000,0000*54 
216.428         GPS_NMEA_FROM_GPS    iGPS            $GPRMC,205041.000,A,4144.3571,N,06959.5205,W,0.75,71.31,230321,,,D*48 
217.331         GPS_NMEA_FROM_GPS    iGPS            $GPGGA,205042.000,4144.3572,N,06959.5202,W,2,10,1.06,1.0,M,-34.3,M,0000,0000*52 
218.434         GPS_NMEA_FROM_GPS    iGPS            $GPRMC,205043.000,A,4144.3573,N,06959.5199,W,0.79,71.56,230321,,,D*43 
219.336         GPS_NMEA_FROM_GPS    iGPS            $GPGGA,205044.000,4144.3574,N,06959.5196,W,2,10,1.06,1.0,M,-34.3,M,0000,0000*5C 
220.339         GPS_NMEA_FROM_GPS    iGPS            $GPGGA,205045.000,4144.3575,N,06959.5193,W,2,10,1.06,0.9,M,-34.3,M,0000,0000*51 
221.341         GPS_NMEA_FROM_GPS    iGPS            $GPGGA,205046.000,4144.3575,N,06959.5190,W,2,10,1.06,1.0,M,-34.3,M,0000,0000*59 
222.344         GPS_NMEA_FROM_GPS    iGPS            $GPGGA,205047.000,4144.3576,N,06959.5187,W,2,10,1.06,1.0,M,-34.3,M,0000,0000*5D 
223.347         GPS_NMEA_FROM_GPS    iGPS            $GPGGA,205048.000,4144.3577,N,06959.5185,W,2,10,1.06,1.0,M,-34.3,M,0000,0000*51 
224.349         GPS_NMEA_FROM_GPS    iGPS            $GPGGA,205049.000,4144.3577,N,06959.5182,W,2,10,1.06,1.0,M,-34.3,M,0000,0000*57 
225.352         GPS_NMEA_FROM_GPS    iGPS            $GPGGA,205050.000,4144.3578,N,06959.5179,W,2,10,1.06,0.9,M,-34.3,M,0000,0000*5C 
226.355         GPS_NMEA_FROM_GPS    iGPS            $GPGGA,205051.000,4144.3579,N,06959.5177,W,2,10,1.06,0.9,M,-34.3,M,0000,0000*52 
227.358         GPS_NMEA_FROM_GPS    iGPS            $GPGGA,205052.000,4144.3579,N,06959.5174,W,2,10,1.06,0.8,M,-34.3,M,0000,0000*53 
228.361         GPS_NMEA_FROM_GPS    iGPS            $GPGGA,205053.000,4144.3580,N,06959.5172,W,2,10,1.06,0.8,M,-34.3,M,0000,0000*52 
229.363         GPS_NMEA_FROM_GPS    iGPS            $GPRMC,205054.000,A,4144.3580,N,06959.5169,W,0.76,77.28,230321,,,D*46 
230.366         GPS_NMEA_FROM_GPS    iGPS            $GPRMC,205055.000,A,4144.3580,N,06959.5166,W,0.74,78.55,230321,,,D*4F 
231.368         GPS_NMEA_FROM_GPS    iGPS            $GPGGA,205056.000,4144.3581,N,06959.5163,W,2,10,1.06,0.7,M,-34.3,M,0000,0000*59 
232.371         GPS_NMEA_FROM_GPS    iGPS            $GPRMC,205057.000,A,4144.3581,N,06959.5160,W,0.76,77.96,230321,,,D*48 
233.373         GPS_NMEA_FROM_GPS    iGPS            $GPGGA,205058.000,4144.3582,N,06959.5158,W,2,10,1.06,0.7,M,-34.3,M,0000,0000*5C 
234.376         GPS_NMEA_FROM_GPS    iGPS            $GPRMC,205059.000,A,4144.3582,N,06959.5155,W,0.75,77.32,230321,,,D*4E 
235.379         GPS_NMEA_FROM_GPS    iGPS            $GPGGA,205100.000,4144.3583,N,06959.5152,W,2,10,1.06,0.7,M,-34.3,M,0000,0000*5B 
236.381         GPS_NMEA_FROM_GPS    iGPS            $GPGGA,205101.000,4144.3583,N,06959.5149,W,2,10,1.06,0.8,M,-34.3,M,0000,0000*5F 
237.384         GPS_NMEA_FROM_GPS    iGPS            $GPGGA,205102.000,4144.3584,N,06959.5147,W,2,10,1.06,0.7,M,-34.3,M,0000,0000*5A 
238.386         GPS_NMEA_FROM_GPS    iGPS            $GPGGA,205103.000,4144.3585,N,06959.5145,W,2,11,0.91,0.7,M,-34.3,M,0000,0000*56 
239.289         GPS_NMEA_FROM_GPS    iGPS            $GPGGA,205104.000,4144.3586,N,06959.5142,W,2,11,0.91,0.7,M,-34.3,M,0000,0000*55 
240.392         GPS_NMEA_FROM_GPS    iGPS            $GPGGA,205105.000,4144.3586,N,06959.5140,W,2,11,0.91,0.6,M,-34.3,M,0000,0000*57 
241.294         GPS_NMEA_FROM_GPS    iGPS            $GPGGA,205106.000,4144.3586,N,06959.5138,W,2,11,1.03,0.7,M,-34.3,M,0000,0000*50 
242.397         GPS_NMEA_FROM_GPS    iGPS            $GPRMC,205107.000,A,4144.3586,N,06959.5136,W,0.53,77.46,230321,,,D*42 
243.399         GPS_NMEA_FROM_GPS    iGPS            $GPRMC,205108.000,A,4144.3585,N,06959.5135,W,0.50,81.63,230321,,,D*40 
244.301         GPS_NMEA_FROM_GPS    iGPS            $GPGGA,205109.000,4144.3583,N,06959.5134,W,2,11,0.91,1.0,M,-34.3,M,0000,0000*5A 
245.304         GPS_NMEA_FROM_GPS    iGPS            $GPGGA,205110.000,4144.3582,N,06959.5132,W,2,11,1.03,0.9,M,-34.3,M,0000,0000*57 
246.407         GPS_NMEA_FROM_GPS    iGPS            $GPRMC,205111.000,A,4144.3582,N,06959.5131,W,0.46,103.00,230321,,,D*72 
247.410         GPS_NMEA_FROM_GPS    iGPS            $GPRMC,205112.000,A,4144.3581,N,06959.5130,W,0.42,112.53,230321,,,D*71 
248.412         GPS_NMEA_FROM_GPS    iGPS            $GPRMC,205113.000,A,4144.3580,N,06959.5129,W,0.37,122.12,230321,,,D*7D 
249.314         GPS_NMEA_FROM_GPS    iGPS            $GPGGA,205114.000,4144.3579,N,06959.5128,W,2,11,1.03,0.9,M,-34.3,M,0000,0000*5C 
250.417         GPS_NMEA_FROM_GPS    iGPS            $GPRMC,205115.000,A,4144.3578,N,06959.5128,W,0.39,147.21,230321,,,D*70 
251.319         GPS_NMEA_FROM_GPS    iGPS            $GPGGA,205116.000,4144.3577,N,06959.5129,W,2,11,1.03,0.9,M,-34.3,M,0000,0000*51 
252.322         GPS_NMEA_FROM_GPS    iGPS            $GPGGA,205117.000,4144.3576,N,06959.5129,W,2,11,1.03,0.8,M,-34.3,M,0000,0000*50 
253.324         GPS_NMEA_FROM_GPS    iGPS            $GPGGA,205118.000,4144.3574,N,06959.5130,W,2,11,1.03,0.8,M,-34.3,M,0000,0000*55 
254.327         GPS_NMEA_FROM_GPS    iGPS            $GPGGA,205119.000,4144.3574,N,06959.5131,W,2,11,1.03,0.8,M,-34.3,M,0000,0000*55 
255.330         GPS_NMEA_FROM_GPS    iGPS            $GPGGA,205120.000,4144.3574,N,06959.5132,W,2,11,1.03,0.8,M,-34.3,M,0000,0000*5C 
256.334         GPS_NMEA_FROM_GPS    iGPS            $GPGGA,205121.000,4144.3574,N,06959.5133,W,2,11,1.03,0.8,M,-34.3,M,0000,0000*5C 
257.336         GPS_NMEA_FROM_GPS    iGPS            $GPGGA,205122.000,4144.3574,N,06959.5135,W,2,11,1.03,0.8,M,-34.3,M,0000,0000*59 
258.339         GPS_NMEA_FROM_GPS    iGPS            $GPRMC,205123.000,A,4144.3574,N,06959.5136,W,0.41,278.20,230321,,,D*77 
259.341         GPS_NMEA_FROM_GPS    iGPS            $GPGGA,205124.000,4144.3575,N,06959.5137,W,2,11,1.03,0.8,M,-34.3,M,0000,0000*5C 
260.344         GPS_NMEA_FROM_GPS    iGPS            $GPGGA,205125.000,4144.3576,N,06959.5138,W,2,11,0.91,0.8,M,-34.3,M,0000,0000*5B 
261.346         GPS_NMEA_FROM_GPS    iGPS            $GPGGA,205126.000,4144.3578,N,06959.5139,W,2,11,0.91,0.8,M,-34.3,M,0000,0000*57 
262.349         GPS_NMEA_FROM_GPS    iGPS            $GPRMC,205127.000,A,4144.3579,N,06959.5140,W,0.59,320.35,230321,,,D*7E 
263.351         GPS_NMEA_FROM_GPS    iGPS            $GPGGA,205128.000,4144.3580,N,06959.5141,W,2,11,0.91,0.8,M,-34.3,M,0000,0000*51 
264.354         GPS_NMEA_FROM_GPS    iGPS            $GPGGA,205129.000,4144.3582,N,06959.5142,W,2,11,0.91,0.9,M,-34.3,M,0000,0000*50 
265.357         GPS_NMEA_FROM_GPS    iGPS            $GPRMC,205130.000,A,4144.3583,N,06959.5143,W,0.54,319.78,230321,,,D*70 
266.359         GPS_NMEA_FROM_GPS    iGPS            $GPGGA,205131.000,4144.3584,N,06959.5145,W,2,10,1.15,1.0,M,-34.3,M,0000,0000*5C 
267.362         GPS_NMEA_FROM_GPS    iGPS            $GPGGA,205132.000,4144.3584,N,06959.5146,W,2,11,1.03,1.0,M,-34.3,M,0000,0000*5A 
268.364         GPS_NMEA_FROM_GPS    iGPS            $GPGGA,205133.000,4144.3585,N,06959.5148,W,2,11,1.04,1.0,M,-34.3,M,0000,0000*53 
269.368         GPS_NMEA_FROM_GPS    iGPS            $GPRMC,205134.000,A,4144.3586,N,06959.5149,W,0.44,306.20,230321,,,D*79 
270.270         GPS_NMEA_FROM_GPS    iGPS            $GPGGA,205135.000,4144.3586,N,06959.5151,W,2,11,1.03,1.0,M,-34.3,M,0000,0000*59 
271.373         GPS_NMEA_FROM_GPS    iGPS            $GPRMC,205136.000,A,4144.3587,N,06959.5153,W,0.42,293.35,230321,,,D*7E 
272.274         GPS_NMEA_FROM_GPS    iGPS            $GPGGA,205137.000,4144.3587,N,06959.5154,W,2,11,1.04,0.9,M,-34.3,M,0000,0000*50 
273.377         GPS_NMEA_FROM_GPS    iGPS            $GPGGA,205138.000,4144.3586,N,06959.5155,W,2,11,0.91,0.9,M,-34.3,M,0000,0000*52 
274.380         GPS_NMEA_FROM_GPS    iGPS            $GPRMC,205139.000,A,4144.3585,N,06959.5157,W,0.46,253.56,230321,,,D*7A 
275.283         GPS_NMEA_FROM_GPS    iGPS            $GPGGA,205140.000,4144.3584,N,06959.5158,W,2,11,0.91,0.9,M,-34.3,M,0000,0000*52 
276.386         GPS_NMEA_FROM_GPS    iGPS            $GPRMC,205141.000,A,4144.3583,N,06959.5159,W,0.48,234.53,230321,,,D*77 
277.288         GPS_NMEA_FROM_GPS    iGPS            $GPGGA,205142.000,4144.3582,N,06959.5160,W,2,11,0.91,1.0,M,-34.3,M,0000,0000*55 
278.391         GPS_NMEA_FROM_GPS    iGPS            $GPGGA,205143.000,4144.3581,N,06959.5161,W,2,11,0.91,1.0,M,-34.3,M,0000,0000*56 
279.293         GPS_NMEA_FROM_GPS    iGPS            $GPGGA,205144.000,4144.3579,N,06959.5162,W,2,11,0.91,1.0,M,-34.3,M,0000,0000*55 
280.396         GPS_NMEA_FROM_GPS    iGPS            $GPGGA,205145.000,4144.3576,N,06959.5164,W,2,11,0.91,1.1,M,-34.3,M,0000,0000*5C 
281.398         GPS_NMEA_FROM_GPS    iGPS            $GPGGA,205146.000,4144.3574,N,06959.5166,W,2,11,0.91,1.2,M,-34.3,M,0000,0000*5C 
282.401         GPS_NMEA_FROM_GPS    iGPS            $GPRMC,205147.000,A,4144.3572,N,06959.5168,W,0.67,204.73,230321,,,D*71 
283.403         GPS_NMEA_FROM_GPS    iGPS            $GPRMC,205148.000,A,4144.3570,N,06959.5171,W,0.61,206.41,230321,,,D*71 
284.406         GPS_NMEA_FROM_GPS    iGPS            $GPRMC,205149.000,A,4144.3569,N,06959.5173,W,0.57,209.64,230321,,,D*77 
285.408         GPS_NMEA_FROM_GPS    iGPS            $GPGGA,205150.000,4144.3567,N,06959.5175,W,2,11,0.91,1.2,M,-34.3,M,0000,0000*5B 
286.311         GPS_NMEA_FROM_GPS    iGPS            $GPGGA,205151.000,4144.3566,N,06959.5177,W,2,11,0.91,1.3,M,-34.3,M,0000,0000*58 
287.313         GPS_NMEA_FROM_GPS    iGPS            $GPGGA,205152.000,4144.3564,N,06959.5180,W,2,11,1.04,1.4,M,-34.3,M,0000,0000*5B 
288.316         GPS_NMEA_FROM_GPS    iGPS            $GPGGA,205153.000,4144.3563,N,06959.5182,W,2,11,1.04,1.4,M,-34.3,M,0000,0000*5F 
289.318         GPS_NMEA_FROM_GPS    iGPS            $GPGGA,205154.000,4144.3563,N,06959.5185,W,2,11,1.04,1.5,M,-34.3,M,0000,0000*5E 
290.321         GPS_NMEA_FROM_GPS    iGPS            $GPGGA,205155.000,4144.3562,N,06959.5187,W,2,11,0.91,1.5,M,-34.3,M,0000,0000*51 
291.324         GPS_NMEA_FROM_GPS    iGPS            $GPGGA,205156.000,4144.3562,N,06959.5190,W,2,10,1.07,1.5,M,-34.3,M,0000,0000*5B 
292.326         GPS_NMEA_FROM_GPS    iGPS            $GPGGA,205157.000,4144.3562,N,06959.5193,W,2,10,1.07,1.6,M,-34.3,M,0000,0000*5A 
293.329         GPS_NMEA_FROM_GPS    iGPS            $GPGGA,205158.000,4144.3563,N,06959.5195,W,2,10,1.15,1.6,M,-34.3,M,0000,0000*51 
294.332         GPS_NMEA_FROM_GPS    iGPS            $GPGGA,205159.000,4144.3564,N,06959.5198,W,2,10,1.15,1.6,M,-34.3,M,0000,0000*5A 
295.334         GPS_NMEA_FROM_GPS    iGPS            $GPGGA,205200.000,4144.3564,N,06959.5200,W,2,10,1.15,1.6,M,-34.3,M,0000,0000*57 
296.437         GPS_NMEA_FROM_GPS    iGPS            $GPRMC,205201.000,A,4144.3565,N,06959.5203,W,0.67,279.31,230321,,,D*74 
297.339         GPS_NMEA_FROM_GPS    iGPS            $GPGGA,205202.000,4144.3566,N,06959.5205,W,2,10,1.07,1.6,M,-34.3,M,0000,0000*51 
298.342         GPS_NMEA_FROM_GPS    iGPS            $GPGGA,205203.000,4144.3567,N,06959.5208,W,2,10,1.07,1.6,M,-34.3,M,0000,0000*5C 
299.344         GPS_NMEA_FROM_GPS    iGPS            $GPGGA,205204.000,4144.3568,N,06959.5210,W,2,11,0.91,1.5,M,-34.3,M,0000,0000*51 
300.347         GPS_NMEA_FROM_GPS    iGPS            $GPRMC,205205.000,A,4144.3569,N,06959.5213,W,0.67,285.01,230321,,,D*7D 
301.350         GPS_NMEA_FROM_GPS    iGPS            $GPGGA,205206.000,4144.3570,N,06959.5216,W,2,11,1.04,1.6,M,-34.3,M,0000,0000*52 
302.252         GPS_NMEA_FROM_GPS    iGPS            $GPGGA,205207.000,4144.3570,N,06959.5219,W,2,11,1.04,1.6,M,-34.3,M,0000,0000*5C 
303.355         GPS_NMEA_FROM_GPS    iGPS            $GPGGA,205208.000,4144.3570,N,06959.5221,W,2,11,0.91,1.8,M,-34.3,M,0000,0000*5B 
304.358         GPS_NMEA_FROM_GPS    iGPS            $GPGGA,205209.000,4144.3570,N,06959.5223,W,2,11,0.91,1.8,M,-34.3,M,0000,0000*58 
305.260         GPS_NMEA_FROM_GPS    iGPS            $GPGGA,205210.000,4144.3570,N,06959.5226,W,2,11,1.04,2.0,M,-34.3,M,0000,0000*53 
306.363         GPS_NMEA_FROM_GPS    iGPS            $GPGGA,205211.000,4144.3569,N,06959.5228,W,2,11,1.04,2.1,M,-34.3,M,0000,0000*55 
307.265         GPS_NMEA_FROM_GPS    iGPS            $GPGGA,205212.000,4144.3569,N,06959.5230,W,2,11,1.04,2.2,M,-34.3,M,0000,0000*5C 
308.268         GPS_NMEA_FROM_GPS    iGPS            $GPGGA,205213.000,4144.3568,N,06959.5233,W,2,11,0.91,2.2,M,-34.3,M,0000,0000*52 
309.270         GPS_NMEA_FROM_GPS    iGPS            $GPGGA,205214.000,4144.3567,N,06959.5235,W,2,11,0.91,2.2,M,-34.3,M,0000,0000*5C 
310.373         GPS_NMEA_FROM_GPS    iGPS            $GPGGA,205215.000,4144.3566,N,06959.5237,W,2,11,0.91,2.2,M,-34.3,M,0000,0000*5E 
311.375         GPS_NMEA_FROM_GPS    iGPS            $GPGGA,205216.000,4144.3565,N,06959.5240,W,2,11,1.04,2.2,M,-34.3,M,0000,0000*53 
312.378         GPS_NMEA_FROM_GPS    iGPS            $GPGGA,205217.000,4144.3563,N,06959.5242,W,2,11,0.91,2.2,M,-34.3,M,0000,0000*5B 
313.380         GPS_NMEA_FROM_GPS    iGPS            $GPGGA,205218.000,4144.3562,N,06959.5245,W,2,11,0.91,2.2,M,-34.3,M,0000,0000*52 
314.383         GPS_NMEA_FROM_GPS    iGPS            $GPRMC,205219.000,A,4144.3560,N,06959.5247,W,0.75,235.71,230321,,,D*77 
315.285         GPS_NMEA_FROM_GPS    iGPS            $GPGGA,205220.000,4144.3558,N,06959.5250,W,2,11,0.91,2.2,M,-34.3,M,0000,0000*54 
316.288         GPS_NMEA_FROM_GPS    iGPS            $GPGGA,205221.000,4144.3557,N,06959.5252,W,2,11,0.91,2.2,M,-34.3,M,0000,0000*58 
317.291         GPS_NMEA_FROM_GPS    iGPS            $GPGGA,205222.000,4144.3555,N,06959.5255,W,2,11,0.91,2.2,M,-34.3,M,0000,0000*5E 
318.393         GPS_NMEA_FROM_GPS    iGPS            $GPGGA,205223.000,4144.3553,N,06959.5257,W,2,11,1.04,2.2,M,-34.3,M,0000,0000*56 
319.396         GPS_NMEA_FROM_GPS    iGPS            $GPGGA,205224.000,4144.3552,N,06959.5259,W,2,11,0.91,2.2,M,-34.3,M,0000,0000*53 
320.399         GPS_NMEA_FROM_GPS    iGPS            $GPGGA,205225.000,4144.3550,N,06959.5262,W,2,11,0.91,2.2,M,-34.3,M,0000,0000*58 
321.301         GPS_NMEA_FROM_GPS    iGPS            $GPGGA,205226.000,4144.3549,N,06959.5265,W,2,11,0.91,2.3,M,-34.3,M,0000,0000*55 
322.404         GPS_NMEA_FROM_GPS    iGPS            $GPGGA,205227.000,4144.3548,N,06959.5268,W,2,11,0.91,2.4,M,-34.3,M,0000,0000*5F 
323.306         GPS_NMEA_FROM_GPS    iGPS            $GPGGA,205228.000,4144.3547,N,06959.5271,W,2,11,1.04,2.4,M,-34.3,M,0000,0000*5A 
324.409         GPS_NMEA_FROM_GPS    iGPS            $GPGGA,205229.000,4144.3546,N,06959.5274,W,2,11,0.91,2.5,M,-34.3,M,0000,0000*53 
325.312         GPS_NMEA_FROM_GPS    iGPS            $GPGGA,205230.000,4144.3545,N,06959.5277,W,2,10,1.07,2.6,M,-34.3,M,0000,0000*57 
326.315         GPS_NMEA_FROM_GPS    iGPS            $GPGGA,205231.000,4144.3545,N,06959.5280,W,2,11,1.04,2.8,M,-34.3,M,0000,0000*52 
327.318         GPS_NMEA_FROM_GPS    iGPS            $GPGGA,205232.000,4144.3544,N,06959.5283,W,2,11,0.91,2.9,M,-34.3,M,0000,0000*5F 
328.320         GPS_NMEA_FROM_GPS    iGPS            $GPRMC,205233.000,A,4144.3544,N,06959.5286,W,0.81,255.45,230321,,,D*7E 
329.322         GPS_NMEA_FROM_GPS    iGPS            $GPGGA,205234.000,4144.3544,N,06959.5289,W,2,11,0.91,3.1,M,-34.3,M,0000,0000*5A 
330.325         GPS_NMEA_FROM_GPS    iGPS            $GPGGA,205235.000,4144.3543,N,06959.5292,W,2,11,0.91,3.2,M,-34.3,M,0000,0000*55 
331.328         GPS_NMEA_FROM_GPS    iGPS            $GPGGA,205236.000,4144.3544,N,06959.5296,W,2,11,1.04,3.2,M,-34.3,M,0000,0000*58 
332.330         GPS_NMEA_FROM_GPS    iGPS            $GPGGA,205237.000,4144.3544,N,06959.5298,W,2,11,0.91,3.2,M,-34.3,M,0000,0000*5A 
333.333         GPS_NMEA_FROM_GPS    iGPS            $GPGGA,205238.000,4144.3544,N,06959.5301,W,2,11,0.91,3.2,M,-34.3,M,0000,0000*54 
334.336         GPS_NMEA_FROM_GPS    iGPS            $GPGGA,205239.000,4144.3544,N,06959.5304,W,2,11,0.91,3.2,M,-34.3,M,0000,0000*50 
335.339         GPS_NMEA_FROM_GPS    iGPS            $GPRMC,205240.000,A,4144.3544,N,06959.5307,W,0.68,266.15,230321,,,D*70 
336.341         GPS_NMEA_FROM_GPS    iGPS            $GPRMC,205241.000,A,4144.3544,N,06959.5310,W,0.69,265.79,230321,,,D*7F 
337.344         GPS_NMEA_FROM_GPS    iGPS            $GPGGA,205242.000,4144.3544,N,06959.5312,W,2,11,0.91,3.3,M,-34.3,M,0000,0000*5A 
338.347         GPS_NMEA_FROM_GPS    iGPS            $GPRMC,205243.000,A,4144.3543,N,06959.5314,W,0.70,264.20,230321,,,D*7B 
339.349         GPS_NMEA_FROM_GPS    iGPS            $GPGGA,205244.000,4144.3543,N,06959.5317,W,2,11,0.91,3.5,M,-34.3,M,0000,0000*58 
340.351         GPS_NMEA_FROM_GPS    iGPS            $GPGGA,205245.000,4144.3542,N,06959.5319,W,2,11,0.91,3.6,M,-34.3,M,0000,0000*55 
341.355         GPS_NMEA_FROM_GPS    iGPS            $GPGGA,205246.000,4144.3542,N,06959.5322,W,2,11,1.04,3.6,M,-34.3,M,0000,0000*53 
342.357         GPS_NMEA_FROM_GPS    iGPS            $GPGGA,205247.000,4144.3541,N,06959.5324,W,2,11,1.04,3.6,M,-34.3,M,0000,0000*57 
343.360         GPS_NMEA_FROM_GPS    iGPS            $GPGGA,205248.000,4144.3540,N,06959.5326,W,2,11,0.91,3.7,M,-34.3,M,0000,0000*57 
344.363         GPS_NMEA_FROM_GPS    iGPS            $GPGGA,205249.000,4144.3539,N,06959.5328,W,2,11,0.91,3.6,M,-34.3,M,0000,0000*57 
345.366         GPS_NMEA_FROM_GPS    iGPS            $GPGGA,205250.000,4144.3537,N,06959.5331,W,2,11,0.91,3.6,M,-34.3,M,0000,0000*59 
346.368         GPS_NMEA_FROM_GPS    iGPS            $GPGGA,205251.000,4144.3536,N,06959.5333,W,2,11,0.91,3.6,M,-34.3,M,0000,0000*5B 
347.371         GPS_NMEA_FROM_GPS    iGPS            $GPGGA,205252.000,4144.3534,N,06959.5335,W,2,11,1.04,3.5,M,-34.3,M,0000,0000*52 
348.374         GPS_NMEA_FROM_GPS    iGPS            $GPGGA,205253.000,4144.3532,N,06959.5337,W,2,11,0.91,3.5,M,-34.3,M,0000,0000*5A 
349.377         GPS_NMEA_FROM_GPS    iGPS            $GPGGA,205254.000,4144.3530,N,06959.5340,W,2,11,0.91,3.6,M,-34.3,M,0000,0000*5C 
350.379         GPS_NMEA_FROM_GPS    iGPS            $GPRMC,205255.000,A,4144.3528,N,06959.5342,W,0.78,233.41,230321,,,D*7F 
351.282         GPS_NMEA_FROM_GPS    iGPS            $GPGGA,205256.000,4144.3527,N,06959.5345,W,2,11,0.91,3.7,M,-34.3,M,0000,0000*5C 
352.384         GPS_NMEA_FROM_GPS    iGPS            $GPGGA,205257.000,4144.3525,N,06959.5347,W,2,11,0.91,3.7,M,-34.3,M,0000,0000*5D 
353.388         GPS_NMEA_FROM_GPS    iGPS            $GPGGA,205258.000,4144.3523,N,06959.5349,W,2,11,1.04,3.7,M,-34.3,M,0000,0000*57 
354.390         GPS_NMEA_FROM_GPS    iGPS            $GPGGA,205259.000,4144.3522,N,06959.5350,W,2,11,1.04,3.7,M,-34.3,M,0000,0000*5F 
355.393         GPS_NMEA_FROM_GPS    iGPS            $GPGGA,205300.000,4144.3521,N,06959.5353,W,2,10,1.15,3.8,M,-34.3,M,0000,0000*5C 
356.396         GPS_NMEA_FROM_GPS    iGPS            $GPGGA,205301.000,4144.3520,N,06959.5355,W,2,11,0.91,3.9,M,-34.3,M,0000,0000*57 
357.298         GPS_NMEA_FROM_GPS    iGPS            $GPGGA,205302.000,4144.3519,N,06959.5357,W,2,10,1.07,4.0,M,-34.3,M,0000,0000*5D 
358.301         GPS_NMEA_FROM_GPS    iGPS            $GPGGA,205303.000,4144.3519,N,06959.5358,W,2,10,1.07,4.0,M,-34.3,M,0000,0000*53 
359.304         GPS_NMEA_FROM_GPS    iGPS            $GPGGA,205304.000,4144.3520,N,06959.5359,W,2,10,1.15,3.9,M,-34.3,M,0000,0000*52 
360.306         GPS_NMEA_FROM_GPS    iGPS            $GPGGA,205305.000,4144.3520,N,06959.5360,W,2,10,1.15,3.9,M,-34.3,M,0000,0000*59 
361.409         GPS_NMEA_FROM_GPS    iGPS            $GPRMC,205306.000,A,4144.3520,N,06959.5362,W,0.43,269.49,230321,,,D*7D 
362.412         GPS_NMEA_FROM_GPS    iGPS            $GPGGA,205307.000,4144.3521,N,06959.5363,W,2,11,0.91,3.9,M,-34.3,M,0000,0000*55 
363.314         GPS_NMEA_FROM_GPS    iGPS            $GPGGA,205308.000,4144.3522,N,06959.5364,W,2,10,1.15,3.8,M,-34.3,M,0000,0000*53 
364.417         GPS_NMEA_FROM_GPS    iGPS            $GPRMC,205309.000,A,4144.3523,N,06959.5365,W,0.41,304.52,230321,,,D*74 
365.319         GPS_NMEA_FROM_GPS    iGPS            $GPGGA,205310.000,4144.3524,N,06959.5365,W,2,11,1.04,3.8,M,-34.3,M,0000,0000*5C 
366.322         GPS_NMEA_FROM_GPS    iGPS            $GPGGA,205311.000,4144.3525,N,06959.5365,W,2,11,1.04,3.8,M,-34.3,M,0000,0000*5C 
367.325         GPS_NMEA_FROM_GPS    iGPS            $GPGGA,205312.000,4144.3526,N,06959.5365,W,2,11,1.04,3.8,M,-34.3,M,0000,0000*5C 
368.327         GPS_NMEA_FROM_GPS    iGPS            $GPGGA,205313.000,4144.3527,N,06959.5365,W,2,11,1.04,3.8,M,-34.3,M,0000,0000*5C 
369.330         GPS_NMEA_FROM_GPS    iGPS            $GPGGA,205314.000,4144.3529,N,06959.5364,W,2,11,1.04,3.8,M,-34.3,M,0000,0000*54 
370.332         GPS_NMEA_FROM_GPS    iGPS            $GPGGA,205315.000,4144.3530,N,06959.5363,W,2,11,1.04,3.9,M,-34.3,M,0000,0000*5B 
371.334         GPS_NMEA_FROM_GPS    iGPS            $GPGGA,205316.000,4144.3531,N,06959.5361,W,2,11,1.04,3.9,M,-34.3,M,0000,0000*5B 
372.337         GPS_NMEA_FROM_GPS    iGPS            $GPGGA,205317.000,4144.3532,N,06959.5360,W,2,10,1.33,4.0,M,-34.3,M,0000,0000*53 
373.341         GPS_NMEA_FROM_GPS    iGPS            $GPGGA,205318.000,4144.3534,N,06959.5358,W,2,11,1.04,4.0,M,-34.3,M,0000,0000*54 
374.344         GPS_NMEA_FROM_GPS    iGPS            $GPGGA,205319.000,4144.3535,N,06959.5357,W,2,11,1.04,4.0,M,-34.3,M,0000,0000*5B 
375.346         GPS_NMEA_FROM_GPS    iGPS            $GPGGA,205320.000,4144.3537,N,06959.5357,W,2,10,1.15,4.1,M,-34.3,M,0000,0000*53 
376.349         GPS_NMEA_FROM_GPS    iGPS            $GPGGA,205321.000,4144.3538,N,06959.5356,W,2,11,1.04,4.1,M,-34.3,M,0000,0000*5D 
377.352         GPS_NMEA_FROM_GPS    iGPS            $GPGGA,205322.000,4144.3539,N,06959.5356,W,2,11,1.04,4.1,M,-34.3,M,0000,0000*5F 
378.354         GPS_NMEA_FROM_GPS    iGPS            $GPRMC,205323.000,A,4144.3540,N,06959.5356,W,0.40,9.48,230321,,,D*7D 
379.357         GPS_NMEA_FROM_GPS    iGPS            $GPGGA,205324.000,4144.3542,N,06959.5356,W,2,11,1.04,4.2,M,-34.3,M,0000,0000*56 
380.363         GPS_NMEA_FROM_GPS    iGPS            $GPRMC,205325.000,A,4144.3543,N,06959.5356,W,0.51,353.06,230321,,,D*7E 
381.265         GPS_NMEA_FROM_GPS    iGPS            $GPGGA,205326.000,4144.3544,N,06959.5357,W,2,10,1.07,4.3,M,-34.3,M,0000,0000*50 
382.268         GPS_NMEA_FROM_GPS    iGPS            $GPGGA,205327.000,4144.3545,N,06959.5359,W,2,10,1.07,4.3,M,-34.3,M,0000,0000*5E 
383.271         GPS_NMEA_FROM_GPS    iGPS            $GPGGA,205328.000,4144.3546,N,06959.5360,W,2,10,1.07,4.4,M,-34.3,M,0000,0000*5F 
384.373         GPS_NMEA_FROM_GPS    iGPS            $GPGGA,205329.000,4144.3548,N,06959.5363,W,2,10,1.07,4.4,M,-34.3,M,0000,0000*53 
385.376         GPS_NMEA_FROM_GPS    iGPS            $GPGGA,205330.000,4144.3549,N,06959.5365,W,2,10,1.15,4.4,M,-34.3,M,0000,0000*5F 
386.379         GPS_NMEA_FROM_GPS    iGPS            $GPGGA,205331.000,4144.3550,N,06959.5367,W,2,10,1.15,4.4,M,-34.3,M,0000,0000*54 
387.382         GPS_NMEA_FROM_GPS    iGPS            $GPGGA,205332.000,4144.3551,N,06959.5370,W,2,10,1.07,4.4,M,-34.3,M,0000,0000*53 
388.385         GPS_NMEA_FROM_GPS    iGPS            $GPRMC,205333.000,A,4144.3552,N,06959.5372,W,0.61,293.12,230321,,,D*74 
389.387         GPS_NMEA_FROM_GPS    iGPS            $GPGGA,205334.000,4144.3552,N,06959.5374,W,2,10,1.15,4.4,M,-34.3,M,0000,0000*51 
390.390         GPS_NMEA_FROM_GPS    iGPS            $GPRMC,205335.000,A,4144.3553,N,06959.5376,W,0.60,289.28,230321,,,D*74 
391.392         GPS_NMEA_FROM_GPS    iGPS            $GPGGA,205336.000,4144.3554,N,06959.5377,W,2,10,1.07,4.3,M,-34.3,M,0000,0000*52 
392.395         GPS_NMEA_FROM_GPS    iGPS            $GPGGA,205337.000,4144.3555,N,06959.5379,W,2,10,1.07,4.4,M,-34.3,M,0000,0000*5B 
393.398         GPS_NMEA_FROM_GPS    iGPS            $GPRMC,205338.000,A,4144.3556,N,06959.5381,W,0.67,295.83,230321,,,D*7F 
394.400         GPS_NMEA_FROM_GPS    iGPS            $GPGGA,205339.000,4144.3557,N,06959.5382,W,2,11,0.91,4.4,M,-34.3,M,0000,0000*5C 
395.403         GPS_NMEA_FROM_GPS    iGPS            $GPGGA,205340.000,4144.3558,N,06959.5384,W,2,11,1.04,4.4,M,-34.3,M,0000,0000*56 
396.305         GPS_NMEA_FROM_GPS    iGPS            $GPGGA,205341.000,4144.3560,N,06959.5385,W,2,11,0.91,4.4,M,-34.3,M,0000,0000*50 
397.408         GPS_NMEA_FROM_GPS    iGPS            $GPRMC,205342.000,A,4144.3562,N,06959.5386,W,0.80,314.25,230321,,,D*7F 
398.310         GPS_NMEA_FROM_GPS    iGPS            $GPGGA,205343.000,4144.3564,N,06959.5387,W,2,11,0.91,4.3,M,-34.3,M,0000,0000*53 
399.313         GPS_NMEA_FROM_GPS    iGPS            $GPGGA,205344.000,4144.3566,N,06959.5388,W,2,11,0.91,4.4,M,-34.3,M,0000,0000*5E 
400.315         GPS_NMEA_FROM_GPS    iGPS            $GPGGA,205345.000,4144.3567,N,06959.5389,W,2,10,1.07,4.5,M,-34.3,M,0000,0000*51 
401.318         GPS_NMEA_FROM_GPS    iGPS            $GPGGA,205346.000,4144.3569,N,06959.5390,W,2,11,0.91,4.6,M,-34.3,M,0000,0000*58 
402.321         GPS_NMEA_FROM_GPS    iGPS            $GPGGA,205347.000,4144.3571,N,06959.5391,W,2,11,0.91,4.7,M,-34.3,M,0000,0000*50 
403.323         GPS_NMEA_FROM_GPS    iGPS            $GPGGA,205348.000,4144.3573,N,06959.5391,W,2,10,1.07,4.8,M,-34.3,M,0000,0000*5D 
404.326         GPS_NMEA_FROM_GPS    iGPS            $GPGGA,205349.000,4144.3574,N,06959.5392,W,2,10,1.07,5.0,M,-34.3,M,0000,0000*51 
405.329         GPS_NMEA_FROM_GPS    iGPS            $GPGGA,205350.000,4144.3576,N,06959.5392,W,2,11,0.91,5.0,M,-34.3,M,0000,0000*54 
406.331         GPS_NMEA_FROM_GPS    iGPS            $GPGGA,205351.000,4144.3578,N,06959.5393,W,2,10,1.15,5.1,M,-34.3,M,0000,0000*57 
407.334         GPS_NMEA_FROM_GPS    iGPS            $GPGGA,205352.000,4144.3580,N,06959.5394,W,2,10,1.15,5.1,M,-34.3,M,0000,0000*54 
408.337         GPS_NMEA_FROM_GPS    iGPS            $GPRMC,205353.000,A,4144.3583,N,06959.5394,W,0.74,341.74,230321,,,D*7C 
409.339         GPS_NMEA_FROM_GPS    iGPS            $GPGGA,205354.000,4144.3585,N,06959.5395,W,2,11,0.91,5.2,M,-34.3,M,0000,0000*59 
410.341         GPS_NMEA_FROM_GPS    iGPS            $GPGGA,205355.000,4144.3587,N,06959.5395,W,2,10,1.07,5.2,M,-34.3,M,0000,0000*55 
411.344         GPS_NMEA_FROM_GPS    iGPS            $GPGGA,205356.000,4144.3589,N,06959.5395,W,2,11,0.91,5.2,M,-34.3,M,0000,0000*57 
412.347         GPS_NMEA_FROM_GPS    iGPS            $GPGGA,205357.000,4144.3590,N,06959.5396,W,2,11,0.91,5.2,M,-34.3,M,0000,0000*5D 
413.350         GPS_NMEA_FROM_GPS    iGPS            $GPGGA,205358.000,4144.3592,N,06959.5396,W,2,11,1.04,5.3,M,-34.3,M,0000,0000*5C 
414.354         GPS_NMEA_FROM_GPS    iGPS            $GPGGA,205359.000,4144.3593,N,06959.5397,W,2,11,0.91,5.4,M,-34.3,M,0000,0000*57 
415.356         GPS_NMEA_FROM_GPS    iGPS            $GPGGA,205400.000,4144.3595,N,06959.5397,W,2,11,0.91,5.4,M,-34.3,M,0000,0000*5A 
416.359         GPS_NMEA_FROM_GPS    iGPS            $GPGGA,205401.000,4144.3596,N,06959.5398,W,2,11,0.91,5.5,M,-34.3,M,0000,0000*56 
417.362         GPS_NMEA_FROM_GPS    iGPS            $GPRMC,205402.000,A,4144.3598,N,06959.5399,W,0.71,328.13,230321,,,D*73 
418.365         GPS_NMEA_FROM_GPS    iGPS            $GPGGA,205403.000,4144.3599,N,06959.5401,W,2,11,0.91,5.6,M,-34.3,M,0000,0000*5F 
419.367         GPS_NMEA_FROM_GPS    iGPS            $GPGGA,205404.000,4144.3601,N,06959.5402,W,2,11,0.91,5.6,M,-34.3,M,0000,0000*59 
420.370         GPS_NMEA_FROM_GPS    iGPS            $GPGGA,205405.000,4144.3602,N,06959.5403,W,2,11,0.91,5.5,M,-34.3,M,0000,0000*59 
421.273         GPS_NMEA_FROM_GPS    iGPS            $GPGGA,205406.000,4144.3604,N,06959.5405,W,2,11,0.91,5.5,M,-34.3,M,0000,0000*5A 
422.376         GPS_NMEA_FROM_GPS    iGPS            $GPRMC,205407.000,A,4144.3605,N,06959.5408,W,0.75,315.11,230321,,,D*76 
423.379         GPS_NMEA_FROM_GPS    iGPS            $GPRMC,205408.000,A,4144.3606,N,06959.5409,W,0.73,311.98,230321,,,D*78 
424.381         GPS_NMEA_FROM_GPS    iGPS            $GPGGA,205409.000,4144.3607,N,06959.5412,W,2,10,1.07,5.6,M,-34.3,M,0000,0000*5C 
425.384         GPS_NMEA_FROM_GPS    iGPS            $GPRMC,205410.000,A,4144.3609,N,06959.5414,W,0.77,305.82,230321,,,D*78 
426.387         GPS_NMEA_FROM_GPS    iGPS            $GPGGA,205411.000,4144.3610,N,06959.5416,W,2,11,0.91,5.6,M,-34.3,M,0000,0000*58 
427.389         GPS_NMEA_FROM_GPS    iGPS            $GPGGA,205412.000,4144.3611,N,06959.5419,W,2,10,1.07,5.6,M,-34.3,M,0000,0000*5A 
428.392         GPS_NMEA_FROM_GPS    iGPS            $GPGGA,205413.000,4144.3612,N,06959.5421,W,2,10,1.07,5.7,M,-34.3,M,0000,0000*52 
429.294         GPS_NMEA_FROM_GPS    iGPS            $GPGGA,205414.000,4144.3613,N,06959.5424,W,2,10,1.07,5.7,M,-34.3,M,0000,0000*51 
430.397         GPS_NMEA_FROM_GPS    iGPS            $GPRMC,205415.000,A,4144.3615,N,06959.5426,W,0.73,301.31,230321,,,D*79 
431.399         GPS_NMEA_FROM_GPS    iGPS            $GPGGA,205416.000,4144.3616,N,06959.5429,W,2,11,0.91,5.6,M,-34.3,M,0000,0000*55 
432.301         GPS_NMEA_FROM_GPS    iGPS            $GPGGA,205417.000,4144.3617,N,06959.5431,W,2,11,0.91,5.6,M,-34.3,M,0000,0000*5C 
433.404         GPS_NMEA_FROM_GPS    iGPS            $GPRMC,205418.000,A,4144.3618,N,06959.5433,W,0.73,304.49,230321,,,D*77 
434.407         GPS_NMEA_FROM_GPS    iGPS            $GPGGA,205419.000,4144.3620,N,06959.5435,W,2,11,0.91,5.5,M,-34.3,M,0000,0000*51 
435.310         GPS_NMEA_FROM_GPS    iGPS            $GPGGA,205420.000,4144.3621,N,06959.5437,W,2,11,0.91,5.5,M,-34.3,M,0000,0000*58 
436.312         GPS_NMEA_FROM_GPS    iGPS            $GPGGA,205421.000,4144.3623,N,06959.5439,W,2,11,0.91,5.4,M,-34.3,M,0000,0000*54 
437.415         GPS_NMEA_FROM_GPS    iGPS            $GPGGA,205422.000,4144.3625,N,06959.5441,W,2,11,0.91,5.4,M,-34.3,M,0000,0000*5E 
438.318         GPS_NMEA_FROM_GPS    iGPS            $GPGGA,205423.000,4144.3626,N,06959.5442,W,2,11,0.91,5.4,M,-34.3,M,0000,0000*5F 
439.420         GPS_NMEA_FROM_GPS    iGPS            $GPGGA,205424.000,4144.3628,N,06959.5444,W,2,11,0.91,5.4,M,-34.3,M,0000,0000*50 
440.423         GPS_NMEA_FROM_GPS    iGPS            $GPGGA,205425.000,4144.3629,N,06959.5445,W,2,11,0.91,5.4,M,-34.3,M,0000,0000*51 
441.326         GPS_NMEA_FROM_GPS    iGPS            $GPGGA,205426.000,4144.3630,N,06959.5447,W,2,11,0.91,5.4,M,-34.3,M,0000,0000*58 
442.332         GPS_NMEA_FROM_GPS    iGPS            $GPGGA,205427.000,4144.3632,N,06959.5448,W,2,11,0.91,5.3,M,-34.3,M,0000,0000*53 
443.335         GPS_NMEA_FROM_GPS    iGPS            $GPGGA,205428.000,4144.3633,N,06959.5449,W,2,11,0.91,5.3,M,-34.3,M,0000,0000*5C 
444.337         GPS_NMEA_FROM_GPS    iGPS            $GPRMC,205429.000,A,4144.3635,N,06959.5451,W,0.74,322.03,230321,,,D*73 
445.340         GPS_NMEA_FROM_GPS    iGPS            $GPGGA,205430.000,4144.3636,N,06959.5452,W,2,11,0.91,5.2,M,-34.3,M,0000,0000*5B 
446.342         GPS_NMEA_FROM_GPS    iGPS            $GPGGA,205431.000,4144.3637,N,06959.5453,W,2,11,0.91,5.2,M,-34.3,M,0000,0000*5A 
447.345         GPS_NMEA_FROM_GPS    iGPS            $GPGGA,205432.000,4144.3638,N,06959.5455,W,2,11,0.91,5.3,M,-34.3,M,0000,0000*51 
448.448         GPS_NMEA_FROM_GPS    iGPS            $GPRMC,205433.000,A,4144.3638,N,06959.5456,W,0.57,321.94,230321,,,D*7E 
449.350         GPS_NMEA_FROM_GPS    iGPS            $GPGGA,205434.000,4144.3639,N,06959.5457,W,2,11,1.04,5.5,M,-34.3,M,0000,0000*5F 
450.352         GPS_NMEA_FROM_GPS    iGPS            $GPGGA,205435.000,4144.3640,N,06959.5459,W,2,10,1.15,5.6,M,-34.3,M,0000,0000*5C 
