1.675           GPS_NMEA_FROM_GPS    iGPS            $GPRMC,201306.000,A,4144.3373,N,06959.5524,W,0.37,328.85,310321,,,D*79 
2.677           GPS_NMEA_FROM_GPS    iGPS            $GPRMC,201307.000,A,4144.3374,N,06959.5524,W,0.39,344.07,310321,,,D*71 
2.677           GPS_NMEA_FROM_GPS    iGPS            $GPRMC,201307.000,A,4144.3374,N,06959.5524,W,0.39,344.07,310321,,,D*71 
3.579           GPS_NMEA_FROM_GPS    iGPS            $GPGGA,201308.000,4144.3375,N,06959.5523,W,2,11,0.91,2.5,M,-34.3,M,0000,0000*56 
3.579           GPS_NMEA_FROM_GPS    iGPS            $GPGGA,201308.000,4144.3375,N,06959.5523,W,2,11,0.91,2.5,M,-34.3,M,0000,0000*56 
4.582           GPS_NMEA_FROM_GPS    iGPS            $GPGGA,201309.000,4144.3376,N,06959.5523,W,2,10,1.07,2.5,M,-34.3,M,0000,0000*5B 
5.584           GPS_NMEA_FROM_GPS    iGPS            $GPGGA,201310.000,4144.3376,N,06959.5523,W,2,10,1.06,2.5,M,-34.3,M,0000,0000*52 
6.587           GPS_NMEA_FROM_GPS    iGPS            $GPGGA,201311.000,4144.3377,N,06959.5522,W,2,10,1.06,2.5,M,-34.3,M,0000,0000*53 
7.590           GPS_NMEA_FROM_GPS    iGPS            $GPGGA,201312.000,4144.3377,N,06959.5522,W,2,10,1.06,2.5,M,-34.3,M,0000,0000*50 
8.592           GPS_NMEA_FROM_GPS    iGPS            $GPGGA,201313.000,4144.3378,N,06959.5522,W,2,10,1.07,2.5,M,-34.3,M,0000,0000*5F 
9.595           GPS_NMEA_FROM_GPS    iGPS            $GPRMC,201314.000,A,4144.3378,N,06959.5521,W,0.14,36.34,310321,,,D*43 
10.597          GPS_NMEA_FROM_GPS    iGPS            $GPGGA,201315.000,4144.3378,N,06959.5521,W,2,10,1.06,2.4,M,-34.3,M,0000,0000*5A 
11.599          GPS_NMEA_FROM_GPS    iGPS            $GPGGA,201316.000,4144.3379,N,06959.5521,W,2,10,1.07,2.4,M,-34.3,M,0000,0000*59 
12.602          GPS_NMEA_FROM_GPS    iGPS            $GPGGA,201317.000,4144.3379,N,06959.5520,W,2,10,1.06,2.4,M,-34.3,M,0000,0000*58 
12.602          GPS_NMEA_FROM_GPS    iGPS            $GPGGA,201317.000,4144.3379,N,06959.5520,W,2,10,1.06,2.4,M,-34.3,M,0000,0000*58 
13.606          GPS_NMEA_FROM_GPS    iGPS            $GPGGA,201318.000,4144.3379,N,06959.5520,W,2,11,0.91,2.4,M,-34.3,M,0000,0000*59 
14.609          GPS_NMEA_FROM_GPS    iGPS            $GPGGA,201319.000,4144.3380,N,06959.5520,W,2,11,0.91,2.4,M,-34.3,M,0000,0000*5E 
15.611          GPS_NMEA_FROM_GPS    iGPS            $GPRMC,201320.000,A,4144.3380,N,06959.5519,W,0.19,24.74,310321,,,D*42 
16.614          GPS_NMEA_FROM_GPS    iGPS            $GPRMC,201321.000,A,4144.3381,N,06959.5519,W,0.18,25.61,310321,,,D*46 
17.516          GPS_NMEA_FROM_GPS    iGPS            $GPGGA,201322.000,4144.3381,N,06959.5519,W,2,11,0.91,2.4,M,-34.3,M,0000,0000*5D 
18.619          GPS_NMEA_FROM_GPS    iGPS            $GPGGA,201323.000,4144.3382,N,06959.5518,W,2,11,0.91,2.4,M,-34.3,M,0000,0000*5E 
19.621          GPS_NMEA_FROM_GPS    iGPS            $GPRMC,201324.000,A,4144.3382,N,06959.5518,W,0.17,31.38,310321,,,D*47 
20.624          GPS_NMEA_FROM_GPS    iGPS            $GPGGA,201325.000,4144.3383,N,06959.5518,W,2,11,0.91,2.4,M,-34.3,M,0000,0000*59 
21.627          GPS_NMEA_FROM_GPS    iGPS            $GPRMC,201326.000,A,4144.3383,N,06959.5517,W,0.14,44.51,310321,,,D*45 
22.629          GPS_NMEA_FROM_GPS    iGPS            $GPRMC,201327.000,A,4144.3383,N,06959.5517,W,0.14,47.87,310321,,,D*4C 
23.531          GPS_NMEA_FROM_GPS    iGPS            $GPGGA,201328.000,4144.3383,N,06959.5516,W,2,10,1.07,2.4,M,-34.3,M,0000,0000*55 
23.531          GPS_NMEA_FROM_GPS    iGPS            $GPGGA,201328.000,4144.3383,N,06959.5516,W,2,10,1.07,2.4,M,-34.3,M,0000,0000*55 
24.534          GPS_NMEA_FROM_GPS    iGPS            $GPGGA,201329.000,4144.3384,N,06959.5516,W,2,10,1.07,2.4,M,-34.3,M,0000,0000*53 
24.534          GPS_NMEA_FROM_GPS    iGPS            $GPGGA,201329.000,4144.3384,N,06959.5516,W,2,10,1.07,2.4,M,-34.3,M,0000,0000*53 
25.536          GPS_NMEA_FROM_GPS    iGPS            $GPGGA,201330.000,4144.3384,N,06959.5516,W,2,10,1.06,2.4,M,-34.3,M,0000,0000*5A 
26.639          GPS_NMEA_FROM_GPS    iGPS            $GPRMC,201331.000,A,4144.3384,N,06959.5515,W,0.16,57.07,310321,,,D*45 
27.541          GPS_NMEA_FROM_GPS    iGPS            $GPGGA,201332.000,4144.3384,N,06959.5515,W,2,10,1.07,2.5,M,-34.3,M,0000,0000*5B 
28.645          GPS_NMEA_FROM_GPS    iGPS            $GPRMC,201333.000,A,4144.3385,N,06959.5514,W,0.17,60.75,310321,,,D*47 
29.647          GPS_NMEA_FROM_GPS    iGPS            $GPRMC,201334.000,A,4144.3385,N,06959.5514,W,0.17,65.58,310321,,,D*4A 
30.550          GPS_NMEA_FROM_GPS    iGPS            $GPGGA,201335.000,4144.3385,N,06959.5513,W,2,10,1.07,2.5,M,-34.3,M,0000,0000*5B 
31.553          GPS_NMEA_FROM_GPS    iGPS            $GPRMC,201336.000,A,4144.3385,N,06959.5512,W,0.20,62.65,310321,,,D*43 
31.553          GPS_NMEA_FROM_GPS    iGPS            $GPRMC,201336.000,A,4144.3385,N,06959.5512,W,0.20,62.65,310321,,,D*43 
32.555          GPS_NMEA_FROM_GPS    iGPS            $GPGGA,201337.000,4144.3385,N,06959.5512,W,2,10,1.07,2.5,M,-34.3,M,0000,0000*58 
33.558          GPS_NMEA_FROM_GPS    iGPS            $GPGGA,201338.000,4144.3386,N,06959.5511,W,2,10,1.07,2.5,M,-34.3,M,0000,0000*57 
34.561          GPS_NMEA_FROM_GPS    iGPS            $GPGGA,201339.000,4144.3386,N,06959.5510,W,2,10,1.07,2.5,M,-34.3,M,0000,0000*57 
35.564          GPS_NMEA_FROM_GPS    iGPS            $GPGGA,201340.000,4144.3386,N,06959.5510,W,2,11,0.91,2.5,M,-34.3,M,0000,0000*56 
36.566          GPS_NMEA_FROM_GPS    iGPS            $GPGGA,201341.000,4144.3386,N,06959.5509,W,2,11,0.91,2.5,M,-34.3,M,0000,0000*5F 
37.569          GPS_NMEA_FROM_GPS    iGPS            $GPGGA,201342.000,4144.3386,N,06959.5508,W,2,11,0.91,2.5,M,-34.3,M,0000,0000*5D 
38.571          GPS_NMEA_FROM_GPS    iGPS            $GPGGA,201343.000,4144.3386,N,06959.5508,W,2,11,0.91,2.5,M,-34.3,M,0000,0000*5C 
39.574          GPS_NMEA_FROM_GPS    iGPS            $GPRMC,201344.000,A,4144.3386,N,06959.5507,W,0.19,78.02,310321,,,D*41 
40.577          GPS_NMEA_FROM_GPS    iGPS            $GPGGA,201345.000,4144.3387,N,06959.5506,W,2,10,1.07,2.5,M,-34.3,M,0000,0000*5A 
41.579          GPS_NMEA_FROM_GPS    iGPS            $GPGGA,201346.000,4144.3386,N,06959.5506,W,2,11,0.91,2.5,M,-34.3,M,0000,0000*57 
42.582          GPS_NMEA_FROM_GPS    iGPS            $GPGGA,201347.000,4144.3386,N,06959.5505,W,2,11,0.91,2.4,M,-34.3,M,0000,0000*54 
43.584          GPS_NMEA_FROM_GPS    iGPS            $GPGGA,201348.000,4144.3386,N,06959.5504,W,2,11,0.91,2.4,M,-34.3,M,0000,0000*5A 
44.587          GPS_NMEA_FROM_GPS    iGPS            $GPGGA,201349.000,4144.3386,N,06959.5503,W,2,11,0.91,2.4,M,-34.3,M,0000,0000*5C 
45.590          GPS_NMEA_FROM_GPS    iGPS            $GPRMC,201350.000,A,4144.3385,N,06959.5502,W,0.38,110.57,310321,,,D*7E 
46.592          GPS_NMEA_FROM_GPS    iGPS            $GPGGA,201351.000,4144.3385,N,06959.5501,W,2,10,1.07,2.4,M,-34.3,M,0000,0000*5B 
47.595          GPS_NMEA_FROM_GPS    iGPS            $GPRMC,201352.000,A,4144.3384,N,06959.5499,W,0.43,106.52,310321,,,D*70 
48.597          GPS_NMEA_FROM_GPS    iGPS            $GPRMC,201353.000,A,4144.3384,N,06959.5498,W,0.44,103.74,310321,,,D*76 
49.600          GPS_NMEA_FROM_GPS    iGPS            $GPRMC,201354.000,A,4144.3384,N,06959.5496,W,0.44,100.47,310321,,,D*7C 
50.602          GPS_NMEA_FROM_GPS    iGPS            $GPGGA,201355.000,4144.3384,N,06959.5494,W,2,10,1.07,2.4,M,-34.3,M,0000,0000*53 
51.605          GPS_NMEA_FROM_GPS    iGPS            $GPGGA,201356.000,4144.3384,N,06959.5493,W,2,10,1.07,2.4,M,-34.3,M,0000,0000*57 
52.608          GPS_NMEA_FROM_GPS    iGPS            $GPRMC,201357.000,A,4144.3384,N,06959.5491,W,0.52,87.63,310321,,,D*47 
53.510          GPS_NMEA_FROM_GPS    iGPS            $GPGGA,201358.000,4144.3385,N,06959.5489,W,2,10,1.07,2.4,M,-34.3,M,0000,0000*53 
54.613          GPS_NMEA_FROM_GPS    iGPS            $GPGGA,201359.000,4144.3385,N,06959.5487,W,2,10,1.07,2.4,M,-34.3,M,0000,0000*5C 
55.615          GPS_NMEA_FROM_GPS    iGPS            $GPGGA,201400.000,4144.3385,N,06959.5485,W,2,10,1.07,2.4,M,-34.3,M,0000,0000*55 
56.618          GPS_NMEA_FROM_GPS    iGPS            $GPGGA,201401.000,4144.3385,N,06959.5482,W,2,10,1.07,2.4,M,-34.3,M,0000,0000*53 
57.620          GPS_NMEA_FROM_GPS    iGPS            $GPGGA,201402.000,4144.3386,N,06959.5480,W,2,10,1.07,2.5,M,-34.3,M,0000,0000*50 
58.623          GPS_NMEA_FROM_GPS    iGPS            $GPGGA,201403.000,4144.3386,N,06959.5477,W,2,10,1.07,2.5,M,-34.3,M,0000,0000*59 
59.526          GPS_NMEA_FROM_GPS    iGPS            $GPGGA,201404.000,4144.3387,N,06959.5474,W,2,10,1.07,2.5,M,-34.3,M,0000,0000*5C 
60.528          GPS_NMEA_FROM_GPS    iGPS            $GPGGA,201405.000,4144.3387,N,06959.5472,W,2,10,1.07,2.5,M,-34.3,M,0000,0000*5B 
61.631          GPS_NMEA_FROM_GPS    iGPS            $GPGGA,201406.000,4144.3388,N,06959.5469,W,2,10,1.07,2.5,M,-34.3,M,0000,0000*5D 
62.633          GPS_NMEA_FROM_GPS    iGPS            $GPGGA,201407.000,4144.3388,N,06959.5466,W,2,10,1.07,2.5,M,-34.3,M,0000,0000*53 
63.536          GPS_NMEA_FROM_GPS    iGPS            $GPGGA,201408.000,4144.3389,N,06959.5463,W,2,10,1.07,2.4,M,-34.3,M,0000,0000*59 
64.639          GPS_NMEA_FROM_GPS    iGPS            $GPRMC,201409.000,A,4144.3389,N,06959.5461,W,0.71,83.59,310321,,,D*45 
65.641          GPS_NMEA_FROM_GPS    iGPS            $GPGGA,201410.000,4144.3389,N,06959.5458,W,2,10,1.07,2.5,M,-34.3,M,0000,0000*59 
66.544          GPS_NMEA_FROM_GPS    iGPS            $GPGGA,201411.000,4144.3390,N,06959.5455,W,2,10,1.07,2.5,M,-34.3,M,0000,0000*5D 
67.647          GPS_NMEA_FROM_GPS    iGPS            $GPGGA,201412.000,4144.3390,N,06959.5452,W,2,10,1.07,2.5,M,-34.3,M,0000,0000*59 
68.549          GPS_NMEA_FROM_GPS    iGPS            $GPGGA,201413.000,4144.3390,N,06959.5449,W,2,10,1.07,2.6,M,-34.3,M,0000,0000*51 
69.552          GPS_NMEA_FROM_GPS    iGPS            $GPGGA,201414.000,4144.3391,N,06959.5446,W,2,10,1.07,2.6,M,-34.3,M,0000,0000*58 
70.554          GPS_NMEA_FROM_GPS    iGPS            $GPGGA,201415.000,4144.3391,N,06959.5443,W,2,10,1.07,2.6,M,-34.3,M,0000,0000*5C 
71.657          GPS_NMEA_FROM_GPS    iGPS            $GPRMC,201416.000,A,4144.3392,N,06959.5440,W,0.75,82.51,310321,,,D*4F 
72.660          GPS_NMEA_FROM_GPS    iGPS            $GPRMC,201417.000,A,4144.3392,N,06959.5437,W,0.73,82.09,310321,,,D*45 
73.562          GPS_NMEA_FROM_GPS    iGPS            $GPGGA,201418.000,4144.3393,N,06959.5435,W,2,10,1.07,2.6,M,-34.3,M,0000,0000*52 
74.564          GPS_NMEA_FROM_GPS    iGPS            $GPGGA,201419.000,4144.3393,N,06959.5432,W,2,10,1.07,2.6,M,-34.3,M,0000,0000*54 
75.567          GPS_NMEA_FROM_GPS    iGPS            $GPGGA,201420.000,4144.3394,N,06959.5429,W,2,10,1.07,2.7,M,-34.3,M,0000,0000*52 
76.570          GPS_NMEA_FROM_GPS    iGPS            $GPGGA,201421.000,4144.3394,N,06959.5426,W,2,10,1.07,2.7,M,-34.3,M,0000,0000*5C 
77.572          GPS_NMEA_FROM_GPS    iGPS            $GPGGA,201422.000,4144.3395,N,06959.5423,W,2,10,1.07,2.7,M,-34.3,M,0000,0000*5B 
78.575          GPS_NMEA_FROM_GPS    iGPS            $GPGGA,201423.000,4144.3395,N,06959.5420,W,2,10,1.07,2.6,M,-34.3,M,0000,0000*58 
79.578          GPS_NMEA_FROM_GPS    iGPS            $GPRMC,201424.000,A,4144.3396,N,06959.5417,W,0.74,82.41,310321,,,D*48 
80.580          GPS_NMEA_FROM_GPS    iGPS            $GPGGA,201425.000,4144.3396,N,06959.5414,W,2,10,1.07,2.6,M,-34.3,M,0000,0000*5A 
81.582          GPS_NMEA_FROM_GPS    iGPS            $GPGGA,201426.000,4144.3397,N,06959.5411,W,2,11,0.91,2.6,M,-34.3,M,0000,0000*52 
82.585          GPS_NMEA_FROM_GPS    iGPS            $GPGGA,201427.000,4144.3397,N,06959.5407,W,2,10,1.07,2.6,M,-34.3,M,0000,0000*5B 
83.588          GPS_NMEA_FROM_GPS    iGPS            $GPGGA,201428.000,4144.3397,N,06959.5404,W,2,10,1.07,2.6,M,-34.3,M,0000,0000*57 
84.591          GPS_NMEA_FROM_GPS    iGPS            $GPRMC,201429.000,A,4144.3398,N,06959.5402,W,0.74,82.86,310321,,,D*44 
85.593          GPS_NMEA_FROM_GPS    iGPS            $GPGGA,201430.000,4144.3398,N,06959.5399,W,2,10,1.07,2.6,M,-34.3,M,0000,0000*52 
86.596          GPS_NMEA_FROM_GPS    iGPS            $GPGGA,201431.000,4144.3398,N,06959.5395,W,2,10,1.07,2.5,M,-34.3,M,0000,0000*5C 
87.599          GPS_NMEA_FROM_GPS    iGPS            $GPRMC,201432.000,A,4144.3399,N,06959.5392,W,0.76,82.36,310321,,,D*48 
88.601          GPS_NMEA_FROM_GPS    iGPS            $GPGGA,201433.000,4144.3399,N,06959.5389,W,2,10,1.07,2.5,M,-34.3,M,0000,0000*52 
89.503          GPS_NMEA_FROM_GPS    iGPS            $GPGGA,201434.000,4144.3399,N,06959.5386,W,2,10,1.07,2.5,M,-34.3,M,0000,0000*5A 
90.606          GPS_NMEA_FROM_GPS    iGPS            $GPRMC,201435.000,A,4144.3400,N,06959.5383,W,0.74,82.63,310321,,,D*4A 
91.609          GPS_NMEA_FROM_GPS    iGPS            $GPGGA,201436.000,4144.3400,N,06959.5380,W,2,10,1.07,2.4,M,-34.3,M,0000,0000*58 
92.611          GPS_NMEA_FROM_GPS    iGPS            $GPGGA,201437.000,4144.3400,N,06959.5377,W,2,11,0.91,2.4,M,-34.3,M,0000,0000*5E 
93.514          GPS_NMEA_FROM_GPS    iGPS            $GPGGA,201438.000,4144.3400,N,06959.5374,W,2,10,1.07,2.4,M,-34.3,M,0000,0000*5D 
94.617          GPS_NMEA_FROM_GPS    iGPS            $GPRMC,201439.000,A,4144.3401,N,06959.5371,W,0.77,84.46,310321,,,D*48 
95.519          GPS_NMEA_FROM_GPS    iGPS            $GPGGA,201440.000,4144.3401,N,06959.5369,W,2,10,1.07,2.4,M,-34.3,M,0000,0000*5F 
96.622          GPS_NMEA_FROM_GPS    iGPS            $GPRMC,201441.000,A,4144.3401,N,06959.5366,W,0.74,84.72,310321,,,D*45 
97.525          GPS_NMEA_FROM_GPS    iGPS            $GPGGA,201442.000,4144.3401,N,06959.5363,W,2,10,1.07,2.4,M,-34.3,M,0000,0000*57 
98.629          GPS_NMEA_FROM_GPS    iGPS            $GPGGA,201443.000,4144.3402,N,06959.5360,W,2,10,1.07,2.3,M,-34.3,M,0000,0000*51 
99.532          GPS_NMEA_FROM_GPS    iGPS            $GPGGA,201444.000,4144.3402,N,06959.5357,W,2,10,1.07,2.3,M,-34.3,M,0000,0000*52 
100.635         GPS_NMEA_FROM_GPS    iGPS            $GPRMC,201445.000,A,4144.3402,N,06959.5354,W,0.75,85.28,310321,,,D*4C 
101.537         GPS_NMEA_FROM_GPS    iGPS            $GPGGA,201446.000,4144.3402,N,06959.5351,W,2,10,1.07,2.2,M,-34.3,M,0000,0000*57 
102.640         GPS_NMEA_FROM_GPS    iGPS            $GPRMC,201447.000,A,4144.3402,N,06959.5349,W,0.77,86.14,310321,,,D*4C 
103.642         GPS_NMEA_FROM_GPS    iGPS            $GPGGA,201448.000,4144.3403,N,06959.5346,W,2,10,1.07,2.2,M,-34.3,M,0000,0000*5E 
104.645         GPS_NMEA_FROM_GPS    iGPS            $GPRMC,201449.000,A,4144.3403,N,06959.5343,W,0.76,86.02,310321,,,D*4F 
105.648         GPS_NMEA_FROM_GPS    iGPS            $GPRMC,201450.000,A,4144.3403,N,06959.5340,W,0.74,85.20,310321,,,D*45 
106.650         GPS_NMEA_FROM_GPS    iGPS            $GPRMC,201451.000,A,4144.3403,N,06959.5338,W,0.77,85.05,310321,,,D*4F 
107.652         GPS_NMEA_FROM_GPS    iGPS            $GPRMC,201452.000,A,4144.3403,N,06959.5335,W,0.75,84.91,310321,,,D*4F 
108.555         GPS_NMEA_FROM_GPS    iGPS            $GPGGA,201453.000,4144.3403,N,06959.5332,W,2,10,1.07,2.1,M,-34.3,M,0000,0000*54 
109.658         GPS_NMEA_FROM_GPS    iGPS            $GPRMC,201454.000,A,4144.3404,N,06959.5329,W,0.73,85.37,310321,,,D*48 
110.560         GPS_NMEA_FROM_GPS    iGPS            $GPGGA,201455.000,4144.3404,N,06959.5326,W,2,10,1.07,2.1,M,-34.3,M,0000,0000*50 
111.562         GPS_NMEA_FROM_GPS    iGPS            $GPGGA,201456.000,4144.3403,N,06959.5323,W,2,10,1.07,2.1,M,-34.3,M,0000,0000*51 
112.565         GPS_NMEA_FROM_GPS    iGPS            $GPGGA,201457.000,4144.3404,N,06959.5320,W,2,10,1.07,2.1,M,-34.3,M,0000,0000*54 
113.567         GPS_NMEA_FROM_GPS    iGPS            $GPGGA,201458.000,4144.3404,N,06959.5317,W,2,10,1.07,2.1,M,-34.3,M,0000,0000*5F 
114.570         GPS_NMEA_FROM_GPS    iGPS            $GPGGA,201459.000,4144.3404,N,06959.5314,W,2,10,1.07,2.1,M,-34.3,M,0000,0000*5D 
115.572         GPS_NMEA_FROM_GPS    iGPS            $GPGGA,201500.000,4144.3405,N,06959.5311,W,2,10,1.07,2.1,M,-34.3,M,0000,0000*54 
116.574         GPS_NMEA_FROM_GPS    iGPS            $GPGGA,201501.000,4144.3405,N,06959.5308,W,2,10,1.07,2.1,M,-34.3,M,0000,0000*5D 
117.577         GPS_NMEA_FROM_GPS    iGPS            $GPGGA,201502.000,4144.3406,N,06959.5305,W,2,10,1.07,2.1,M,-34.3,M,0000,0000*50 
118.580         GPS_NMEA_FROM_GPS    iGPS            $GPGGA,201503.000,4144.3406,N,06959.5302,W,2,10,1.07,2.1,M,-34.3,M,0000,0000*56 
119.582         GPS_NMEA_FROM_GPS    iGPS            $GPGGA,201504.000,4144.3406,N,06959.5299,W,2,10,1.07,2.1,M,-34.3,M,0000,0000*52 
120.586         GPS_NMEA_FROM_GPS    iGPS            $GPGGA,201505.000,4144.3407,N,06959.5295,W,2,10,1.07,2.1,M,-34.3,M,0000,0000*5E 
121.588         GPS_NMEA_FROM_GPS    iGPS            $GPGGA,201506.000,4144.3407,N,06959.5292,W,2,10,1.07,2.0,M,-34.3,M,0000,0000*5B 
122.591         GPS_NMEA_FROM_GPS    iGPS            $GPGGA,201507.000,4144.3408,N,06959.5289,W,2,10,1.07,2.0,M,-34.3,M,0000,0000*5F 
123.593         GPS_NMEA_FROM_GPS    iGPS            $GPGGA,201508.000,4144.3408,N,06959.5286,W,2,10,1.07,2.0,M,-34.3,M,0000,0000*5F 
124.596         GPS_NMEA_FROM_GPS    iGPS            $GPGGA,201509.000,4144.3408,N,06959.5283,W,2,10,1.07,2.0,M,-34.3,M,0000,0000*5B 
125.599         GPS_NMEA_FROM_GPS    iGPS            $GPRMC,201510.000,A,4144.3408,N,06959.5281,W,0.73,87.60,310321,,,D*46 
126.601         GPS_NMEA_FROM_GPS    iGPS            $GPGGA,201511.000,4144.3408,N,06959.5278,W,2,10,1.07,1.9,M,-34.3,M,0000,0000*5C 
127.604         GPS_NMEA_FROM_GPS    iGPS            $GPGGA,201512.000,4144.3409,N,06959.5275,W,2,10,1.16,1.9,M,-34.3,M,0000,0000*53 
128.606         GPS_NMEA_FROM_GPS    iGPS            $GPGGA,201513.000,4144.3409,N,06959.5273,W,2,10,1.16,1.9,M,-34.3,M,0000,0000*54 
129.609         GPS_NMEA_FROM_GPS    iGPS            $GPGGA,201514.000,4144.3410,N,06959.5270,W,2,10,1.16,1.9,M,-34.3,M,0000,0000*58 
130.611         GPS_NMEA_FROM_GPS    iGPS            $GPGGA,201515.000,4144.3411,N,06959.5268,W,2,10,1.16,1.8,M,-34.3,M,0000,0000*50 
131.614         GPS_NMEA_FROM_GPS    iGPS            $GPGGA,201516.000,4144.3412,N,06959.5265,W,2,10,1.07,1.8,M,-34.3,M,0000,0000*5D 
132.617         GPS_NMEA_FROM_GPS    iGPS            $GPGGA,201517.000,4144.3413,N,06959.5263,W,2,10,1.07,1.7,M,-34.3,M,0000,0000*54 
133.619         GPS_NMEA_FROM_GPS    iGPS            $GPGGA,201518.000,4144.3414,N,06959.5261,W,2,10,1.07,1.7,M,-34.3,M,0000,0000*5E 
134.622         GPS_NMEA_FROM_GPS    iGPS            $GPGGA,201519.000,4144.3415,N,06959.5258,W,2,10,1.07,1.7,M,-34.3,M,0000,0000*54 
135.625         GPS_NMEA_FROM_GPS    iGPS            $GPGGA,201520.000,4144.3416,N,06959.5256,W,2,10,1.07,1.7,M,-34.3,M,0000,0000*53 
136.627         GPS_NMEA_FROM_GPS    iGPS            $GPGGA,201521.000,4144.3417,N,06959.5253,W,2,10,1.07,1.6,M,-34.3,M,0000,0000*57 
137.630         GPS_NMEA_FROM_GPS    iGPS            $GPGGA,201522.000,4144.3417,N,06959.5250,W,2,10,1.07,1.6,M,-34.3,M,0000,0000*57 
138.633         GPS_NMEA_FROM_GPS    iGPS            $GPGGA,201523.000,4144.3417,N,06959.5247,W,2,10,1.16,1.6,M,-34.3,M,0000,0000*50 
139.535         GPS_NMEA_FROM_GPS    iGPS            $GPGGA,201524.000,4144.3417,N,06959.5245,W,2,10,1.16,1.6,M,-34.3,M,0000,0000*55 
140.538         GPS_NMEA_FROM_GPS    iGPS            $GPGGA,201525.000,4144.3417,N,06959.5242,W,2,10,1.07,1.7,M,-34.3,M,0000,0000*52 
141.541         GPS_NMEA_FROM_GPS    iGPS            $GPGGA,201526.000,4144.3417,N,06959.5239,W,2,10,1.07,1.8,M,-34.3,M,0000,0000*52 
142.543         GPS_NMEA_FROM_GPS    iGPS            $GPGGA,201527.000,4144.3416,N,06959.5236,W,2,10,1.16,1.8,M,-34.3,M,0000,0000*5D 
143.546         GPS_NMEA_FROM_GPS    iGPS            $GPGGA,201528.000,4144.3417,N,06959.5234,W,2,10,1.16,1.8,M,-34.3,M,0000,0000*51 
144.649         GPS_NMEA_FROM_GPS    iGPS            $GPGGA,201529.000,4144.3417,N,06959.5232,W,2,10,1.07,1.8,M,-34.3,M,0000,0000*56 
145.551         GPS_NMEA_FROM_GPS    iGPS            $GPGGA,201530.000,4144.3418,N,06959.5229,W,2,10,1.07,1.8,M,-34.3,M,0000,0000*5B 
146.554         GPS_NMEA_FROM_GPS    iGPS            $GPGGA,201531.000,4144.3418,N,06959.5226,W,2,10,1.07,1.7,M,-34.3,M,0000,0000*5A 
147.557         GPS_NMEA_FROM_GPS    iGPS            $GPGGA,201532.000,4144.3419,N,06959.5223,W,2,10,1.07,1.7,M,-34.3,M,0000,0000*5D 
148.660         GPS_NMEA_FROM_GPS    iGPS            $GPRMC,201533.000,A,4144.3420,N,06959.5220,W,0.82,79.84,310321,,,D*43 
149.562         GPS_NMEA_FROM_GPS    iGPS            $GPGGA,201534.000,4144.3421,N,06959.5217,W,2,10,1.07,1.7,M,-34.3,M,0000,0000*57 
150.564         GPS_NMEA_FROM_GPS    iGPS            $GPGGA,201535.000,4144.3421,N,06959.5214,W,2,10,1.07,1.7,M,-34.3,M,0000,0000*55 
151.567         GPS_NMEA_FROM_GPS    iGPS            $GPGGA,201536.000,4144.3422,N,06959.5211,W,2,10,1.07,1.7,M,-34.3,M,0000,0000*50 
152.670         GPS_NMEA_FROM_GPS    iGPS            $GPRMC,201537.000,A,4144.3423,N,06959.5209,W,0.71,79.79,310321,,,D*41 
153.573         GPS_NMEA_FROM_GPS    iGPS            $GPGGA,201538.000,4144.3423,N,06959.5206,W,2,10,1.07,1.7,M,-34.3,M,0000,0000*59 
154.576         GPS_NMEA_FROM_GPS    iGPS            $GPGGA,201539.000,4144.3424,N,06959.5203,W,2,10,1.07,1.7,M,-34.3,M,0000,0000*5A 
155.578         GPS_NMEA_FROM_GPS    iGPS            $GPGGA,201540.000,4144.3424,N,06959.5201,W,2,10,1.16,1.7,M,-34.3,M,0000,0000*56 
156.581         GPS_NMEA_FROM_GPS    iGPS            $GPGGA,201541.000,4144.3425,N,06959.5198,W,2,10,1.07,1.6,M,-34.3,M,0000,0000*54 
157.583         GPS_NMEA_FROM_GPS    iGPS            $GPGGA,201542.000,4144.3426,N,06959.5196,W,2,10,1.07,1.6,M,-34.3,M,0000,0000*5A 
158.586         GPS_NMEA_FROM_GPS    iGPS            $GPGGA,201543.000,4144.3427,N,06959.5193,W,2,10,1.07,1.5,M,-34.3,M,0000,0000*5C 
159.589         GPS_NMEA_FROM_GPS    iGPS            $GPGGA,201544.000,4144.3428,N,06959.5190,W,2,10,1.16,1.5,M,-34.3,M,0000,0000*57 
160.592         GPS_NMEA_FROM_GPS    iGPS            $GPGGA,201545.000,4144.3429,N,06959.5187,W,2,10,1.07,1.4,M,-34.3,M,0000,0000*50 
161.594         GPS_NMEA_FROM_GPS    iGPS            $GPRMC,201546.000,A,4144.3430,N,06959.5184,W,0.73,73.13,310321,,,D*47 
162.597         GPS_NMEA_FROM_GPS    iGPS            $GPGGA,201547.000,4144.3431,N,06959.5182,W,2,10,1.07,1.4,M,-34.3,M,0000,0000*5E 
163.599         GPS_NMEA_FROM_GPS    iGPS            $GPGGA,201548.000,4144.3432,N,06959.5180,W,2,10,1.07,1.3,M,-34.3,M,0000,0000*57 
164.602         GPS_NMEA_FROM_GPS    iGPS            $GPGGA,201549.000,4144.3433,N,06959.5178,W,2,10,1.16,1.3,M,-34.3,M,0000,0000*50 
165.605         GPS_NMEA_FROM_GPS    iGPS            $GPGGA,201550.000,4144.3433,N,06959.5176,W,2,10,1.16,1.2,M,-34.3,M,0000,0000*57 
166.608         GPS_NMEA_FROM_GPS    iGPS            $GPRMC,201551.000,A,4144.3434,N,06959.5174,W,0.61,69.67,310321,,,D*41 
167.510         GPS_NMEA_FROM_GPS    iGPS            $GPGGA,201552.000,4144.3435,N,06959.5172,W,2,10,1.07,1.1,M,-34.3,M,0000,0000*54 
168.512         GPS_NMEA_FROM_GPS    iGPS            $GPGGA,201553.000,4144.3436,N,06959.5170,W,2,10,1.16,1.0,M,-34.3,M,0000,0000*55 
169.614         GPS_NMEA_FROM_GPS    iGPS            $GPGGA,201554.000,4144.3437,N,06959.5168,W,2,10,1.16,0.9,M,-34.3,M,0000,0000*52 
170.617         GPS_NMEA_FROM_GPS    iGPS            $GPGGA,201555.000,4144.3439,N,06959.5166,W,2,10,1.07,0.8,M,-34.3,M,0000,0000*52 
171.620         GPS_NMEA_FROM_GPS    iGPS            $GPGGA,201556.000,4144.3440,N,06959.5164,W,2,11,0.91,0.7,M,-34.3,M,0000,0000*5D 
172.622         GPS_NMEA_FROM_GPS    iGPS            $GPRMC,201557.000,A,4144.3442,N,06959.5162,W,0.72,53.47,310321,,,D*48 
173.625         GPS_NMEA_FROM_GPS    iGPS            $GPGGA,201558.000,4144.3443,N,06959.5160,W,2,10,1.07,0.5,M,-34.3,M,0000,0000*59 
174.527         GPS_NMEA_FROM_GPS    iGPS            $GPGGA,201559.000,4144.3445,N,06959.5158,W,2,10,1.07,0.3,M,-34.3,M,0000,0000*53 
175.630         GPS_NMEA_FROM_GPS    iGPS            $GPRMC,201600.000,A,4144.3447,N,06959.5156,W,0.71,46.51,310321,,,D*4B 
176.632         GPS_NMEA_FROM_GPS    iGPS            $GPGGA,201601.000,4144.3448,N,06959.5154,W,2,10,1.07,0.0,M,-34.3,M,0000,0000*5F 
177.635         GPS_NMEA_FROM_GPS    iGPS            $GPGGA,201602.000,4144.3450,N,06959.5152,W,2,10,1.07,-0.1,M,-34.3,M,0000,0000*7F 
178.537         GPS_NMEA_FROM_GPS    iGPS            $GPGGA,201603.000,4144.3451,N,06959.5151,W,2,10,1.07,-0.2,M,-34.3,M,0000,0000*7F 
179.640         GPS_NMEA_FROM_GPS    iGPS            $GPRMC,201604.000,A,4144.3453,N,06959.5149,W,0.73,37.99,310321,,,D*44 
180.642         GPS_NMEA_FROM_GPS    iGPS            $GPGGA,201605.000,4144.3455,N,06959.5148,W,2,10,1.07,-0.4,M,-34.3,M,0000,0000*73 
181.545         GPS_NMEA_FROM_GPS    iGPS            $GPGGA,201606.000,4144.3457,N,06959.5146,W,2,10,1.07,-0.4,M,-34.3,M,0000,0000*7C 
182.548         GPS_NMEA_FROM_GPS    iGPS            $GPGGA,201607.000,4144.3458,N,06959.5144,W,2,11,0.91,-0.4,M,-34.3,M,0000,0000*7F 
183.550         GPS_NMEA_FROM_GPS    iGPS            $GPGGA,201608.000,4144.3460,N,06959.5142,W,2,11,0.91,-0.4,M,-34.3,M,0000,0000*7D 
184.553         GPS_NMEA_FROM_GPS    iGPS            $GPGGA,201609.000,4144.3462,N,06959.5140,W,2,11,0.91,-0.4,M,-34.3,M,0000,0000*7C 
185.556         GPS_NMEA_FROM_GPS    iGPS            $GPGGA,201610.000,4144.3463,N,06959.5139,W,2,11,0.91,-0.4,M,-34.3,M,0000,0000*7B 
186.558         GPS_NMEA_FROM_GPS    iGPS            $GPGGA,201611.000,4144.3465,N,06959.5137,W,2,10,1.07,-0.4,M,-34.3,M,0000,0000*7D 
187.561         GPS_NMEA_FROM_GPS    iGPS            $GPGGA,201612.000,4144.3467,N,06959.5136,W,2,09,1.40,-0.4,M,-34.3,M,0000,0000*76 
188.564         GPS_NMEA_FROM_GPS    iGPS            $GPRMC,201613.000,A,4144.3469,N,06959.5135,W,0.73,31.03,310321,,,D*45 
189.566         GPS_NMEA_FROM_GPS    iGPS            $GPRMC,201614.000,A,4144.3470,N,06959.5134,W,0.74,29.83,310321,,,D*4D 
190.569         GPS_NMEA_FROM_GPS    iGPS            $GPGGA,201615.000,4144.3472,N,06959.5133,W,2,09,1.40,-0.5,M,-34.3,M,0000,0000*71 
191.571         GPS_NMEA_FROM_GPS    iGPS            $GPGGA,201616.000,4144.3474,N,06959.5132,W,2,08,1.60,-0.5,M,-34.3,M,0000,0000*76 
192.574         GPS_NMEA_FROM_GPS    iGPS            $GPGGA,201617.000,4144.3476,N,06959.5131,W,2,10,1.16,-0.5,M,-34.3,M,0000,0000*7E 
193.576         GPS_NMEA_FROM_GPS    iGPS            $GPGGA,201618.000,4144.3478,N,06959.5130,W,2,10,1.16,-0.5,M,-34.3,M,0000,0000*7E 
194.579         GPS_NMEA_FROM_GPS    iGPS            $GPGGA,201619.000,4144.3480,N,06959.5129,W,2,10,1.16,-0.5,M,-34.3,M,0000,0000*70 
195.582         GPS_NMEA_FROM_GPS    iGPS            $GPRMC,201620.000,A,4144.3482,N,06959.5128,W,0.79,24.67,310321,,,D*40 
196.585         GPS_NMEA_FROM_GPS    iGPS            $GPRMC,201621.000,A,4144.3483,N,06959.5126,W,0.76,24.44,310321,,,D*40 
197.587         GPS_NMEA_FROM_GPS    iGPS            $GPGGA,201622.000,4144.3485,N,06959.5125,W,2,09,1.40,-0.2,M,-34.3,M,0000,0000*7D 
198.589         GPS_NMEA_FROM_GPS    iGPS            $GPGGA,201623.000,4144.3486,N,06959.5124,W,2,10,1.16,-0.2,M,-34.3,M,0000,0000*75 
199.492         GPS_NMEA_FROM_GPS    iGPS            $GPGGA,201624.000,4144.3488,N,06959.5123,W,2,09,1.13,-0.2,M,-34.3,M,0000,0000*76 
200.595         GPS_NMEA_FROM_GPS    iGPS            $GPGGA,201625.000,4144.3490,N,06959.5121,W,2,10,1.07,-0.2,M,-34.3,M,0000,0000*71 
201.598         GPS_NMEA_FROM_GPS    iGPS            $GPGGA,201626.000,4144.3491,N,06959.5120,W,2,10,1.33,-0.1,M,-34.3,M,0000,0000*76 
202.600         GPS_NMEA_FROM_GPS    iGPS            $GPGGA,201627.000,4144.3493,N,06959.5120,W,2,11,0.91,-0.1,M,-34.3,M,0000,0000*7D 
203.602         GPS_NMEA_FROM_GPS    iGPS            $GPRMC,201628.000,A,4144.3495,N,06959.5119,W,0.72,23.74,310321,,,D*42 
204.605         GPS_NMEA_FROM_GPS    iGPS            $GPRMC,201629.000,A,4144.3497,N,06959.5118,W,0.73,23.37,310321,,,D*46 
205.607         GPS_NMEA_FROM_GPS    iGPS            $GPGGA,201630.000,4144.3498,N,06959.5117,W,2,09,1.38,0.0,M,-34.3,M,0000,0000*53 
206.610         GPS_NMEA_FROM_GPS    iGPS            $GPGGA,201631.000,4144.3500,N,06959.5116,W,2,10,1.12,0.0,M,-34.3,M,0000,0000*53 
207.612         GPS_NMEA_FROM_GPS    iGPS            $GPGGA,201632.000,4144.3502,N,06959.5115,W,2,10,1.12,0.1,M,-34.3,M,0000,0000*50 
208.615         GPS_NMEA_FROM_GPS    iGPS            $GPGGA,201633.000,4144.3503,N,06959.5114,W,2,11,1.04,0.1,M,-34.3,M,0000,0000*57 
209.618         GPS_NMEA_FROM_GPS    iGPS            $GPRMC,201634.000,A,4144.3505,N,06959.5113,W,0.74,23.37,310321,,,D*4C 
210.520         GPS_NMEA_FROM_GPS    iGPS            $GPGGA,201635.000,4144.3507,N,06959.5112,W,2,11,1.04,0.1,M,-34.3,M,0000,0000*53 
211.622         GPS_NMEA_FROM_GPS    iGPS            $GPGGA,201636.000,4144.3509,N,06959.5111,W,2,11,1.04,0.2,M,-34.3,M,0000,0000*5E 
212.625         GPS_NMEA_FROM_GPS    iGPS            $GPGGA,201637.000,4144.3511,N,06959.5110,W,2,11,1.04,0.2,M,-34.3,M,0000,0000*57 
213.628         GPS_NMEA_FROM_GPS    iGPS            $GPRMC,201638.000,A,4144.3513,N,06959.5109,W,0.81,20.84,310321,,,D*4D 
214.530         GPS_NMEA_FROM_GPS    iGPS            $GPGGA,201639.000,4144.3516,N,06959.5108,W,2,11,1.04,0.2,M,-34.3,M,0000,0000*57 
215.633         GPS_NMEA_FROM_GPS    iGPS            $GPGGA,201640.000,4144.3518,N,06959.5107,W,2,11,1.04,0.2,M,-34.3,M,0000,0000*58 
216.535         GPS_NMEA_FROM_GPS    iGPS            $GPGGA,201641.000,4144.3519,N,06959.5106,W,2,11,1.04,0.3,M,-34.3,M,0000,0000*58 
217.538         GPS_NMEA_FROM_GPS    iGPS            $GPGGA,201642.000,4144.3520,N,06959.5105,W,2,11,1.04,0.3,M,-34.3,M,0000,0000*52 
218.541         GPS_NMEA_FROM_GPS    iGPS            $GPGGA,201643.000,4144.3521,N,06959.5104,W,2,11,1.04,0.3,M,-34.3,M,0000,0000*53 
219.643         GPS_NMEA_FROM_GPS    iGPS            $GPRMC,201644.000,A,4144.3522,N,06959.5102,W,0.70,24.04,310321,,,D*4D 
220.646         GPS_NMEA_FROM_GPS    iGPS            $GPRMC,201645.000,A,4144.3523,N,06959.5101,W,0.70,25.44,310321,,,D*4B 
221.648         GPS_NMEA_FROM_GPS    iGPS            $GPGGA,201646.000,4144.3525,N,06959.5099,W,2,10,1.33,0.3,M,-34.3,M,0000,0000*52 
222.651         GPS_NMEA_FROM_GPS    iGPS            $GPGGA,201647.000,4144.3526,N,06959.5098,W,2,11,1.04,0.4,M,-34.3,M,0000,0000*53 
223.654         GPS_NMEA_FROM_GPS    iGPS            $GPRMC,201648.000,A,4144.3528,N,06959.5097,W,0.67,25.56,310321,,,D*46 
224.556         GPS_NMEA_FROM_GPS    iGPS            $GPGGA,201649.000,4144.3530,N,06959.5096,W,2,10,1.12,0.4,M,-34.3,M,0000,0000*52 
225.558         GPS_NMEA_FROM_GPS    iGPS            $GPGGA,201650.000,4144.3532,N,06959.5095,W,2,11,1.04,0.4,M,-34.3,M,0000,0000*5D 
226.662         GPS_NMEA_FROM_GPS    iGPS            $GPRMC,201651.000,A,4144.3533,N,06959.5095,W,0.73,20.08,310321,,,D*4D 
227.664         GPS_NMEA_FROM_GPS    iGPS            $GPGGA,201652.000,4144.3535,N,06959.5094,W,2,11,1.04,0.5,M,-34.3,M,0000,0000*58 
228.567         GPS_NMEA_FROM_GPS    iGPS            $GPGGA,201653.000,4144.3537,N,06959.5093,W,2,11,1.04,0.6,M,-34.3,M,0000,0000*5F 
229.669         GPS_NMEA_FROM_GPS    iGPS            $GPRMC,201654.000,A,4144.3539,N,06959.5093,W,0.80,13.28,310321,,,D*4A 
230.672         GPS_NMEA_FROM_GPS    iGPS            $GPRMC,201655.000,A,4144.3541,N,06959.5093,W,0.75,12.40,310321,,,D*41 
231.574         GPS_NMEA_FROM_GPS    iGPS            $GPGGA,201656.000,4144.3543,N,06959.5092,W,2,10,1.12,0.5,M,-34.3,M,0000,0000*5D 
232.577         GPS_NMEA_FROM_GPS    iGPS            $GPGGA,201657.000,4144.3545,N,06959.5092,W,2,10,1.12,0.5,M,-34.3,M,0000,0000*5A 
233.579         GPS_NMEA_FROM_GPS    iGPS            $GPGGA,201658.000,4144.3547,N,06959.5091,W,2,10,1.12,0.5,M,-34.3,M,0000,0000*54 
234.582         GPS_NMEA_FROM_GPS    iGPS            $GPGGA,201659.000,4144.3549,N,06959.5090,W,2,10,1.12,0.5,M,-34.3,M,0000,0000*5A 
235.584         GPS_NMEA_FROM_GPS    iGPS            $GPGGA,201700.000,4144.3550,N,06959.5090,W,2,10,1.12,0.5,M,-34.3,M,0000,0000*5F 
236.687         GPS_NMEA_FROM_GPS    iGPS            $GPRMC,201701.000,A,4144.3552,N,06959.5089,W,0.55,13.56,310321,,,D*4C 
237.589         GPS_NMEA_FROM_GPS    iGPS            $GPGGA,201702.000,4144.3553,N,06959.5088,W,2,11,1.04,0.7,M,-34.3,M,0000,0000*53 
238.592         GPS_NMEA_FROM_GPS    iGPS            $GPGGA,201703.000,4144.3554,N,06959.5088,W,2,10,1.16,0.9,M,-34.3,M,0000,0000*59 
239.594         GPS_NMEA_FROM_GPS    iGPS            $GPGGA,201704.000,4144.3556,N,06959.5087,W,2,10,1.16,1.0,M,-34.3,M,0000,0000*5B 
240.597         GPS_NMEA_FROM_GPS    iGPS            $GPGGA,201705.000,4144.3558,N,06959.5087,W,2,11,1.04,1.0,M,-34.3,M,0000,0000*56 
241.600         GPS_NMEA_FROM_GPS    iGPS            $GPRMC,201706.000,A,4144.3559,N,06959.5088,W,0.44,3.03,310321,,,D*70 
242.602         GPS_NMEA_FROM_GPS    iGPS            $GPGGA,201707.000,4144.3560,N,06959.5088,W,2,11,1.04,1.0,M,-34.3,M,0000,0000*50 
243.605         GPS_NMEA_FROM_GPS    iGPS            $GPRMC,201708.000,A,4144.3561,N,06959.5088,W,0.49,350.00,310321,,,D*7E 
244.508         GPS_NMEA_FROM_GPS    iGPS            $GPGGA,201709.000,4144.3563,N,06959.5089,W,2,11,1.04,1.0,M,-34.3,M,0000,0000*5C 
245.611         GPS_NMEA_FROM_GPS    iGPS            $GPRMC,201710.000,A,4144.3564,N,06959.5091,W,0.52,333.03,310321,,,D*76 
246.614         GPS_NMEA_FROM_GPS    iGPS            $GPRMC,201711.000,A,4144.3565,N,06959.5092,W,0.58,324.96,310321,,,D*75 
247.516         GPS_NMEA_FROM_GPS    iGPS            $GPGGA,201712.000,4144.3566,N,06959.5094,W,2,11,1.04,1.1,M,-34.3,M,0000,0000*5E 
248.619         GPS_NMEA_FROM_GPS    iGPS            $GPRMC,201713.000,A,4144.3567,N,06959.5096,W,0.58,313.11,310321,,,D*7A 
249.621         GPS_NMEA_FROM_GPS    iGPS            $GPGGA,201714.000,4144.3568,N,06959.5098,W,2,11,0.91,1.0,M,-34.3,M,0000,0000*56 
250.524         GPS_NMEA_FROM_GPS    iGPS            $GPGGA,201715.000,4144.3569,N,06959.5100,W,2,10,1.16,1.0,M,-34.3,M,0000,0000*59 
251.627         GPS_NMEA_FROM_GPS    iGPS            $GPGGA,201716.000,4144.3570,N,06959.5102,W,2,11,0.91,1.0,M,-34.3,M,0000,0000*5F 
252.630         GPS_NMEA_FROM_GPS    iGPS            $GPGGA,201717.000,4144.3571,N,06959.5104,W,2,11,0.91,0.9,M,-34.3,M,0000,0000*51 
253.632         GPS_NMEA_FROM_GPS    iGPS            $GPGGA,201718.000,4144.3573,N,06959.5106,W,2,11,0.91,1.0,M,-34.3,M,0000,0000*56 
254.535         GPS_NMEA_FROM_GPS    iGPS            $GPGGA,201719.000,4144.3574,N,06959.5109,W,2,11,0.91,1.0,M,-34.3,M,0000,0000*5F 
255.538         GPS_NMEA_FROM_GPS    iGPS            $GPGGA,201720.000,4144.3575,N,06959.5111,W,2,11,0.91,1.0,M,-34.3,M,0000,0000*5D 
256.641         GPS_NMEA_FROM_GPS    iGPS            $GPRMC,201721.000,A,4144.3576,N,06959.5113,W,0.68,304.91,310321,,,D*7A 
257.543         GPS_NMEA_FROM_GPS    iGPS            $GPGGA,201722.000,4144.3578,N,06959.5115,W,2,11,0.91,1.1,M,-34.3,M,0000,0000*57 
258.545         GPS_NMEA_FROM_GPS    iGPS            $GPGGA,201723.000,4144.3579,N,06959.5117,W,2,11,0.91,1.2,M,-34.3,M,0000,0000*56 
259.548         GPS_NMEA_FROM_GPS    iGPS            $GPGGA,201724.000,4144.3580,N,06959.5118,W,2,11,0.91,1.2,M,-34.3,M,0000,0000*58 
260.551         GPS_NMEA_FROM_GPS    iGPS            $GPGGA,201725.000,4144.3582,N,06959.5120,W,2,11,0.91,1.3,M,-34.3,M,0000,0000*51 
261.553         GPS_NMEA_FROM_GPS    iGPS            $GPGGA,201726.000,4144.3583,N,06959.5122,W,2,11,0.91,1.4,M,-34.3,M,0000,0000*56 
262.556         GPS_NMEA_FROM_GPS    iGPS            $GPRMC,201727.000,A,4144.3584,N,06959.5124,W,0.66,307.59,310321,,,D*7C 
263.559         GPS_NMEA_FROM_GPS    iGPS            $GPGGA,201728.000,4144.3585,N,06959.5126,W,2,10,1.00,1.5,M,-34.3,M,0000,0000*53 
264.662         GPS_NMEA_FROM_GPS    iGPS            $GPRMC,201729.000,A,4144.3587,N,06959.5128,W,0.70,305.04,310321,,,D*70 
265.564         GPS_NMEA_FROM_GPS    iGPS            $GPGGA,201730.000,4144.3588,N,06959.5130,W,2,10,1.07,1.4,M,-34.3,M,0000,0000*56 
266.667         GPS_NMEA_FROM_GPS    iGPS            $GPRMC,201731.000,A,4144.3590,N,06959.5133,W,0.70,302.53,310321,,,D*70 
267.569         GPS_NMEA_FROM_GPS    iGPS            $GPGGA,201732.000,4144.3591,N,06959.5135,W,2,10,1.07,1.4,M,-34.3,M,0000,0000*59 
268.571         GPS_NMEA_FROM_GPS    iGPS            $GPGGA,201733.000,4144.3592,N,06959.5138,W,2,10,1.07,1.4,M,-34.3,M,0000,0000*56 
269.574         GPS_NMEA_FROM_GPS    iGPS            $GPGGA,201734.000,4144.3594,N,06959.5141,W,2,10,1.07,1.4,M,-34.3,M,0000,0000*59 
270.578         GPS_NMEA_FROM_GPS    iGPS            $GPGGA,201735.000,4144.3595,N,06959.5143,W,2,11,0.91,1.3,M,-34.3,M,0000,0000*53 
271.579         GPS_NMEA_FROM_GPS    iGPS            $GPGGA,201736.000,4144.3596,N,06959.5146,W,2,10,1.00,1.3,M,-34.3,M,0000,0000*5E 
272.582         GPS_NMEA_FROM_GPS    iGPS            $GPGGA,201737.000,4144.3598,N,06959.5149,W,2,10,1.00,1.3,M,-34.3,M,0000,0000*5E 
273.585         GPS_NMEA_FROM_GPS    iGPS            $GPGGA,201738.000,4144.3599,N,06959.5151,W,2,11,0.91,1.3,M,-34.3,M,0000,0000*51 
274.588         GPS_NMEA_FROM_GPS    iGPS            $GPGGA,201739.000,4144.3600,N,06959.5154,W,2,11,0.91,1.3,M,-34.3,M,0000,0000*56 
275.591         GPS_NMEA_FROM_GPS    iGPS            $GPGGA,201740.000,4144.3602,N,06959.5157,W,2,11,0.91,1.2,M,-34.3,M,0000,0000*58 
276.593         GPS_NMEA_FROM_GPS    iGPS            $GPGGA,201741.000,4144.3603,N,06959.5159,W,2,11,0.91,1.2,M,-34.3,M,0000,0000*56 
277.596         GPS_NMEA_FROM_GPS    iGPS            $GPGGA,201742.000,4144.3605,N,06959.5162,W,2,11,0.91,1.2,M,-34.3,M,0000,0000*5B 
278.599         GPS_NMEA_FROM_GPS    iGPS            $GPGGA,201743.000,4144.3606,N,06959.5165,W,2,11,0.91,1.1,M,-34.3,M,0000,0000*5D 
279.601         GPS_NMEA_FROM_GPS    iGPS            $GPGGA,201744.000,4144.3607,N,06959.5167,W,2,11,0.91,1.1,M,-34.3,M,0000,0000*59 
280.604         GPS_NMEA_FROM_GPS    iGPS            $GPGGA,201745.000,4144.3609,N,06959.5170,W,2,11,0.91,1.0,M,-34.3,M,0000,0000*51 
281.507         GPS_NMEA_FROM_GPS    iGPS            $GPGGA,201746.000,4144.3610,N,06959.5173,W,2,11,0.91,1.0,M,-34.3,M,0000,0000*59 
282.610         GPS_NMEA_FROM_GPS    iGPS            $GPGGA,201747.000,4144.3610,N,06959.5176,W,2,10,1.07,1.0,M,-34.3,M,0000,0000*52 
283.612         GPS_NMEA_FROM_GPS    iGPS            $GPRMC,201748.000,A,4144.3611,N,06959.5179,W,0.74,294.32,310321,,,D*77 
284.615         GPS_NMEA_FROM_GPS    iGPS            $GPGGA,201749.000,4144.3612,N,06959.5181,W,2,11,0.91,0.9,M,-34.3,M,0000,0000*51 
285.617         GPS_NMEA_FROM_GPS    iGPS            $GPGGA,201750.000,4144.3613,N,06959.5184,W,2,11,0.91,0.8,M,-34.3,M,0000,0000*5C 
286.620         GPS_NMEA_FROM_GPS    iGPS            $GPRMC,201751.000,A,4144.3614,N,06959.5187,W,0.76,290.55,310321,,,D*7C 
287.622         GPS_NMEA_FROM_GPS    iGPS            $GPGGA,201752.000,4144.3615,N,06959.5190,W,2,11,0.91,0.7,M,-34.3,M,0000,0000*52 
288.625         GPS_NMEA_FROM_GPS    iGPS            $GPGGA,201753.000,4144.3616,N,06959.5193,W,2,11,0.91,0.7,M,-34.3,M,0000,0000*53 
289.628         GPS_NMEA_FROM_GPS    iGPS            $GPRMC,201754.000,A,4144.3617,N,06959.5195,W,0.73,293.27,310321,,,D*7A 
290.630         GPS_NMEA_FROM_GPS    iGPS            $GPRMC,201755.000,A,4144.3618,N,06959.5198,W,0.74,295.27,310321,,,D*78 
291.532         GPS_NMEA_FROM_GPS    iGPS            $GPGGA,201756.000,4144.3619,N,06959.5200,W,2,11,0.91,0.5,M,-34.3,M,0000,0000*52 
292.535         GPS_NMEA_FROM_GPS    iGPS            $GPGGA,201757.000,4144.3620,N,06959.5202,W,2,11,1.04,0.5,M,-34.3,M,0000,0000*56 
293.638         GPS_NMEA_FROM_GPS    iGPS            $GPGGA,201758.000,4144.3621,N,06959.5205,W,2,11,1.04,0.5,M,-34.3,M,0000,0000*5F 
294.641         GPS_NMEA_FROM_GPS    iGPS            $GPGGA,201759.000,4144.3622,N,06959.5207,W,2,11,0.91,0.5,M,-34.3,M,0000,0000*52 
295.643         GPS_NMEA_FROM_GPS    iGPS            $GPGGA,201800.000,4144.3623,N,06959.5210,W,2,11,0.91,0.5,M,-34.3,M,0000,0000*56 
296.646         GPS_NMEA_FROM_GPS    iGPS            $GPRMC,201801.000,A,4144.3624,N,06959.5212,W,0.71,293.53,310321,,,D*78 
297.548         GPS_NMEA_FROM_GPS    iGPS            $GPGGA,201802.000,4144.3625,N,06959.5215,W,2,11,0.91,0.5,M,-34.3,M,0000,0000*57 
298.551         GPS_NMEA_FROM_GPS    iGPS            $GPGGA,201803.000,4144.3626,N,06959.5218,W,2,11,1.04,0.6,M,-34.3,M,0000,0000*56 
299.553         GPS_NMEA_FROM_GPS    iGPS            $GPGGA,201804.000,4144.3627,N,06959.5221,W,2,11,0.91,0.6,M,-34.3,M,0000,0000*57 
300.556         GPS_NMEA_FROM_GPS    iGPS            $GPGGA,201805.000,4144.3628,N,06959.5223,W,2,11,0.91,0.6,M,-34.3,M,0000,0000*5B 
301.559         GPS_NMEA_FROM_GPS    iGPS            $GPGGA,201806.000,4144.3629,N,06959.5226,W,2,11,1.04,0.5,M,-34.3,M,0000,0000*52 
302.561         GPS_NMEA_FROM_GPS    iGPS            $GPGGA,201807.000,4144.3630,N,06959.5228,W,2,11,0.91,0.5,M,-34.3,M,0000,0000*58 
303.664         GPS_NMEA_FROM_GPS    iGPS            $GPGGA,201808.000,4144.3631,N,06959.5231,W,2,11,0.91,0.5,M,-34.3,M,0000,0000*5E 
304.567         GPS_NMEA_FROM_GPS    iGPS            $GPGGA,201809.000,4144.3632,N,06959.5233,W,2,11,0.91,0.5,M,-34.3,M,0000,0000*5E 
305.569         GPS_NMEA_FROM_GPS    iGPS            $GPGGA,201810.000,4144.3633,N,06959.5236,W,2,11,0.91,0.4,M,-34.3,M,0000,0000*53 
306.672         GPS_NMEA_FROM_GPS    iGPS            $GPRMC,201811.000,A,4144.3634,N,06959.5239,W,0.72,295.53,310321,,,D*74 
307.574         GPS_NMEA_FROM_GPS    iGPS            $GPGGA,201812.000,4144.3635,N,06959.5241,W,2,11,0.91,0.4,M,-34.3,M,0000,0000*57 
308.577         GPS_NMEA_FROM_GPS    iGPS            $GPGGA,201813.000,4144.3636,N,06959.5244,W,2,11,1.04,0.4,M,-34.3,M,0000,0000*5D 
309.580         GPS_NMEA_FROM_GPS    iGPS            $GPGGA,201814.000,4144.3637,N,06959.5247,W,2,11,0.91,0.3,M,-34.3,M,0000,0000*52 
310.582         GPS_NMEA_FROM_GPS    iGPS            $GPGGA,201815.000,4144.3638,N,06959.5250,W,2,11,0.91,0.3,M,-34.3,M,0000,0000*5A 
311.585         GPS_NMEA_FROM_GPS    iGPS            $GPGGA,201816.000,4144.3639,N,06959.5253,W,2,11,1.04,0.3,M,-34.3,M,0000,0000*56 
312.588         GPS_NMEA_FROM_GPS    iGPS            $GPGGA,201817.000,4144.3641,N,06959.5255,W,2,11,0.91,0.3,M,-34.3,M,0000,0000*53 
313.590         GPS_NMEA_FROM_GPS    iGPS            $GPGGA,201818.000,4144.3642,N,06959.5258,W,2,11,0.91,0.2,M,-34.3,M,0000,0000*53 
314.693         GPS_NMEA_FROM_GPS    iGPS            $GPRMC,201819.000,A,4144.3643,N,06959.5260,W,0.73,296.30,310321,,,D*77 
315.595         GPS_NMEA_FROM_GPS    iGPS            $GPGGA,201820.000,4144.3644,N,06959.5263,W,2,11,0.91,0.2,M,-34.3,M,0000,0000*56 
316.598         GPS_NMEA_FROM_GPS    iGPS            $GPGGA,201821.000,4144.3645,N,06959.5266,W,2,11,0.91,0.1,M,-34.3,M,0000,0000*50 
317.601         GPS_NMEA_FROM_GPS    iGPS            $GPGGA,201822.000,4144.3646,N,06959.5268,W,2,11,0.91,0.1,M,-34.3,M,0000,0000*5E 
318.503         GPS_NMEA_FROM_GPS    iGPS            $GPGGA,201823.000,4144.3646,N,06959.5270,W,2,11,1.04,0.1,M,-34.3,M,0000,0000*5B 
319.606         GPS_NMEA_FROM_GPS    iGPS            $GPRMC,201824.000,A,4144.3647,N,06959.5273,W,0.63,292.21,310321,,,D*7A 
320.609         GPS_NMEA_FROM_GPS    iGPS            $GPGGA,201825.000,4144.3647,N,06959.5275,W,2,11,0.91,0.1,M,-34.3,M,0000,0000*54 
321.613         GPS_NMEA_FROM_GPS    iGPS            $GPGGA,201826.000,4144.3647,N,06959.5277,W,2,11,1.04,0.0,M,-34.3,M,0000,0000*59 
322.616         GPS_NMEA_FROM_GPS    iGPS            $GPGGA,201827.000,4144.3646,N,06959.5279,W,2,11,1.04,0.1,M,-34.3,M,0000,0000*56 
323.518         GPS_NMEA_FROM_GPS    iGPS            $GPGGA,201828.000,4144.3646,N,06959.5281,W,2,11,1.04,0.1,M,-34.3,M,0000,0000*5E 
324.621         GPS_NMEA_FROM_GPS    iGPS            $GPGGA,201829.000,4144.3646,N,06959.5284,W,2,11,1.04,0.1,M,-34.3,M,0000,0000*5A 
325.523         GPS_NMEA_FROM_GPS    iGPS            $GPGGA,201830.000,4144.3645,N,06959.5286,W,2,11,1.04,0.0,M,-34.3,M,0000,0000*52 
326.626         GPS_NMEA_FROM_GPS    iGPS            $GPGGA,201831.000,4144.3644,N,06959.5288,W,2,11,1.04,-0.1,M,-34.3,M,0000,0000*70 
327.629         GPS_NMEA_FROM_GPS    iGPS            $GPGGA,201832.000,4144.3643,N,06959.5290,W,2,11,1.04,-0.1,M,-34.3,M,0000,0000*7D 
328.532         GPS_NMEA_FROM_GPS    iGPS            $GPGGA,201833.000,4144.3642,N,06959.5292,W,2,11,1.04,-0.2,M,-34.3,M,0000,0000*7C 
329.534         GPS_NMEA_FROM_GPS    iGPS            $GPGGA,201834.000,4144.3641,N,06959.5294,W,2,11,1.04,-0.2,M,-34.3,M,0000,0000*7E 
330.637         GPS_NMEA_FROM_GPS    iGPS            $GPGGA,201835.000,4144.3640,N,06959.5295,W,2,11,1.04,-0.2,M,-34.3,M,0000,0000*7F 
331.640         GPS_NMEA_FROM_GPS    iGPS            $GPGGA,201836.000,4144.3638,N,06959.5297,W,2,11,0.91,-0.2,M,-34.3,M,0000,0000*7C 
332.643         GPS_NMEA_FROM_GPS    iGPS            $GPRMC,201837.000,A,4144.3636,N,06959.5300,W,0.62,230.07,310321,,,D*76 
333.545         GPS_NMEA_FROM_GPS    iGPS            $GPGGA,201838.000,4144.3635,N,06959.5301,W,2,11,1.04,-0.3,M,-34.3,M,0000,0000*7D 
334.548         GPS_NMEA_FROM_GPS    iGPS            $GPGGA,201839.000,4144.3633,N,06959.5304,W,2,11,0.91,-0.3,M,-34.3,M,0000,0000*72 
335.650         GPS_NMEA_FROM_GPS    iGPS            $GPGGA,201840.000,4144.3631,N,06959.5306,W,2,11,0.91,-0.3,M,-34.3,M,0000,0000*7C 
336.653         GPS_NMEA_FROM_GPS    iGPS            $GPRMC,201841.000,A,4144.3629,N,06959.5308,W,0.65,221.07,310321,,,D*76 
337.656         GPS_NMEA_FROM_GPS    iGPS            $GPGGA,201842.000,4144.3627,N,06959.5310,W,2,11,0.91,-0.3,M,-34.3,M,0000,0000*7E 
338.658         GPS_NMEA_FROM_GPS    iGPS            $GPRMC,201843.000,A,4144.3625,N,06959.5312,W,0.69,222.37,310321,,,D*7F 
339.661         GPS_NMEA_FROM_GPS    iGPS            $GPRMC,201844.000,A,4144.3623,N,06959.5314,W,0.68,223.70,310321,,,D*7B 
340.663         GPS_NMEA_FROM_GPS    iGPS            $GPRMC,201845.000,A,4144.3621,N,06959.5316,W,0.68,224.65,310321,,,D*79 
341.666         GPS_NMEA_FROM_GPS    iGPS            $GPRMC,201846.000,A,4144.3620,N,06959.5318,W,0.68,225.51,310321,,,D*73 
342.669         GPS_NMEA_FROM_GPS    iGPS            $GPRMC,201847.000,A,4144.3618,N,06959.5321,W,0.67,225.36,310321,,,D*7D 
343.672         GPS_NMEA_FROM_GPS    iGPS            $GPRMC,201848.000,A,4144.3616,N,06959.5323,W,0.66,225.19,310321,,,D*72 
344.674         GPS_NMEA_FROM_GPS    iGPS            $GPGGA,201849.000,4144.3614,N,06959.5326,W,2,11,0.91,-0.1,M,-34.3,M,0000,0000*72 
345.576         GPS_NMEA_FROM_GPS    iGPS            $GPGGA,201850.000,4144.3612,N,06959.5328,W,2,11,0.91,0.0,M,-34.3,M,0000,0000*5E 
346.579         GPS_NMEA_FROM_GPS    iGPS            $GPGGA,201851.000,4144.3610,N,06959.5331,W,2,11,0.91,0.1,M,-34.3,M,0000,0000*54 
347.682         GPS_NMEA_FROM_GPS    iGPS            $GPRMC,201852.000,A,4144.3608,N,06959.5333,W,0.73,219.16,310321,,,D*73 
348.585         GPS_NMEA_FROM_GPS    iGPS            $GPGGA,201853.000,4144.3606,N,06959.5335,W,2,11,0.91,0.3,M,-34.3,M,0000,0000*57 
349.687         GPS_NMEA_FROM_GPS    iGPS            $GPRMC,201854.000,A,4144.3604,N,06959.5336,W,0.71,215.31,310321,,,D*77 
350.589         GPS_NMEA_FROM_GPS    iGPS            $GPGGA,201855.000,4144.3602,N,06959.5338,W,2,11,0.91,0.4,M,-34.3,M,0000,0000*5F 
351.592         GPS_NMEA_FROM_GPS    iGPS            $GPGGA,201856.000,4144.3600,N,06959.5339,W,2,11,0.91,0.5,M,-34.3,M,0000,0000*5E 
352.595         GPS_NMEA_FROM_GPS    iGPS            $GPGGA,201857.000,4144.3598,N,06959.5341,W,2,11,1.04,0.6,M,-34.3,M,0000,0000*5C 
353.598         GPS_NMEA_FROM_GPS    iGPS            $GPRMC,201858.000,A,4144.3596,N,06959.5343,W,0.70,211.80,310321,,,D*7E 
354.600         GPS_NMEA_FROM_GPS    iGPS            $GPRMC,201859.000,A,4144.3594,N,06959.5345,W,0.72,211.86,310321,,,D*7F 
355.602         GPS_NMEA_FROM_GPS    iGPS            $GPRMC,201900.000,A,4144.3592,N,06959.5347,W,0.71,212.20,310321,,,D*7A 
356.604         GPS_NMEA_FROM_GPS    iGPS            $GPGGA,201901.000,4144.3590,N,06959.5349,W,2,11,0.91,0.8,M,-34.3,M,0000,0000*5D 
357.607         GPS_NMEA_FROM_GPS    iGPS            $GPRMC,201902.000,A,4144.3588,N,06959.5351,W,0.70,213.21,310321,,,D*75 
358.609         GPS_NMEA_FROM_GPS    iGPS            $GPGGA,201903.000,4144.3586,N,06959.5353,W,2,11,1.04,1.0,M,-34.3,M,0000,0000*57 
359.612         GPS_NMEA_FROM_GPS    iGPS            $GPGGA,201904.000,4144.3585,N,06959.5355,W,2,11,0.91,1.1,M,-34.3,M,0000,0000*59 
360.615         GPS_NMEA_FROM_GPS    iGPS            $GPRMC,201905.000,A,4144.3583,N,06959.5357,W,0.69,215.01,310321,,,D*73 
361.616         GPS_NMEA_FROM_GPS    iGPS            $GPGGA,201906.000,4144.3581,N,06959.5359,W,2,11,0.91,1.2,M,-34.3,M,0000,0000*50 
362.619         GPS_NMEA_FROM_GPS    iGPS            $GPGGA,201907.000,4144.3579,N,06959.5361,W,2,11,0.91,1.2,M,-34.3,M,0000,0000*5D 
363.521         GPS_NMEA_FROM_GPS    iGPS            $GPGGA,201908.000,4144.3577,N,06959.5362,W,2,11,0.91,1.3,M,-34.3,M,0000,0000*5E 
364.624         GPS_NMEA_FROM_GPS    iGPS            $GPGGA,201909.000,4144.3576,N,06959.5363,W,2,11,0.91,1.3,M,-34.3,M,0000,0000*5F 
365.627         GPS_NMEA_FROM_GPS    iGPS            $GPRMC,201910.000,A,4144.3574,N,06959.5364,W,0.69,210.73,310321,,,D*7F 
366.630         GPS_NMEA_FROM_GPS    iGPS            $GPRMC,201911.000,A,4144.3572,N,06959.5365,W,0.71,209.78,310321,,,D*73 
367.632         GPS_NMEA_FROM_GPS    iGPS            $GPGGA,201912.000,4144.3569,N,06959.5366,W,2,11,0.91,1.4,M,-34.3,M,0000,0000*59 
368.635         GPS_NMEA_FROM_GPS    iGPS            $GPGGA,201913.000,4144.3567,N,06959.5367,W,2,11,0.91,1.4,M,-34.3,M,0000,0000*57 
369.637         GPS_NMEA_FROM_GPS    iGPS            $GPGGA,201914.000,4144.3565,N,06959.5369,W,2,11,0.91,1.5,M,-34.3,M,0000,0000*5D 
370.640         GPS_NMEA_FROM_GPS    iGPS            $GPGGA,201915.000,4144.3563,N,06959.5370,W,2,11,0.91,1.5,M,-34.3,M,0000,0000*52 
371.542         GPS_NMEA_FROM_GPS    iGPS            $GPGGA,201916.000,4144.3561,N,06959.5371,W,2,11,0.91,1.5,M,-34.3,M,0000,0000*52 
372.646         GPS_NMEA_FROM_GPS    iGPS            $GPRMC,201917.000,A,4144.3559,N,06959.5373,W,0.72,209.45,310321,,,D*76 
373.648         GPS_NMEA_FROM_GPS    iGPS            $GPGGA,201918.000,4144.3557,N,06959.5375,W,2,11,0.91,1.6,M,-34.3,M,0000,0000*5E 
374.550         GPS_NMEA_FROM_GPS    iGPS            $GPGGA,201919.000,4144.3556,N,06959.5377,W,2,11,0.91,1.6,M,-34.3,M,0000,0000*5C 
375.553         GPS_NMEA_FROM_GPS    iGPS            $GPGGA,201920.000,4144.3554,N,06959.5379,W,2,11,0.91,1.7,M,-34.3,M,0000,0000*5B 
376.555         GPS_NMEA_FROM_GPS    iGPS            $GPGGA,201921.000,4144.3553,N,06959.5381,W,2,11,0.91,1.7,M,-34.3,M,0000,0000*5A 
377.558         GPS_NMEA_FROM_GPS    iGPS            $GPGGA,201922.000,4144.3551,N,06959.5383,W,2,11,0.91,1.7,M,-34.3,M,0000,0000*59 
378.561         GPS_NMEA_FROM_GPS    iGPS            $GPRMC,201923.000,A,4144.3550,N,06959.5384,W,0.59,217.42,310321,,,D*71 
379.664         GPS_NMEA_FROM_GPS    iGPS            $GPRMC,201924.000,A,4144.3548,N,06959.5386,W,0.58,216.57,310321,,,D*79 
380.566         GPS_NMEA_FROM_GPS    iGPS            $GPGGA,201925.000,4144.3547,N,06959.5387,W,2,11,0.91,1.8,M,-34.3,M,0000,0000*52 
381.568         GPS_NMEA_FROM_GPS    iGPS            $GPGGA,201926.000,4144.3546,N,06959.5388,W,2,11,0.91,1.8,M,-34.3,M,0000,0000*5F 
382.571         GPS_NMEA_FROM_GPS    iGPS            $GPGGA,201927.000,4144.3544,N,06959.5389,W,2,11,1.04,1.9,M,-34.3,M,0000,0000*51 
383.574         GPS_NMEA_FROM_GPS    iGPS            $GPGGA,201928.000,4144.3542,N,06959.5390,W,2,11,1.04,1.9,M,-34.3,M,0000,0000*50 
384.576         GPS_NMEA_FROM_GPS    iGPS            $GPRMC,201929.000,A,4144.3541,N,06959.5391,W,0.67,203.02,310321,,,D*73 
385.579         GPS_NMEA_FROM_GPS    iGPS            $GPGGA,201930.000,4144.3539,N,06959.5391,W,2,11,0.91,1.9,M,-34.3,M,0000,0000*59 
386.581         GPS_NMEA_FROM_GPS    iGPS            $GPRMC,201931.000,A,4144.3537,N,06959.5392,W,0.64,199.08,310321,,,D*71 
387.584         GPS_NMEA_FROM_GPS    iGPS            $GPGGA,201932.000,4144.3535,N,06959.5393,W,2,11,0.91,1.9,M,-34.3,M,0000,0000*55 
388.586         GPS_NMEA_FROM_GPS    iGPS            $GPGGA,201933.000,4144.3533,N,06959.5393,W,2,11,1.04,1.9,M,-34.3,M,0000,0000*5F 
389.589         GPS_NMEA_FROM_GPS    iGPS            $GPGGA,201934.000,4144.3531,N,06959.5393,W,2,11,1.04,1.9,M,-34.3,M,0000,0000*5A 
390.592         GPS_NMEA_FROM_GPS    iGPS            $GPGGA,201935.000,4144.3529,N,06959.5394,W,2,11,1.04,1.9,M,-34.3,M,0000,0000*55 
391.595         GPS_NMEA_FROM_GPS    iGPS            $GPGGA,201936.000,4144.3528,N,06959.5396,W,2,11,1.04,1.9,M,-34.3,M,0000,0000*55 
392.497         GPS_NMEA_FROM_GPS    iGPS            $GPGGA,201937.000,4144.3526,N,06959.5397,W,2,11,1.04,1.9,M,-34.3,M,0000,0000*5B 
393.600         GPS_NMEA_FROM_GPS    iGPS            $GPGGA,201938.000,4144.3525,N,06959.5399,W,2,11,0.91,2.0,M,-34.3,M,0000,0000*5E 
394.603         GPS_NMEA_FROM_GPS    iGPS            $GPGGA,201939.000,4144.3523,N,06959.5401,W,2,11,0.91,2.0,M,-34.3,M,0000,0000*5F 
395.606         GPS_NMEA_FROM_GPS    iGPS            $GPRMC,201940.000,A,4144.3521,N,06959.5402,W,0.66,214.30,310321,,,D*71 
396.508         GPS_NMEA_FROM_GPS    iGPS            $GPGGA,201941.000,4144.3520,N,06959.5404,W,2,11,0.91,2.1,M,-34.3,M,0000,0000*57 
397.511         GPS_NMEA_FROM_GPS    iGPS            $GPGGA,201942.000,4144.3519,N,06959.5405,W,2,11,0.91,2.1,M,-34.3,M,0000,0000*5F 
398.614         GPS_NMEA_FROM_GPS    iGPS            $GPRMC,201943.000,A,4144.3517,N,06959.5407,W,0.59,215.44,310321,,,D*7C 
399.516         GPS_NMEA_FROM_GPS    iGPS            $GPGGA,201944.000,4144.3515,N,06959.5408,W,2,10,1.15,2.1,M,-34.3,M,0000,0000*54 
400.619         GPS_NMEA_FROM_GPS    iGPS            $GPRMC,201945.000,A,4144.3513,N,06959.5408,W,0.62,213.98,310321,,,D*7E 
401.521         GPS_NMEA_FROM_GPS    iGPS            $GPGGA,201946.000,4144.3512,N,06959.5409,W,2,10,1.15,2.2,M,-34.3,M,0000,0000*53 
402.623         GPS_NMEA_FROM_GPS    iGPS            $GPGGA,201947.000,4144.3510,N,06959.5410,W,2,11,1.04,2.3,M,-34.3,M,0000,0000*58 
403.526         GPS_NMEA_FROM_GPS    iGPS            $GPGGA,201948.000,4144.3509,N,06959.5412,W,2,10,1.15,2.3,M,-34.3,M,0000,0000*5C 
404.629         GPS_NMEA_FROM_GPS    iGPS            $GPRMC,201949.000,A,4144.3507,N,06959.5413,W,0.67,210.83,310321,,,D*71 
405.631         GPS_NMEA_FROM_GPS    iGPS            $GPRMC,201950.000,A,4144.3505,N,06959.5414,W,0.68,209.79,310321,,,D*7E 
406.634         GPS_NMEA_FROM_GPS    iGPS            $GPRMC,201951.000,A,4144.3504,N,06959.5415,W,0.70,209.02,310321,,,D*7A 
407.536         GPS_NMEA_FROM_GPS    iGPS            $GPGGA,201952.000,4144.3502,N,06959.5416,W,2,10,1.15,2.4,M,-34.3,M,0000,0000*5F 
408.539         GPS_NMEA_FROM_GPS    iGPS            $GPGGA,201953.000,4144.3500,N,06959.5417,W,2,10,1.07,2.4,M,-34.3,M,0000,0000*5E 
409.542         GPS_NMEA_FROM_GPS    iGPS            $GPGGA,201954.000,4144.3498,N,06959.5418,W,2,10,1.07,2.4,M,-34.3,M,0000,0000*56 
410.645         GPS_NMEA_FROM_GPS    iGPS            $GPRMC,201955.000,A,4144.3496,N,06959.5419,W,0.76,201.23,310321,,,D*75 
411.547         GPS_NMEA_FROM_GPS    iGPS            $GPGGA,201956.000,4144.3495,N,06959.5419,W,2,10,1.07,2.4,M,-34.3,M,0000,0000*58 
412.549         GPS_NMEA_FROM_GPS    iGPS            $GPGGA,201957.000,4144.3492,N,06959.5420,W,2,11,1.04,2.4,M,-34.3,M,0000,0000*56 
413.552         GPS_NMEA_FROM_GPS    iGPS            $GPGGA,201958.000,4144.3490,N,06959.5420,W,2,11,1.04,2.5,M,-34.3,M,0000,0000*5A 
414.554         GPS_NMEA_FROM_GPS    iGPS            $GPGGA,201959.000,4144.3488,N,06959.5422,W,2,11,0.91,2.5,M,-34.3,M,0000,0000*5D 
415.561         GPS_NMEA_FROM_GPS    iGPS            $GPGGA,202000.000,4144.3487,N,06959.5423,W,2,11,0.91,2.5,M,-34.3,M,0000,0000*55 
416.563         GPS_NMEA_FROM_GPS    iGPS            $GPGGA,202001.000,4144.3485,N,06959.5425,W,2,11,1.04,2.6,M,-34.3,M,0000,0000*5E 
417.566         GPS_NMEA_FROM_GPS    iGPS            $GPGGA,202002.000,4144.3484,N,06959.5427,W,2,11,1.04,2.6,M,-34.3,M,0000,0000*5E 
418.568         GPS_NMEA_FROM_GPS    iGPS            $GPRMC,202003.000,A,4144.3482,N,06959.5429,W,0.72,211.63,310321,,,D*7B 
419.571         GPS_NMEA_FROM_GPS    iGPS            $GPGGA,202004.000,4144.3480,N,06959.5431,W,2,11,0.91,2.7,M,-34.3,M,0000,0000*57 
420.573         GPS_NMEA_FROM_GPS    iGPS            $GPGGA,202005.000,4144.3478,N,06959.5433,W,2,11,0.91,2.8,M,-34.3,M,0000,0000*5C 
421.576         GPS_NMEA_FROM_GPS    iGPS            $GPGGA,202006.000,4144.3477,N,06959.5435,W,2,11,1.04,2.8,M,-34.3,M,0000,0000*5B 
422.579         GPS_NMEA_FROM_GPS    iGPS            $GPRMC,202007.000,A,4144.3475,N,06959.5436,W,0.72,216.61,310321,,,D*7C 
423.581         GPS_NMEA_FROM_GPS    iGPS            $GPGGA,202008.000,4144.3473,N,06959.5438,W,2,10,1.15,2.8,M,-34.3,M,0000,0000*5D 
424.583         GPS_NMEA_FROM_GPS    iGPS            $GPGGA,202009.000,4144.3472,N,06959.5439,W,2,10,1.15,2.8,M,-34.3,M,0000,0000*5C 
425.586         GPS_NMEA_FROM_GPS    iGPS            $GPGGA,202010.000,4144.3470,N,06959.5440,W,2,10,1.15,2.8,M,-34.3,M,0000,0000*58 
426.588         GPS_NMEA_FROM_GPS    iGPS            $GPGGA,202011.000,4144.3468,N,06959.5441,W,2,10,1.15,2.8,M,-34.3,M,0000,0000*51 
427.491         GPS_NMEA_FROM_GPS    iGPS            $GPGGA,202012.000,4144.3467,N,06959.5441,W,2,10,1.15,2.9,M,-34.3,M,0000,0000*5C 
428.594         GPS_NMEA_FROM_GPS    iGPS            $GPGGA,202013.000,4144.3465,N,06959.5442,W,2,10,1.15,3.0,M,-34.3,M,0000,0000*54 
429.496         GPS_NMEA_FROM_GPS    iGPS            $GPGGA,202014.000,4144.3463,N,06959.5442,W,2,10,1.07,3.0,M,-34.3,M,0000,0000*56 
430.599         GPS_NMEA_FROM_GPS    iGPS            $GPGGA,202015.000,4144.3461,N,06959.5443,W,2,10,1.07,3.0,M,-34.3,M,0000,0000*54 
431.602         GPS_NMEA_FROM_GPS    iGPS            $GPGGA,202016.000,4144.3460,N,06959.5443,W,2,10,1.07,3.0,M,-34.3,M,0000,0000*56 
432.605         GPS_NMEA_FROM_GPS    iGPS            $GPRMC,202017.000,A,4144.3458,N,06959.5443,W,0.70,196.51,310321,,,D*7A 
433.607         GPS_NMEA_FROM_GPS    iGPS            $GPGGA,202018.000,4144.3456,N,06959.5444,W,2,11,1.04,2.9,M,-34.3,M,0000,0000*50 
434.609         GPS_NMEA_FROM_GPS    iGPS            $GPGGA,202019.000,4144.3454,N,06959.5445,W,2,11,1.04,2.9,M,-34.3,M,0000,0000*52 
435.612         GPS_NMEA_FROM_GPS    iGPS            $GPRMC,202020.000,A,4144.3453,N,06959.5446,W,0.70,197.67,310321,,,D*74 
436.615         GPS_NMEA_FROM_GPS    iGPS            $GPRMC,202021.000,A,4144.3451,N,06959.5447,W,0.70,199.78,310321,,,D*76 
437.517         GPS_NMEA_FROM_GPS    iGPS            $GPGGA,202022.000,4144.3449,N,06959.5448,W,2,11,1.04,2.7,M,-34.3,M,0000,0000*55 
438.520         GPS_NMEA_FROM_GPS    iGPS            $GPGGA,202023.000,4144.3448,N,06959.5450,W,2,11,0.91,2.8,M,-34.3,M,0000,0000*5E 
439.522         GPS_NMEA_FROM_GPS    iGPS            $GPGGA,202024.000,4144.3447,N,06959.5452,W,2,11,0.91,2.8,M,-34.3,M,0000,0000*54 
440.525         GPS_NMEA_FROM_GPS    iGPS            $GPGGA,202025.000,4144.3445,N,06959.5453,W,2,11,1.04,2.7,M,-34.3,M,0000,0000*54 
441.527         GPS_NMEA_FROM_GPS    iGPS            $GPGGA,202026.000,4144.3444,N,06959.5455,W,2,11,1.04,2.7,M,-34.3,M,0000,0000*50 
442.530         GPS_NMEA_FROM_GPS    iGPS            $GPGGA,202027.000,4144.3442,N,06959.5457,W,2,11,1.04,2.6,M,-34.3,M,0000,0000*54 
443.633         GPS_NMEA_FROM_GPS    iGPS            $GPGGA,202028.000,4144.3441,N,06959.5459,W,2,11,1.04,2.6,M,-34.3,M,0000,0000*56 
444.535         GPS_NMEA_FROM_GPS    iGPS            $GPGGA,202029.000,4144.3440,N,06959.5460,W,2,11,0.91,2.6,M,-34.3,M,0000,0000*51 
445.638         GPS_NMEA_FROM_GPS    iGPS            $GPGGA,202030.000,4144.3438,N,06959.5461,W,2,11,0.91,2.6,M,-34.3,M,0000,0000*57 
446.640         GPS_NMEA_FROM_GPS    iGPS            $GPGGA,202031.000,4144.3437,N,06959.5462,W,2,10,1.15,2.6,M,-34.3,M,0000,0000*56 
447.643         GPS_NMEA_FROM_GPS    iGPS            $GPGGA,202032.000,4144.3435,N,06959.5463,W,2,10,1.15,2.6,M,-34.3,M,0000,0000*56 
448.646         GPS_NMEA_FROM_GPS    iGPS            $GPRMC,202033.000,A,4144.3434,N,06959.5464,W,0.60,214.71,310321,,,D*79 
449.548         GPS_NMEA_FROM_GPS    iGPS            $GPGGA,202034.000,4144.3432,N,06959.5465,W,2,10,1.15,2.5,M,-34.3,M,0000,0000*52 
