1.668           GPS_NMEA_FROM_GPS    iGPS            $GPRMC,184358.000,A,4144.3486,N,06959.5903,W,0.37,202.33,220321,,,D*7E 
2.269           GPS_NMEA_FROM_GPS    iGPS            $GPGGA,184359.000,4144.3485,N,06959.5903,W,2,08,1.02,8.8,M,-34.3,M,0000,0000*5E 
2.269           GPS_NMEA_FROM_GPS    iGPS            $GPGGA,184359.000,4144.3485,N,06959.5903,W,2,08,1.02,8.8,M,-34.3,M,0000,0000*5E 
3.271           GPS_NMEA_FROM_GPS    iGPS            $GPGGA,184400.000,4144.3485,N,06959.5904,W,2,09,0.98,8.8,M,-34.3,M,0000,0000*51 
4.274           GPS_NMEA_FROM_GPS    iGPS            $GPGGA,184401.000,4144.3484,N,06959.5904,W,2,09,0.98,8.8,M,-34.3,M,0000,0000*51 
5.377           GPS_NMEA_FROM_GPS    iGPS            $GPRMC,184402.000,A,4144.3484,N,06959.5905,W,0.42,226.25,220321,,,D*71 
6.278           GPS_NMEA_FROM_GPS    iGPS            $GPGGA,184403.000,4144.3483,N,06959.5907,W,2,09,0.98,8.8,M,-34.3,M,0000,0000*57 
7.380           GPS_NMEA_FROM_GPS    iGPS            $GPRMC,184404.000,A,4144.3483,N,06959.5908,W,0.35,237.42,220321,,,D*7C 
8.382           GPS_NMEA_FROM_GPS    iGPS            $GPRMC,184405.000,A,4144.3483,N,06959.5909,W,0.20,242.53,220321,,,D*7A 
9.284           GPS_NMEA_FROM_GPS    iGPS            $GPGGA,184406.000,4144.3483,N,06959.5910,W,2,09,0.98,8.9,M,-34.3,M,0000,0000*55 
10.287          GPS_NMEA_FROM_GPS    iGPS            $GPGGA,184407.000,4144.3482,N,06959.5911,W,2,09,0.98,8.9,M,-34.3,M,0000,0000*54 
11.391          GPS_NMEA_FROM_GPS    iGPS            $GPRMC,184408.000,A,4144.3482,N,06959.5912,W,0.22,238.13,220321,,,D*77 
11.391          GPS_NMEA_FROM_GPS    iGPS            $GPRMC,184408.000,A,4144.3482,N,06959.5912,W,0.22,238.13,220321,,,D*77 
12.294          GPS_NMEA_FROM_GPS    iGPS            $GPGGA,184409.000,4144.3481,N,06959.5912,W,2,09,0.98,8.9,M,-34.3,M,0000,0000*5A 
12.294          GPS_NMEA_FROM_GPS    iGPS            $GPGGA,184409.000,4144.3481,N,06959.5912,W,2,09,0.98,8.9,M,-34.3,M,0000,0000*5A 
13.297          GPS_NMEA_FROM_GPS    iGPS            $GPGGA,184410.000,4144.3481,N,06959.5913,W,2,08,1.02,8.9,M,-34.3,M,0000,0000*50 
14.300          GPS_NMEA_FROM_GPS    iGPS            $GPGGA,184411.000,4144.3481,N,06959.5913,W,2,08,1.02,8.9,M,-34.3,M,0000,0000*51 
15.402          GPS_NMEA_FROM_GPS    iGPS            $GPRMC,184412.000,A,4144.3481,N,06959.5914,W,0.16,242.93,220321,,,D*7B 
16.304          GPS_NMEA_FROM_GPS    iGPS            $GPGGA,184413.000,4144.3481,N,06959.5915,W,2,09,0.98,8.9,M,-34.3,M,0000,0000*56 
17.306          GPS_NMEA_FROM_GPS    iGPS            $GPGGA,184414.000,4144.3481,N,06959.5915,W,2,09,0.98,8.9,M,-34.3,M,0000,0000*51 
18.309          GPS_NMEA_FROM_GPS    iGPS            $GPGGA,184415.000,4144.3480,N,06959.5915,W,2,09,0.98,8.9,M,-34.3,M,0000,0000*51 
19.311          GPS_NMEA_FROM_GPS    iGPS            $GPGGA,184416.000,4144.3480,N,06959.5916,W,2,09,0.98,8.9,M,-34.3,M,0000,0000*51 
20.314          GPS_NMEA_FROM_GPS    iGPS            $GPGGA,184417.000,4144.3480,N,06959.5916,W,2,09,0.98,8.9,M,-34.3,M,0000,0000*50 
21.316          GPS_NMEA_FROM_GPS    iGPS            $GPGGA,184418.000,4144.3480,N,06959.5917,W,2,09,0.98,8.9,M,-34.3,M,0000,0000*5E 
22.318          GPS_NMEA_FROM_GPS    iGPS            $GPGGA,184419.000,4144.3480,N,06959.5917,W,2,09,0.98,8.9,M,-34.3,M,0000,0000*5F 
22.318          GPS_NMEA_FROM_GPS    iGPS            $GPGGA,184419.000,4144.3480,N,06959.5917,W,2,09,0.98,8.9,M,-34.3,M,0000,0000*5F 
23.321          GPS_NMEA_FROM_GPS    iGPS            $GPRMC,184420.000,A,4144.3479,N,06959.5918,W,0.15,232.87,220321,,,D*70 
24.323          GPS_NMEA_FROM_GPS    iGPS            $GPRMC,184421.000,A,4144.3479,N,06959.5918,W,0.17,224.30,220321,,,D*78 
25.326          GPS_NMEA_FROM_GPS    iGPS            $GPGGA,184422.000,4144.3479,N,06959.5919,W,2,09,0.98,8.9,M,-34.3,M,0000,0000*5F 
26.328          GPS_NMEA_FROM_GPS    iGPS            $GPGGA,184423.000,4144.3478,N,06959.5919,W,2,09,0.98,8.9,M,-34.3,M,0000,0000*5F 
27.332          GPS_NMEA_FROM_GPS    iGPS            $GPRMC,184424.000,A,4144.3478,N,06959.5920,W,0.21,235.70,220321,,,D*76 
27.332          GPS_NMEA_FROM_GPS    iGPS            $GPRMC,184424.000,A,4144.3478,N,06959.5920,W,0.21,235.70,220321,,,D*76 
28.334          GPS_NMEA_FROM_GPS    iGPS            $GPRMC,184425.000,A,4144.3478,N,06959.5920,W,0.27,237.28,220321,,,D*7E 
29.336          GPS_NMEA_FROM_GPS    iGPS            $GPGGA,184426.000,4144.3477,N,06959.5921,W,2,09,0.98,8.9,M,-34.3,M,0000,0000*5E 
30.339          GPS_NMEA_FROM_GPS    iGPS            $GPRMC,184427.000,A,4144.3477,N,06959.5922,W,0.23,237.58,220321,,,D*72 
31.341          GPS_NMEA_FROM_GPS    iGPS            $GPRMC,184428.000,A,4144.3477,N,06959.5923,W,0.19,237.10,220321,,,D*79 
32.343          GPS_NMEA_FROM_GPS    iGPS            $GPGGA,184429.000,4144.3476,N,06959.5923,W,2,09,0.98,8.9,M,-34.3,M,0000,0000*52 
33.345          GPS_NMEA_FROM_GPS    iGPS            $GPGGA,184430.000,4144.3476,N,06959.5924,W,2,09,0.98,8.9,M,-34.3,M,0000,0000*5D 
34.348          GPS_NMEA_FROM_GPS    iGPS            $GPGGA,184431.000,4144.3476,N,06959.5924,W,2,09,0.98,8.9,M,-34.3,M,0000,0000*5C 
35.251          GPS_NMEA_FROM_GPS    iGPS            $GPGGA,184432.000,4144.3475,N,06959.5925,W,2,09,0.98,9.0,M,-34.3,M,0000,0000*55 
36.253          GPS_NMEA_FROM_GPS    iGPS            $GPGGA,184433.000,4144.3475,N,06959.5925,W,2,09,0.98,9.0,M,-34.3,M,0000,0000*54 
37.356          GPS_NMEA_FROM_GPS    iGPS            $GPGGA,184434.000,4144.3474,N,06959.5926,W,2,09,0.98,9.0,M,-34.3,M,0000,0000*51 
38.359          GPS_NMEA_FROM_GPS    iGPS            $GPGGA,184435.000,4144.3474,N,06959.5926,W,2,09,0.98,9.0,M,-34.3,M,0000,0000*50 
39.362          GPS_NMEA_FROM_GPS    iGPS            $GPGGA,184436.000,4144.3474,N,06959.5927,W,2,09,0.98,9.1,M,-34.3,M,0000,0000*53 
40.365          GPS_NMEA_FROM_GPS    iGPS            $GPGGA,184437.000,4144.3474,N,06959.5928,W,2,09,0.98,9.1,M,-34.3,M,0000,0000*5D 
41.367          GPS_NMEA_FROM_GPS    iGPS            $GPGGA,184438.000,4144.3473,N,06959.5928,W,2,09,0.98,9.1,M,-34.3,M,0000,0000*55 
42.370          GPS_NMEA_FROM_GPS    iGPS            $GPRMC,184439.000,A,4144.3473,N,06959.5929,W,0.12,262.38,220321,,,D*76 
43.372          GPS_NMEA_FROM_GPS    iGPS            $GPRMC,184440.000,A,4144.3473,N,06959.5929,W,0.10,259.57,220321,,,D*7B 
44.374          GPS_NMEA_FROM_GPS    iGPS            $GPRMC,184441.000,A,4144.3473,N,06959.5929,W,0.04,9.93,220321,,,D*70 
45.376          GPS_NMEA_FROM_GPS    iGPS            $GPRMC,184442.000,A,4144.3473,N,06959.5929,W,0.07,47.23,220321,,,D*41 
46.278          GPS_NMEA_FROM_GPS    iGPS            $GPGGA,184443.000,4144.3473,N,06959.5929,W,2,09,0.98,9.1,M,-34.3,M,0000,0000*58 
47.380          GPS_NMEA_FROM_GPS    iGPS            $GPRMC,184444.000,A,4144.3474,N,06959.5929,W,0.08,57.57,220321,,,D*4D 
48.282          GPS_NMEA_FROM_GPS    iGPS            $GPGGA,184445.000,4144.3474,N,06959.5929,W,2,09,0.98,9.1,M,-34.3,M,0000,0000*59 
49.285          GPS_NMEA_FROM_GPS    iGPS            $GPGGA,184446.000,4144.3474,N,06959.5928,W,2,08,1.02,9.1,M,-34.3,M,0000,0000*58 
50.287          GPS_NMEA_FROM_GPS    iGPS            $GPGGA,184447.000,4144.3474,N,06959.5928,W,2,08,1.02,9.1,M,-34.3,M,0000,0000*59 
51.289          GPS_NMEA_FROM_GPS    iGPS            $GPGGA,184448.000,4144.3474,N,06959.5928,W,2,08,1.02,9.1,M,-34.3,M,0000,0000*56 
52.293          GPS_NMEA_FROM_GPS    iGPS            $GPGGA,184449.000,4144.3474,N,06959.5927,W,2,08,1.02,9.1,M,-34.3,M,0000,0000*58 
53.296          GPS_NMEA_FROM_GPS    iGPS            $GPGGA,184450.000,4144.3474,N,06959.5927,W,2,07,1.18,9.1,M,-34.3,M,0000,0000*54 
54.299          GPS_NMEA_FROM_GPS    iGPS            $GPGGA,184451.000,4144.3474,N,06959.5927,W,2,08,1.04,9.1,M,-34.3,M,0000,0000*57 
55.302          GPS_NMEA_FROM_GPS    iGPS            $GPGGA,184452.000,4144.3474,N,06959.5927,W,2,08,1.04,9.1,M,-34.3,M,0000,0000*54 
56.305          GPS_NMEA_FROM_GPS    iGPS            $GPGGA,184453.000,4144.3474,N,06959.5927,W,2,09,0.99,9.1,M,-34.3,M,0000,0000*51 
57.307          GPS_NMEA_FROM_GPS    iGPS            $GPGGA,184454.000,4144.3474,N,06959.5927,W,2,09,0.99,9.1,M,-34.3,M,0000,0000*56 
58.309          GPS_NMEA_FROM_GPS    iGPS            $GPGGA,184455.000,4144.3474,N,06959.5927,W,2,09,0.99,9.1,M,-34.3,M,0000,0000*57 
59.312          GPS_NMEA_FROM_GPS    iGPS            $GPGGA,184456.000,4144.3474,N,06959.5927,W,2,09,0.99,9.1,M,-34.3,M,0000,0000*54 
60.314          GPS_NMEA_FROM_GPS    iGPS            $GPGGA,184457.000,4144.3474,N,06959.5927,W,2,09,0.99,9.1,M,-34.3,M,0000,0000*55 
61.316          GPS_NMEA_FROM_GPS    iGPS            $GPGGA,184458.000,4144.3474,N,06959.5926,W,2,09,0.99,9.1,M,-34.3,M,0000,0000*5B 
62.319          GPS_NMEA_FROM_GPS    iGPS            $GPRMC,184459.000,A,4144.3474,N,06959.5926,W,0.16,62.27,220321,,,D*40 
63.321          GPS_NMEA_FROM_GPS    iGPS            $GPGGA,184500.000,4144.3475,N,06959.5926,W,2,09,0.99,9.1,M,-34.3,M,0000,0000*56 
64.323          GPS_NMEA_FROM_GPS    iGPS            $GPGGA,184501.000,4144.3475,N,06959.5926,W,2,09,0.99,9.1,M,-34.3,M,0000,0000*57 
65.325          GPS_NMEA_FROM_GPS    iGPS            $GPGGA,184502.000,4144.3475,N,06959.5926,W,2,09,0.99,9.1,M,-34.3,M,0000,0000*54 
66.328          GPS_NMEA_FROM_GPS    iGPS            $GPGGA,184503.000,4144.3475,N,06959.5925,W,2,08,1.04,9.1,M,-34.3,M,0000,0000*52 
67.332          GPS_NMEA_FROM_GPS    iGPS            $GPRMC,184504.000,A,4144.3475,N,06959.5925,W,0.31,67.43,220321,,,D*49 
68.334          GPS_NMEA_FROM_GPS    iGPS            $GPGGA,184505.000,4144.3475,N,06959.5923,W,2,08,1.04,9.2,M,-34.3,M,0000,0000*51 
69.340          GPS_NMEA_FROM_GPS    iGPS            $GPGGA,184506.000,4144.3476,N,06959.5922,W,2,07,1.35,9.2,M,-34.3,M,0000,0000*5D 
70.242          GPS_NMEA_FROM_GPS    iGPS            $GPGGA,184507.000,4144.3476,N,06959.5921,W,2,07,1.18,9.2,M,-34.3,M,0000,0000*50 
71.345          GPS_NMEA_FROM_GPS    iGPS            $GPGGA,184508.000,4144.3476,N,06959.5919,W,2,07,1.18,9.2,M,-34.3,M,0000,0000*54 
72.247          GPS_NMEA_FROM_GPS    iGPS            $GPGGA,184509.000,4144.3476,N,06959.5917,W,2,07,1.18,9.3,M,-34.3,M,0000,0000*5A 
73.249          GPS_NMEA_FROM_GPS    iGPS            $GPGGA,184510.000,4144.3477,N,06959.5915,W,2,07,1.18,9.3,M,-34.3,M,0000,0000*51 
74.252          GPS_NMEA_FROM_GPS    iGPS            $GPGGA,184511.000,4144.3477,N,06959.5913,W,2,07,1.18,9.3,M,-34.3,M,0000,0000*56 
75.257          GPS_NMEA_FROM_GPS    iGPS            $GPGGA,184512.000,4144.3478,N,06959.5909,W,2,07,1.18,9.3,M,-34.3,M,0000,0000*51 
76.360          GPS_NMEA_FROM_GPS    iGPS            $GPGGA,184513.000,4144.3479,N,06959.5906,W,2,07,1.18,9.4,M,-34.3,M,0000,0000*59 
77.263          GPS_NMEA_FROM_GPS    iGPS            $GPGGA,184514.000,4144.3479,N,06959.5903,W,2,07,1.18,9.4,M,-34.3,M,0000,0000*5B 
78.266          GPS_NMEA_FROM_GPS    iGPS            $GPGGA,184515.000,4144.3480,N,06959.5900,W,2,08,1.03,9.5,M,-34.3,M,0000,0000*5B 
79.369          GPS_NMEA_FROM_GPS    iGPS            $GPGGA,184516.000,4144.3480,N,06959.5897,W,2,08,1.03,9.5,M,-34.3,M,0000,0000*57 
80.371          GPS_NMEA_FROM_GPS    iGPS            $GPRMC,184517.000,A,4144.3480,N,06959.5894,W,0.66,93.70,220321,,,D*43 
81.273          GPS_NMEA_FROM_GPS    iGPS            $GPGGA,184518.000,4144.3480,N,06959.5891,W,2,08,1.03,9.6,M,-34.3,M,0000,0000*5C 
82.376          GPS_NMEA_FROM_GPS    iGPS            $GPRMC,184519.000,A,4144.3480,N,06959.5889,W,0.69,98.19,220321,,,D*4A 
83.279          GPS_NMEA_FROM_GPS    iGPS            $GPGGA,184520.000,4144.3480,N,06959.5886,W,2,07,1.18,9.7,M,-34.3,M,0000,0000*55 
84.281          GPS_NMEA_FROM_GPS    iGPS            $GPGGA,184521.000,4144.3480,N,06959.5884,W,2,07,1.18,9.8,M,-34.3,M,0000,0000*59 
85.384          GPS_NMEA_FROM_GPS    iGPS            $GPRMC,184522.000,A,4144.3479,N,06959.5882,W,0.66,106.10,220321,,,D*7F 
86.386          GPS_NMEA_FROM_GPS    iGPS            $GPRMC,184523.000,A,4144.3479,N,06959.5880,W,0.65,108.90,220321,,,D*79 
87.389          GPS_NMEA_FROM_GPS    iGPS            $GPRMC,184524.000,A,4144.3478,N,06959.5877,W,0.69,111.75,220321,,,D*78 
88.392          GPS_NMEA_FROM_GPS    iGPS            $GPRMC,184525.000,A,4144.3478,N,06959.5875,W,0.69,114.39,220321,,,D*76 
89.293          GPS_NMEA_FROM_GPS    iGPS            $GPGGA,184526.000,4144.3477,N,06959.5873,W,2,09,0.98,10.0,M,-34.3,M,0000,0000*69 
90.396          GPS_NMEA_FROM_GPS    iGPS            $GPRMC,184527.000,A,4144.3476,N,06959.5871,W,0.69,119.60,220321,,,D*7F 
91.298          GPS_NMEA_FROM_GPS    iGPS            $GPGGA,184528.000,4144.3475,N,06959.5870,W,2,09,0.98,9.9,M,-34.3,M,0000,0000*57 
92.302          GPS_NMEA_FROM_GPS    iGPS            $GPGGA,184529.000,4144.3474,N,06959.5869,W,2,09,0.98,9.8,M,-34.3,M,0000,0000*5E 
93.303          GPS_NMEA_FROM_GPS    iGPS            $GPGGA,184530.000,4144.3473,N,06959.5868,W,2,09,0.98,9.8,M,-34.3,M,0000,0000*50 
94.306          GPS_NMEA_FROM_GPS    iGPS            $GPGGA,184531.000,4144.3472,N,06959.5866,W,2,09,0.98,9.8,M,-34.3,M,0000,0000*5E 
95.308          GPS_NMEA_FROM_GPS    iGPS            $GPGGA,184532.000,4144.3471,N,06959.5865,W,2,09,0.98,9.8,M,-34.3,M,0000,0000*5D 
96.311          GPS_NMEA_FROM_GPS    iGPS            $GPGGA,184533.000,4144.3469,N,06959.5863,W,2,09,0.98,9.9,M,-34.3,M,0000,0000*52 
97.314          GPS_NMEA_FROM_GPS    iGPS            $GPGGA,184534.000,4144.3468,N,06959.5862,W,2,09,0.98,9.9,M,-34.3,M,0000,0000*55 
98.316          GPS_NMEA_FROM_GPS    iGPS            $GPGGA,184535.000,4144.3466,N,06959.5860,W,2,09,0.98,9.9,M,-34.3,M,0000,0000*58 
99.321          GPS_NMEA_FROM_GPS    iGPS            $GPGGA,184536.000,4144.3465,N,06959.5859,W,2,09,0.99,9.9,M,-34.3,M,0000,0000*53 
100.324         GPS_NMEA_FROM_GPS    iGPS            $GPGGA,184537.000,4144.3463,N,06959.5858,W,2,09,0.99,10.0,M,-34.3,M,0000,0000*64 
101.326         GPS_NMEA_FROM_GPS    iGPS            $GPGGA,184538.000,4144.3462,N,06959.5857,W,2,09,0.99,10.0,M,-34.3,M,0000,0000*65 
102.328         GPS_NMEA_FROM_GPS    iGPS            $GPRMC,184539.000,A,4144.3460,N,06959.5856,W,0.60,156.00,220321,,,D*76 
103.332         GPS_NMEA_FROM_GPS    iGPS            $GPGGA,184540.000,4144.3459,N,06959.5855,W,2,08,1.05,10.1,M,-34.3,M,0000,0000*64 
104.235         GPS_NMEA_FROM_GPS    iGPS            $GPGGA,184541.000,4144.3457,N,06959.5854,W,2,08,1.05,10.2,M,-34.3,M,0000,0000*69 
105.338         GPS_NMEA_FROM_GPS    iGPS            $GPGGA,184542.000,4144.3456,N,06959.5853,W,2,08,1.05,10.3,M,-34.3,M,0000,0000*6D 
106.339         GPS_NMEA_FROM_GPS    iGPS            $GPGGA,184543.000,4144.3455,N,06959.5852,W,2,09,0.99,10.4,M,-34.3,M,0000,0000*6C 
107.342         GPS_NMEA_FROM_GPS    iGPS            $GPGGA,184544.000,4144.3453,N,06959.5852,W,2,09,0.99,10.4,M,-34.3,M,0000,0000*6D 
108.244         GPS_NMEA_FROM_GPS    iGPS            $GPGGA,184545.000,4144.3452,N,06959.5852,W,2,09,0.99,10.4,M,-34.3,M,0000,0000*6D 
109.347         GPS_NMEA_FROM_GPS    iGPS            $GPGGA,184546.000,4144.3450,N,06959.5853,W,2,09,0.99,10.4,M,-34.3,M,0000,0000*6D 
110.249         GPS_NMEA_FROM_GPS    iGPS            $GPGGA,184547.000,4144.3449,N,06959.5853,W,2,09,0.99,10.4,M,-34.3,M,0000,0000*64 
111.352         GPS_NMEA_FROM_GPS    iGPS            $GPGGA,184548.000,4144.3448,N,06959.5854,W,2,08,1.23,10.4,M,-34.3,M,0000,0000*6C 
112.355         GPS_NMEA_FROM_GPS    iGPS            $GPRMC,184549.000,A,4144.3447,N,06959.5856,W,0.59,198.54,220321,,,D*7D 
113.357         GPS_NMEA_FROM_GPS    iGPS            $GPGGA,184550.000,4144.3446,N,06959.5857,W,2,08,1.03,10.5,M,-34.3,M,0000,0000*6B 
114.360         GPS_NMEA_FROM_GPS    iGPS            $GPGGA,184551.000,4144.3446,N,06959.5857,W,2,08,1.05,10.5,M,-34.3,M,0000,0000*6C 
115.362         GPS_NMEA_FROM_GPS    iGPS            $GPRMC,184552.000,A,4144.3446,N,06959.5859,W,0.50,221.13,220321,,,D*72 
116.264         GPS_NMEA_FROM_GPS    iGPS            $GPGGA,184553.000,4144.3446,N,06959.5860,W,2,08,1.05,10.6,M,-34.3,M,0000,0000*69 
117.266         GPS_NMEA_FROM_GPS    iGPS            $GPGGA,184554.000,4144.3447,N,06959.5862,W,2,08,1.05,10.6,M,-34.3,M,0000,0000*6D 
118.368         GPS_NMEA_FROM_GPS    iGPS            $GPGGA,184555.000,4144.3447,N,06959.5863,W,2,09,0.99,10.7,M,-34.3,M,0000,0000*69 
119.271         GPS_NMEA_FROM_GPS    iGPS            $GPGGA,184556.000,4144.3447,N,06959.5865,W,2,08,1.04,10.7,M,-34.3,M,0000,0000*68 
120.274         GPS_NMEA_FROM_GPS    iGPS            $GPGGA,184557.000,4144.3447,N,06959.5867,W,2,07,1.36,10.7,M,-34.3,M,0000,0000*65 
121.276         GPS_NMEA_FROM_GPS    iGPS            $GPGGA,184558.000,4144.3448,N,06959.5869,W,2,07,1.36,10.7,M,-34.3,M,0000,0000*6B 
122.378         GPS_NMEA_FROM_GPS    iGPS            $GPGGA,184559.000,4144.3448,N,06959.5871,W,2,09,0.99,10.6,M,-34.3,M,0000,0000*68 
123.381         GPS_NMEA_FROM_GPS    iGPS            $GPRMC,184600.000,A,4144.3448,N,06959.5873,W,0.51,277.22,220321,,,D*70 
124.383         GPS_NMEA_FROM_GPS    iGPS            $GPGGA,184601.000,4144.3449,N,06959.5875,W,2,09,0.99,10.6,M,-34.3,M,0000,0000*63 
125.386         GPS_NMEA_FROM_GPS    iGPS            $GPGGA,184602.000,4144.3450,N,06959.5876,W,2,09,0.99,10.6,M,-34.3,M,0000,0000*6B 
126.388         GPS_NMEA_FROM_GPS    iGPS            $GPRMC,184603.000,A,4144.3451,N,06959.5877,W,0.48,301.16,220321,,,D*70 
127.390         GPS_NMEA_FROM_GPS    iGPS            $GPGGA,184604.000,4144.3452,N,06959.5878,W,2,09,0.98,10.7,M,-34.3,M,0000,0000*61 
128.293         GPS_NMEA_FROM_GPS    iGPS            $GPGGA,184605.000,4144.3453,N,06959.5878,W,2,08,1.05,10.7,M,-34.3,M,0000,0000*65 
129.295         GPS_NMEA_FROM_GPS    iGPS            $GPGGA,184606.000,4144.3455,N,06959.5878,W,2,08,1.05,10.7,M,-34.3,M,0000,0000*60 
130.398         GPS_NMEA_FROM_GPS    iGPS            $GPRMC,184607.000,A,4144.3456,N,06959.5878,W,0.51,343.85,220321,,,D*78 
131.300         GPS_NMEA_FROM_GPS    iGPS            $GPGGA,184608.000,4144.3458,N,06959.5878,W,2,09,0.99,10.8,M,-34.3,M,0000,0000*69 
132.305         GPS_NMEA_FROM_GPS    iGPS            $GPGGA,184609.000,4144.3459,N,06959.5878,W,2,08,1.05,10.8,M,-34.3,M,0000,0000*6C 
133.307         GPS_NMEA_FROM_GPS    iGPS            $GPGGA,184610.000,4144.3460,N,06959.5877,W,2,08,1.03,10.8,M,-34.3,M,0000,0000*67 
134.310         GPS_NMEA_FROM_GPS    iGPS            $GPRMC,184611.000,A,4144.3462,N,06959.5876,W,0.57,12.40,220321,,,D*4E 
135.312         GPS_NMEA_FROM_GPS    iGPS            $GPGGA,184612.000,4144.3463,N,06959.5875,W,2,08,1.04,10.9,M,-34.3,M,0000,0000*62 
136.315         GPS_NMEA_FROM_GPS    iGPS            $GPGGA,184613.000,4144.3465,N,06959.5874,W,2,07,1.36,10.9,M,-34.3,M,0000,0000*6A 
137.317         GPS_NMEA_FROM_GPS    iGPS            $GPGGA,184614.000,4144.3466,N,06959.5873,W,2,08,1.04,11.0,M,-34.3,M,0000,0000*6F 
138.320         GPS_NMEA_FROM_GPS    iGPS            $GPGGA,184615.000,4144.3467,N,06959.5871,W,2,09,0.99,11.0,M,-34.3,M,0000,0000*69 
139.324         GPS_NMEA_FROM_GPS    iGPS            $GPGGA,184616.000,4144.3468,N,06959.5870,W,2,09,0.99,11.0,M,-34.3,M,0000,0000*64 
140.326         GPS_NMEA_FROM_GPS    iGPS            $GPGGA,184617.000,4144.3469,N,06959.5867,W,2,09,0.99,11.2,M,-34.3,M,0000,0000*60 
141.328         GPS_NMEA_FROM_GPS    iGPS            $GPGGA,184618.000,4144.3470,N,06959.5864,W,2,09,0.99,11.4,M,-34.3,M,0000,0000*62 
142.331         GPS_NMEA_FROM_GPS    iGPS            $GPGGA,184619.000,4144.3471,N,06959.5861,W,2,09,0.99,11.5,M,-34.3,M,0000,0000*66 
143.333         GPS_NMEA_FROM_GPS    iGPS            $GPGGA,184620.000,4144.3472,N,06959.5858,W,2,09,0.99,11.5,M,-34.3,M,0000,0000*65 
144.235         GPS_NMEA_FROM_GPS    iGPS            $GPGGA,184621.000,4144.3473,N,06959.5855,W,2,08,1.05,11.5,M,-34.3,M,0000,0000*6D 
145.338         GPS_NMEA_FROM_GPS    iGPS            $GPGGA,184622.000,4144.3473,N,06959.5852,W,2,07,1.18,11.5,M,-34.3,M,0000,0000*6A 
146.340         GPS_NMEA_FROM_GPS    iGPS            $GPGGA,184623.000,4144.3474,N,06959.5849,W,2,08,1.03,11.5,M,-34.3,M,0000,0000*63 
147.342         GPS_NMEA_FROM_GPS    iGPS            $GPGGA,184624.000,4144.3474,N,06959.5846,W,2,08,1.05,11.4,M,-34.3,M,0000,0000*6C 
148.345         GPS_NMEA_FROM_GPS    iGPS            $GPGGA,184625.000,4144.3474,N,06959.5844,W,2,08,1.03,11.4,M,-34.3,M,0000,0000*69 
149.347         GPS_NMEA_FROM_GPS    iGPS            $GPGGA,184626.000,4144.3474,N,06959.5842,W,2,09,0.99,11.4,M,-34.3,M,0000,0000*6F 
150.349         GPS_NMEA_FROM_GPS    iGPS            $GPGGA,184627.000,4144.3474,N,06959.5840,W,2,09,0.99,11.3,M,-34.3,M,0000,0000*6B 
151.352         GPS_NMEA_FROM_GPS    iGPS            $GPGGA,184628.000,4144.3473,N,06959.5837,W,2,09,0.99,11.3,M,-34.3,M,0000,0000*63 
152.355         GPS_NMEA_FROM_GPS    iGPS            $GPGGA,184629.000,4144.3473,N,06959.5835,W,2,09,0.99,11.2,M,-34.3,M,0000,0000*61 
153.357         GPS_NMEA_FROM_GPS    iGPS            $GPGGA,184630.000,4144.3473,N,06959.5833,W,2,09,0.99,11.2,M,-34.3,M,0000,0000*6F 
154.360         GPS_NMEA_FROM_GPS    iGPS            $GPRMC,184631.000,A,4144.3473,N,06959.5831,W,0.62,102.27,220321,,,D*78 
155.261         GPS_NMEA_FROM_GPS    iGPS            $GPGGA,184632.000,4144.3472,N,06959.5829,W,2,09,0.99,11.1,M,-34.3,M,0000,0000*64 
156.364         GPS_NMEA_FROM_GPS    iGPS            $GPGGA,184633.000,4144.3471,N,06959.5828,W,2,09,0.99,11.1,M,-34.3,M,0000,0000*67 
157.266         GPS_NMEA_FROM_GPS    iGPS            $GPGGA,184634.000,4144.3471,N,06959.5826,W,2,09,0.99,11.0,M,-34.3,M,0000,0000*6F 
158.268         GPS_NMEA_FROM_GPS    iGPS            $GPGGA,184635.000,4144.3470,N,06959.5824,W,2,09,0.99,11.0,M,-34.3,M,0000,0000*6D 
159.371         GPS_NMEA_FROM_GPS    iGPS            $GPRMC,184636.000,A,4144.3469,N,06959.5822,W,0.67,114.36,220321,,,D*74 
160.273         GPS_NMEA_FROM_GPS    iGPS            $GPGGA,184637.000,4144.3468,N,06959.5820,W,2,09,0.99,11.0,M,-34.3,M,0000,0000*62 
161.376         GPS_NMEA_FROM_GPS    iGPS            $GPRMC,184638.000,A,4144.3467,N,06959.5819,W,0.65,120.27,220321,,,D*79 
162.278         GPS_NMEA_FROM_GPS    iGPS            $GPGGA,184639.000,4144.3466,N,06959.5817,W,2,09,0.99,10.9,M,-34.3,M,0000,0000*6E 
163.380         GPS_NMEA_FROM_GPS    iGPS            $GPRMC,184640.000,A,4144.3465,N,06959.5815,W,0.63,124.21,220321,,,D*7C 
164.382         GPS_NMEA_FROM_GPS    iGPS            $GPGGA,184641.000,4144.3464,N,06959.5814,W,2,09,0.99,10.9,M,-34.3,M,0000,0000*60 
165.285         GPS_NMEA_FROM_GPS    iGPS            $GPGGA,184642.000,4144.3462,N,06959.5813,W,2,09,0.99,11.0,M,-34.3,M,0000,0000*6A 
166.388         GPS_NMEA_FROM_GPS    iGPS            $GPRMC,184643.000,A,4144.3461,N,06959.5812,W,0.63,132.05,220321,,,D*7D 
167.390         GPS_NMEA_FROM_GPS    iGPS            $GPRMC,184644.000,A,4144.3459,N,06959.5811,W,0.63,134.52,220321,,,D*76 
168.292         GPS_NMEA_FROM_GPS    iGPS            $GPGGA,184645.000,4144.3457,N,06959.5810,W,2,09,0.99,11.2,M,-34.3,M,0000,0000*6A 
169.394         GPS_NMEA_FROM_GPS    iGPS            $GPGGA,184646.000,4144.3455,N,06959.5809,W,2,09,0.99,11.3,M,-34.3,M,0000,0000*62 
170.397         GPS_NMEA_FROM_GPS    iGPS            $GPRMC,184647.000,A,4144.3454,N,06959.5808,W,0.66,148.64,220321,,,D*7B 
171.299         GPS_NMEA_FROM_GPS    iGPS            $GPGGA,184648.000,4144.3452,N,06959.5807,W,2,08,1.06,11.5,M,-34.3,M,0000,0000*65 
172.301         GPS_NMEA_FROM_GPS    iGPS            $GPGGA,184649.000,4144.3450,N,06959.5806,W,2,08,1.06,11.5,M,-34.3,M,0000,0000*67 
173.303         GPS_NMEA_FROM_GPS    iGPS            $GPGGA,184650.000,4144.3448,N,06959.5805,W,2,08,1.06,11.4,M,-34.3,M,0000,0000*64 
174.406         GPS_NMEA_FROM_GPS    iGPS            $GPRMC,184651.000,A,4144.3446,N,06959.5805,W,0.67,161.90,220321,,,D*73 
175.308         GPS_NMEA_FROM_GPS    iGPS            $GPGGA,184652.000,4144.3444,N,06959.5804,W,2,08,1.03,11.6,M,-34.3,M,0000,0000*6C 
176.310         GPS_NMEA_FROM_GPS    iGPS            $GPGGA,184653.000,4144.3442,N,06959.5804,W,2,07,1.27,11.6,M,-34.3,M,0000,0000*62 
177.312         GPS_NMEA_FROM_GPS    iGPS            $GPGGA,184654.000,4144.3440,N,06959.5804,W,2,07,1.19,11.7,M,-34.3,M,0000,0000*6B 
178.314         GPS_NMEA_FROM_GPS    iGPS            $GPGGA,184655.000,4144.3438,N,06959.5805,W,2,07,1.19,11.8,M,-34.3,M,0000,0000*6B 
179.316         GPS_NMEA_FROM_GPS    iGPS            $GPGGA,184656.000,4144.3436,N,06959.5805,W,2,08,1.06,11.9,M,-34.3,M,0000,0000*66 
180.320         GPS_NMEA_FROM_GPS    iGPS            $GPRMC,184657.000,A,4144.3434,N,06959.5806,W,0.65,180.64,220321,,,D*75 
181.321         GPS_NMEA_FROM_GPS    iGPS            $GPGGA,184658.000,4144.3432,N,06959.5807,W,2,08,1.06,12.0,M,-34.3,M,0000,0000*64 
182.324         GPS_NMEA_FROM_GPS    iGPS            $GPGGA,184659.000,4144.3431,N,06959.5808,W,2,08,1.06,12.0,M,-34.3,M,0000,0000*69 
183.326         GPS_NMEA_FROM_GPS    iGPS            $GPGGA,184700.000,4144.3429,N,06959.5809,W,2,08,1.03,12.0,M,-34.3,M,0000,0000*69 
184.328         GPS_NMEA_FROM_GPS    iGPS            $GPGGA,184701.000,4144.3428,N,06959.5811,W,2,08,1.03,12.0,M,-34.3,M,0000,0000*60 
185.331         GPS_NMEA_FROM_GPS    iGPS            $GPGGA,184702.000,4144.3426,N,06959.5812,W,2,08,1.04,12.1,M,-34.3,M,0000,0000*68 
186.233         GPS_NMEA_FROM_GPS    iGPS            $GPGGA,184703.000,4144.3425,N,06959.5814,W,2,07,1.36,12.2,M,-34.3,M,0000,0000*61 
187.335         GPS_NMEA_FROM_GPS    iGPS            $GPRMC,184704.000,A,4144.3424,N,06959.5816,W,0.60,220.70,220321,,,D*7B 
188.338         GPS_NMEA_FROM_GPS    iGPS            $GPGGA,184705.000,4144.3424,N,06959.5818,W,2,08,1.04,12.3,M,-34.3,M,0000,0000*65 
189.340         GPS_NMEA_FROM_GPS    iGPS            $GPGGA,184706.000,4144.3423,N,06959.5819,W,2,08,1.04,12.4,M,-34.3,M,0000,0000*67 
190.342         GPS_NMEA_FROM_GPS    iGPS            $GPGGA,184707.000,4144.3423,N,06959.5821,W,2,08,1.04,12.4,M,-34.3,M,0000,0000*6D 
191.345         GPS_NMEA_FROM_GPS    iGPS            $GPGGA,184708.000,4144.3423,N,06959.5822,W,2,08,1.03,12.5,M,-34.3,M,0000,0000*67 
192.347         GPS_NMEA_FROM_GPS    iGPS            $GPGGA,184709.000,4144.3423,N,06959.5824,W,2,08,1.04,12.6,M,-34.3,M,0000,0000*64 
193.349         GPS_NMEA_FROM_GPS    iGPS            $GPGGA,184710.000,4144.3424,N,06959.5826,W,2,07,1.37,12.6,M,-34.3,M,0000,0000*66 
194.352         GPS_NMEA_FROM_GPS    iGPS            $GPGGA,184711.000,4144.3424,N,06959.5827,W,2,07,1.37,12.5,M,-34.3,M,0000,0000*65 
195.254         GPS_NMEA_FROM_GPS    iGPS            $GPGGA,184712.000,4144.3424,N,06959.5829,W,2,07,1.37,12.6,M,-34.3,M,0000,0000*6B 
196.357         GPS_NMEA_FROM_GPS    iGPS            $GPGGA,184713.000,4144.3425,N,06959.5831,W,2,07,1.37,12.6,M,-34.3,M,0000,0000*62 
197.359         GPS_NMEA_FROM_GPS    iGPS            $GPGGA,184714.000,4144.3425,N,06959.5833,W,2,08,1.04,12.6,M,-34.3,M,0000,0000*68 
198.361         GPS_NMEA_FROM_GPS    iGPS            $GPRMC,184715.000,A,4144.3425,N,06959.5834,W,0.46,275.81,220321,,,D*70 
199.364         GPS_NMEA_FROM_GPS    iGPS            $GPGGA,184716.000,4144.3425,N,06959.5836,W,2,09,1.00,12.6,M,-34.3,M,0000,0000*6A 
200.266         GPS_NMEA_FROM_GPS    iGPS            $GPGGA,184717.000,4144.3426,N,06959.5837,W,2,08,1.05,12.6,M,-34.3,M,0000,0000*6D 
201.269         GPS_NMEA_FROM_GPS    iGPS            $GPGGA,184718.000,4144.3427,N,06959.5839,W,2,08,1.05,12.6,M,-34.3,M,0000,0000*6D 
202.271         GPS_NMEA_FROM_GPS    iGPS            $GPGGA,184719.000,4144.3427,N,06959.5840,W,2,09,1.00,12.6,M,-34.3,M,0000,0000*66 
203.374         GPS_NMEA_FROM_GPS    iGPS            $GPGGA,184720.000,4144.3428,N,06959.5841,W,2,09,1.00,12.7,M,-34.3,M,0000,0000*63 
204.276         GPS_NMEA_FROM_GPS    iGPS            $GPGGA,184721.000,4144.3429,N,06959.5842,W,2,08,1.06,12.7,M,-34.3,M,0000,0000*67 
205.278         GPS_NMEA_FROM_GPS    iGPS            $GPGGA,184722.000,4144.3430,N,06959.5843,W,2,08,1.06,12.7,M,-34.3,M,0000,0000*6D 
206.383         GPS_NMEA_FROM_GPS    iGPS            $GPRMC,184723.000,A,4144.3431,N,06959.5843,W,0.50,323.75,220321,,,D*7E 
207.285         GPS_NMEA_FROM_GPS    iGPS            $GPGGA,184724.000,4144.3433,N,06959.5844,W,2,08,1.04,12.8,M,-34.3,M,0000,0000*62 
208.287         GPS_NMEA_FROM_GPS    iGPS            $GPGGA,184725.000,4144.3434,N,06959.5844,W,2,09,1.00,12.8,M,-34.3,M,0000,0000*61 
209.390         GPS_NMEA_FROM_GPS    iGPS            $GPGGA,184726.000,4144.3435,N,06959.5844,W,2,09,1.00,12.8,M,-34.3,M,0000,0000*63 
210.292         GPS_NMEA_FROM_GPS    iGPS            $GPGGA,184727.000,4144.3436,N,06959.5844,W,2,09,1.00,12.8,M,-34.3,M,0000,0000*61 
211.295         GPS_NMEA_FROM_GPS    iGPS            $GPGGA,184728.000,4144.3438,N,06959.5844,W,2,08,1.06,12.8,M,-34.3,M,0000,0000*67 
212.398         GPS_NMEA_FROM_GPS    iGPS            $GPRMC,184729.000,A,4144.3439,N,06959.5844,W,0.45,358.18,220321,,,D*78 
213.300         GPS_NMEA_FROM_GPS    iGPS            $GPGGA,184730.000,4144.3440,N,06959.5843,W,2,08,1.06,12.9,M,-34.3,M,0000,0000*67 
214.302         GPS_NMEA_FROM_GPS    iGPS            $GPGGA,184731.000,4144.3441,N,06959.5843,W,2,08,1.06,12.9,M,-34.3,M,0000,0000*67 
215.304         GPS_NMEA_FROM_GPS    iGPS            $GPGGA,184732.000,4144.3442,N,06959.5842,W,2,08,1.06,12.9,M,-34.3,M,0000,0000*66 
216.306         GPS_NMEA_FROM_GPS    iGPS            $GPRMC,184733.000,A,4144.3444,N,06959.5841,W,0.52,20.03,220321,,,D*4C 
217.309         GPS_NMEA_FROM_GPS    iGPS            $GPGGA,184734.000,4144.3445,N,06959.5840,W,2,08,1.05,13.0,M,-34.3,M,0000,0000*6E 
218.311         GPS_NMEA_FROM_GPS    iGPS            $GPGGA,184735.000,4144.3446,N,06959.5839,W,2,08,1.05,13.0,M,-34.3,M,0000,0000*62 
219.313         GPS_NMEA_FROM_GPS    iGPS            $GPGGA,184736.000,4144.3447,N,06959.5837,W,2,08,1.05,13.1,M,-34.3,M,0000,0000*6F 
220.315         GPS_NMEA_FROM_GPS    iGPS            $GPGGA,184737.000,4144.3448,N,06959.5834,W,2,09,1.00,13.2,M,-34.3,M,0000,0000*65 
221.318         GPS_NMEA_FROM_GPS    iGPS            $GPGGA,184738.000,4144.3449,N,06959.5831,W,2,09,1.00,13.3,M,-34.3,M,0000,0000*6F 
222.421         GPS_NMEA_FROM_GPS    iGPS            $GPRMC,184739.000,A,4144.3451,N,06959.5827,W,0.64,50.25,220321,,,D*44 
223.323         GPS_NMEA_FROM_GPS    iGPS            $GPGGA,184740.000,4144.3452,N,06959.5823,W,2,09,1.00,13.6,M,-34.3,M,0000,0000*6C 
224.325         GPS_NMEA_FROM_GPS    iGPS            $GPGGA,184741.000,4144.3454,N,06959.5819,W,2,09,1.00,13.8,M,-34.3,M,0000,0000*6C 
225.327         GPS_NMEA_FROM_GPS    iGPS            $GPGGA,184742.000,4144.3454,N,06959.5816,W,2,09,1.00,13.9,M,-34.3,M,0000,0000*61 
226.330         GPS_NMEA_FROM_GPS    iGPS            $GPGGA,184743.000,4144.3456,N,06959.5814,W,2,09,1.00,14.0,M,-34.3,M,0000,0000*6E 
227.332         GPS_NMEA_FROM_GPS    iGPS            $GPGGA,184744.000,4144.3456,N,06959.5810,W,2,09,1.00,14.1,M,-34.3,M,0000,0000*6C 
228.336         GPS_NMEA_FROM_GPS    iGPS            $GPGGA,184745.000,4144.3457,N,06959.5807,W,2,08,1.06,14.1,M,-34.3,M,0000,0000*6D 
229.339         GPS_NMEA_FROM_GPS    iGPS            $GPRMC,184746.000,A,4144.3458,N,06959.5804,W,0.65,66.08,220321,,,D*4F 
230.341         GPS_NMEA_FROM_GPS    iGPS            $GPGGA,184747.000,4144.3458,N,06959.5800,W,2,07,1.37,13.9,M,-34.3,M,0000,0000*65 
231.243         GPS_NMEA_FROM_GPS    iGPS            $GPGGA,184748.000,4144.3457,N,06959.5797,W,2,07,1.37,13.9,M,-34.3,M,0000,0000*64 
232.345         GPS_NMEA_FROM_GPS    iGPS            $GPGGA,184749.000,4144.3457,N,06959.5795,W,2,08,1.06,13.7,M,-34.3,M,0000,0000*64 
233.348         GPS_NMEA_FROM_GPS    iGPS            $GPGGA,184750.000,4144.3457,N,06959.5793,W,2,08,1.04,13.5,M,-34.3,M,0000,0000*6A 
234.350         GPS_NMEA_FROM_GPS    iGPS            $GPGGA,184751.000,4144.3457,N,06959.5791,W,2,09,0.99,13.2,M,-34.3,M,0000,0000*6A 
235.252         GPS_NMEA_FROM_GPS    iGPS            $GPGGA,184752.000,4144.3457,N,06959.5789,W,2,09,1.00,13.1,M,-34.3,M,0000,0000*62 
236.355         GPS_NMEA_FROM_GPS    iGPS            $GPGGA,184753.000,4144.3457,N,06959.5788,W,2,09,0.99,12.9,M,-34.3,M,0000,0000*6A 
237.257         GPS_NMEA_FROM_GPS    iGPS            $GPGGA,184754.000,4144.3456,N,06959.5786,W,2,09,0.99,12.8,M,-34.3,M,0000,0000*63 
238.360         GPS_NMEA_FROM_GPS    iGPS            $GPGGA,184755.000,4144.3456,N,06959.5784,W,2,09,1.00,12.8,M,-34.3,M,0000,0000*61 
239.363         GPS_NMEA_FROM_GPS    iGPS            $GPGGA,184756.000,4144.3455,N,06959.5783,W,2,09,0.99,12.7,M,-34.3,M,0000,0000*68 
240.265         GPS_NMEA_FROM_GPS    iGPS            $GPGGA,184757.000,4144.3454,N,06959.5781,W,2,09,0.99,12.7,M,-34.3,M,0000,0000*6A 
241.368         GPS_NMEA_FROM_GPS    iGPS            $GPRMC,184758.000,A,4144.3454,N,06959.5779,W,0.61,108.96,220321,,,D*73 
242.371         GPS_NMEA_FROM_GPS    iGPS            $GPRMC,184759.000,A,4144.3453,N,06959.5778,W,0.62,111.49,220321,,,D*7D 
243.373         GPS_NMEA_FROM_GPS    iGPS            $GPGGA,184800.000,4144.3451,N,06959.5777,W,2,09,0.99,12.5,M,-34.3,M,0000,0000*69 
244.375         GPS_NMEA_FROM_GPS    iGPS            $GPGGA,184801.000,4144.3451,N,06959.5775,W,2,09,0.99,12.4,M,-34.3,M,0000,0000*6B 
245.377         GPS_NMEA_FROM_GPS    iGPS            $GPGGA,184802.000,4144.3450,N,06959.5774,W,2,09,0.99,12.3,M,-34.3,M,0000,0000*6F 
246.280         GPS_NMEA_FROM_GPS    iGPS            $GPGGA,184803.000,4144.3449,N,06959.5772,W,2,09,0.99,12.1,M,-34.3,M,0000,0000*62 
247.382         GPS_NMEA_FROM_GPS    iGPS            $GPRMC,184804.000,A,4144.3448,N,06959.5770,W,0.64,116.37,220321,,,D*70 
248.284         GPS_NMEA_FROM_GPS    iGPS            $GPGGA,184805.000,4144.3448,N,06959.5769,W,2,09,0.99,11.8,M,-34.3,M,0000,0000*65 
249.287         GPS_NMEA_FROM_GPS    iGPS            $GPGGA,184806.000,4144.3447,N,06959.5768,W,2,09,0.99,11.7,M,-34.3,M,0000,0000*67 
250.388         GPS_NMEA_FROM_GPS    iGPS            $GPRMC,184807.000,A,4144.3446,N,06959.5766,W,0.60,121.03,220321,,,D*7D 
251.390         GPS_NMEA_FROM_GPS    iGPS            $GPRMC,184808.000,A,4144.3445,N,06959.5765,W,0.58,122.73,220321,,,D*7D 
252.292         GPS_NMEA_FROM_GPS    iGPS            $GPGGA,184809.000,4144.3444,N,06959.5764,W,2,08,1.24,11.3,M,-34.3,M,0000,0000*65 
253.394         GPS_NMEA_FROM_GPS    iGPS            $GPRMC,184810.000,A,4144.3443,N,06959.5763,W,0.61,130.36,220321,,,D*7C 
254.397         GPS_NMEA_FROM_GPS    iGPS            $GPRMC,184811.000,A,4144.3442,N,06959.5762,W,0.59,133.71,220321,,,D*76 
255.399         GPS_NMEA_FROM_GPS    iGPS            $GPRMC,184812.000,A,4144.3440,N,06959.5762,W,0.62,137.42,220321,,,D*7B 
256.401         GPS_NMEA_FROM_GPS    iGPS            $GPGGA,184813.000,4144.3439,N,06959.5761,W,2,09,1.00,11.3,M,-34.3,M,0000,0000*66 
257.403         GPS_NMEA_FROM_GPS    iGPS            $GPRMC,184814.000,A,4144.3437,N,06959.5760,W,0.64,144.23,220321,,,D*7A 
258.405         GPS_NMEA_FROM_GPS    iGPS            $GPRMC,184815.000,A,4144.3436,N,06959.5759,W,0.54,143.66,220321,,,D*75 
259.408         GPS_NMEA_FROM_GPS    iGPS            $GPRMC,184816.000,A,4144.3434,N,06959.5758,W,0.57,142.82,220321,,,D*7D 
260.409         GPS_NMEA_FROM_GPS    iGPS            $GPRMC,184817.000,A,4144.3433,N,06959.5757,W,0.54,142.28,220321,,,D*77 
261.311         GPS_NMEA_FROM_GPS    iGPS            $GPGGA,184818.000,4144.3431,N,06959.5755,W,2,09,1.00,11.3,M,-34.3,M,0000,0000*62 
262.314         GPS_NMEA_FROM_GPS    iGPS            $GPGGA,184819.000,4144.3430,N,06959.5754,W,2,09,1.00,11.3,M,-34.3,M,0000,0000*63 
263.318         GPS_NMEA_FROM_GPS    iGPS            $GPGGA,184820.000,4144.3429,N,06959.5753,W,2,09,1.00,11.3,M,-34.3,M,0000,0000*66 
264.421         GPS_NMEA_FROM_GPS    iGPS            $GPRMC,184821.000,A,4144.3428,N,06959.5752,W,0.52,145.25,220321,,,D*71 
265.323         GPS_NMEA_FROM_GPS    iGPS            $GPGGA,184822.000,4144.3427,N,06959.5751,W,2,09,1.00,11.3,M,-34.3,M,0000,0000*68 
266.326         GPS_NMEA_FROM_GPS    iGPS            $GPRMC,184823.000,A,4144.3425,N,06959.5750,W,0.54,151.64,220321,,,D*7A 
267.329         GPS_NMEA_FROM_GPS    iGPS            $GPRMC,184824.000,A,4144.3424,N,06959.5749,W,0.57,154.45,220321,,,D*71 
268.332         GPS_NMEA_FROM_GPS    iGPS            $GPGGA,184825.000,4144.3422,N,06959.5749,W,2,09,1.00,11.2,M,-34.3,M,0000,0000*62 
269.335         GPS_NMEA_FROM_GPS    iGPS            $GPGGA,184826.000,4144.3420,N,06959.5748,W,2,09,1.00,11.2,M,-34.3,M,0000,0000*62 
270.337         GPS_NMEA_FROM_GPS    iGPS            $GPRMC,184827.000,A,4144.3418,N,06959.5748,W,0.56,160.09,220321,,,D*72 
271.339         GPS_NMEA_FROM_GPS    iGPS            $GPGGA,184828.000,4144.3416,N,06959.5746,W,2,09,0.99,11.3,M,-34.3,M,0000,0000*67 
272.341         GPS_NMEA_FROM_GPS    iGPS            $GPGGA,184829.000,4144.3415,N,06959.5745,W,2,08,1.24,11.3,M,-34.3,M,0000,0000*60 
273.244         GPS_NMEA_FROM_GPS    iGPS            $GPGGA,184830.000,4144.3414,N,06959.5745,W,2,07,1.85,11.2,M,-34.3,M,0000,0000*6C 
274.347         GPS_NMEA_FROM_GPS    iGPS            $GPRMC,184831.000,A,4144.3412,N,06959.5744,W,0.48,158.70,220321,,,D*79 
275.349         GPS_NMEA_FROM_GPS    iGPS            $GPRMC,184832.000,A,4144.3411,N,06959.5744,W,0.48,159.96,220321,,,D*70 
276.351         GPS_NMEA_FROM_GPS    iGPS            $GPGGA,184833.000,4144.3410,N,06959.5743,W,2,08,1.24,11.2,M,-34.3,M,0000,0000*69 
277.254         GPS_NMEA_FROM_GPS    iGPS            $GPGGA,184834.000,4144.3408,N,06959.5743,W,2,09,0.91,11.2,M,-34.3,M,0000,0000*69 
278.357         GPS_NMEA_FROM_GPS    iGPS            $GPGGA,184835.000,4144.3406,N,06959.5744,W,2,09,0.91,11.1,M,-34.3,M,0000,0000*62 
279.359         GPS_NMEA_FROM_GPS    iGPS            $GPRMC,184836.000,A,4144.3405,N,06959.5744,W,0.65,181.26,220321,,,D*70 
280.363         GPS_NMEA_FROM_GPS    iGPS            $GPGGA,184837.000,4144.3403,N,06959.5745,W,2,10,0.84,11.0,M,-34.3,M,0000,0000*69 
281.365         GPS_NMEA_FROM_GPS    iGPS            $GPGGA,184838.000,4144.3401,N,06959.5746,W,2,09,0.94,10.9,M,-34.3,M,0000,0000*66 
282.368         GPS_NMEA_FROM_GPS    iGPS            $GPRMC,184839.000,A,4144.3400,N,06959.5746,W,0.58,189.38,220321,,,D*71 
283.269         GPS_NMEA_FROM_GPS    iGPS            $GPGGA,184840.000,4144.3398,N,06959.5747,W,2,08,1.07,10.9,M,-34.3,M,0000,0000*65 
284.272         GPS_NMEA_FROM_GPS    iGPS            $GPGGA,184841.000,4144.3397,N,06959.5748,W,2,09,1.00,10.9,M,-34.3,M,0000,0000*62 
285.374         GPS_NMEA_FROM_GPS    iGPS            $GPGGA,184842.000,4144.3396,N,06959.5749,W,2,09,1.00,10.9,M,-34.3,M,0000,0000*61 
286.277         GPS_NMEA_FROM_GPS    iGPS            $GPGGA,184843.000,4144.3395,N,06959.5749,W,2,09,1.00,10.9,M,-34.3,M,0000,0000*63 
287.279         GPS_NMEA_FROM_GPS    iGPS            $GPGGA,184844.000,4144.3394,N,06959.5750,W,2,09,1.00,10.9,M,-34.3,M,0000,0000*6D 
288.281         GPS_NMEA_FROM_GPS    iGPS            $GPGGA,184845.000,4144.3393,N,06959.5751,W,2,09,1.00,10.9,M,-34.3,M,0000,0000*6A 
289.384         GPS_NMEA_FROM_GPS    iGPS            $GPRMC,184846.000,A,4144.3392,N,06959.5753,W,0.59,212.60,220321,,,D*7C 
290.286         GPS_NMEA_FROM_GPS    iGPS            $GPGGA,184847.000,4144.3391,N,06959.5755,W,2,09,1.00,10.9,M,-34.3,M,0000,0000*6E 
291.289         GPS_NMEA_FROM_GPS    iGPS            $GPGGA,184848.000,4144.3390,N,06959.5756,W,2,08,1.07,11.0,M,-34.3,M,0000,0000*6D 
292.392         GPS_NMEA_FROM_GPS    iGPS            $GPRMC,184849.000,A,4144.3390,N,06959.5758,W,0.63,224.91,220321,,,D*78 
293.294         GPS_NMEA_FROM_GPS    iGPS            $GPGGA,184850.000,4144.3389,N,06959.5760,W,2,09,1.00,11.0,M,-34.3,M,0000,0000*6F 
294.397         GPS_NMEA_FROM_GPS    iGPS            $GPRMC,184851.000,A,4144.3389,N,06959.5761,W,0.59,232.72,220321,,,D*70 
295.400         GPS_NMEA_FROM_GPS    iGPS            $GPRMC,184852.000,A,4144.3389,N,06959.5763,W,0.61,237.59,220321,,,D*76 
296.402         GPS_NMEA_FROM_GPS    iGPS            $GPRMC,184853.000,A,4144.3389,N,06959.5765,W,0.62,242.80,220321,,,D*74 
297.404         GPS_NMEA_FROM_GPS    iGPS            $GPRMC,184854.000,A,4144.3389,N,06959.5767,W,0.65,248.34,220321,,,D*73 
298.307         GPS_NMEA_FROM_GPS    iGPS            $GPGGA,184855.000,4144.3389,N,06959.5769,W,2,09,1.00,10.8,M,-34.3,M,0000,0000*6A 
299.410         GPS_NMEA_FROM_GPS    iGPS            $GPRMC,184856.000,A,4144.3390,N,06959.5771,W,0.65,259.24,220321,,,D*7F 
300.312         GPS_NMEA_FROM_GPS    iGPS            $GPGGA,184857.000,4144.3391,N,06959.5773,W,2,09,1.00,10.7,M,-34.3,M,0000,0000*65 
301.315         GPS_NMEA_FROM_GPS    iGPS            $GPGGA,184858.000,4144.3391,N,06959.5776,W,2,09,1.00,10.7,M,-34.3,M,0000,0000*6F 
302.318         GPS_NMEA_FROM_GPS    iGPS            $GPGGA,184859.000,4144.3391,N,06959.5777,W,2,09,1.00,10.7,M,-34.3,M,0000,0000*6F 
303.320         GPS_NMEA_FROM_GPS    iGPS            $GPGGA,184900.000,4144.3392,N,06959.5779,W,2,09,1.00,10.7,M,-34.3,M,0000,0000*6F 
304.423         GPS_NMEA_FROM_GPS    iGPS            $GPRMC,184901.000,A,4144.3393,N,06959.5780,W,0.56,277.17,220321,,,D*7D 
305.325         GPS_NMEA_FROM_GPS    iGPS            $GPRMC,184902.000,A,4144.3393,N,06959.5782,W,0.55,278.38,220321,,,D*7D 
306.327         GPS_NMEA_FROM_GPS    iGPS            $GPGGA,184903.000,4144.3394,N,06959.5783,W,2,08,1.07,10.5,M,-34.3,M,0000,0000*6B 
307.330         GPS_NMEA_FROM_GPS    iGPS            $GPRMC,184904.000,A,4144.3395,N,06959.5784,W,0.58,285.34,220321,,,D*78 
308.332         GPS_NMEA_FROM_GPS    iGPS            $GPRMC,184905.000,A,4144.3396,N,06959.5786,W,0.59,289.87,220321,,,D*7D 
309.334         GPS_NMEA_FROM_GPS    iGPS            $GPGGA,184906.000,4144.3397,N,06959.5787,W,2,08,1.07,10.3,M,-34.3,M,0000,0000*6F 
310.337         GPS_NMEA_FROM_GPS    iGPS            $GPGGA,184907.000,4144.3399,N,06959.5788,W,2,08,1.07,10.2,M,-34.3,M,0000,0000*6E 
311.340         GPS_NMEA_FROM_GPS    iGPS            $GPGGA,184908.000,4144.3401,N,06959.5789,W,2,08,1.07,10.2,M,-34.3,M,0000,0000*66 
312.342         GPS_NMEA_FROM_GPS    iGPS            $GPGGA,184909.000,4144.3403,N,06959.5789,W,2,08,1.07,10.3,M,-34.3,M,0000,0000*64 
313.345         GPS_NMEA_FROM_GPS    iGPS            $GPGGA,184910.000,4144.3404,N,06959.5791,W,2,08,1.07,10.3,M,-34.3,M,0000,0000*62 
314.347         GPS_NMEA_FROM_GPS    iGPS            $GPRMC,184911.000,A,4144.3405,N,06959.5792,W,0.56,316.83,220321,,,D*7C 
315.350         GPS_NMEA_FROM_GPS    iGPS            $GPGGA,184912.000,4144.3406,N,06959.5793,W,2,08,1.07,10.3,M,-34.3,M,0000,0000*60 
316.352         GPS_NMEA_FROM_GPS    iGPS            $GPRMC,184913.000,A,4144.3408,N,06959.5794,W,0.48,322.66,220321,,,D*76 
317.354         GPS_NMEA_FROM_GPS    iGPS            $GPGGA,184914.000,4144.3409,N,06959.5795,W,2,09,1.00,10.3,M,-34.3,M,0000,0000*69 
318.358         GPS_NMEA_FROM_GPS    iGPS            $GPGGA,184915.000,4144.3410,N,06959.5795,W,2,08,1.05,10.3,M,-34.3,M,0000,0000*64 
319.261         GPS_NMEA_FROM_GPS    iGPS            $GPGGA,184916.000,4144.3411,N,06959.5796,W,2,07,1.11,10.3,M,-34.3,M,0000,0000*6F 
320.267         GPS_NMEA_FROM_GPS    iGPS            $GPGGA,184917.000,4144.3413,N,06959.5796,W,2,07,1.11,10.3,M,-34.3,M,0000,0000*6C 
321.370         GPS_NMEA_FROM_GPS    iGPS            $GPRMC,184918.000,A,4144.3414,N,06959.5797,W,0.54,338.79,220321,,,D*7B 
322.272         GPS_NMEA_FROM_GPS    iGPS            $GPGGA,184919.000,4144.3416,N,06959.5797,W,2,09,1.00,10.2,M,-34.3,M,0000,0000*69 
323.374         GPS_NMEA_FROM_GPS    iGPS            $GPGGA,184920.000,4144.3417,N,06959.5797,W,2,09,1.00,10.2,M,-34.3,M,0000,0000*62 
324.377         GPS_NMEA_FROM_GPS    iGPS            $GPRMC,184921.000,A,4144.3419,N,06959.5797,W,0.56,353.28,220321,,,D*77 
325.380         GPS_NMEA_FROM_GPS    iGPS            $GPRMC,184922.000,A,4144.3420,N,06959.5797,W,0.58,357.98,220321,,,D*7F 
326.382         GPS_NMEA_FROM_GPS    iGPS            $GPRMC,184923.000,A,4144.3422,N,06959.5795,W,0.61,3.40,220321,,,D*73 
327.284         GPS_NMEA_FROM_GPS    iGPS            $GPGGA,184924.000,4144.3423,N,06959.5794,W,2,10,0.83,9.9,M,-34.3,M,0000,0000*53 
328.386         GPS_NMEA_FROM_GPS    iGPS            $GPRMC,184925.000,A,4144.3424,N,06959.5792,W,0.61,10.94,220321,,,D*4F 
329.388         GPS_NMEA_FROM_GPS    iGPS            $GPGGA,184926.000,4144.3426,N,06959.5790,W,2,10,0.84,9.7,M,-34.3,M,0000,0000*59 
330.290         GPS_NMEA_FROM_GPS    iGPS            $GPGGA,184927.000,4144.3427,N,06959.5788,W,2,10,0.84,9.6,M,-34.3,M,0000,0000*51 
331.294         GPS_NMEA_FROM_GPS    iGPS            $GPGGA,184928.000,4144.3428,N,06959.5786,W,2,10,0.84,9.6,M,-34.3,M,0000,0000*5F 
332.396         GPS_NMEA_FROM_GPS    iGPS            $GPRMC,184929.000,A,4144.3430,N,06959.5784,W,0.61,21.54,220321,,,D*4F 
333.298         GPS_NMEA_FROM_GPS    iGPS            $GPGGA,184930.000,4144.3431,N,06959.5782,W,2,10,0.83,9.5,M,-34.3,M,0000,0000*5E 
334.300         GPS_NMEA_FROM_GPS    iGPS            $GPGGA,184931.000,4144.3433,N,06959.5780,W,2,09,1.01,9.5,M,-34.3,M,0000,0000*5C 
335.303         GPS_NMEA_FROM_GPS    iGPS            $GPGGA,184932.000,4144.3434,N,06959.5778,W,2,08,1.05,9.5,M,-34.3,M,0000,0000*5A 
336.408         GPS_NMEA_FROM_GPS    iGPS            $GPRMC,184933.000,A,4144.3435,N,06959.5776,W,0.67,31.99,220321,,,D*4A 
337.311         GPS_NMEA_FROM_GPS    iGPS            $GPGGA,184934.000,4144.3436,N,06959.5774,W,2,08,1.04,9.5,M,-34.3,M,0000,0000*53 
338.313         GPS_NMEA_FROM_GPS    iGPS            $GPGGA,184935.000,4144.3438,N,06959.5771,W,2,08,1.05,9.5,M,-34.3,M,0000,0000*58 
339.416         GPS_NMEA_FROM_GPS    iGPS            $GPRMC,184936.000,A,4144.3439,N,06959.5769,W,0.66,39.93,220321,,,D*4E 
340.318         GPS_NMEA_FROM_GPS    iGPS            $GPGGA,184937.000,4144.3440,N,06959.5767,W,2,08,1.05,9.5,M,-34.3,M,0000,0000*52 
341.320         GPS_NMEA_FROM_GPS    iGPS            $GPRMC,184938.000,A,4144.3441,N,06959.5764,W,0.64,44.27,220321,,,D*45 
342.322         GPS_NMEA_FROM_GPS    iGPS            $GPGGA,184939.000,4144.3442,N,06959.5762,W,2,08,1.04,9.4,M,-34.3,M,0000,0000*5B 
343.326         GPS_NMEA_FROM_GPS    iGPS            $GPRMC,184940.000,A,4144.3443,N,06959.5759,W,0.64,47.78,220321,,,D*4F 
344.328         GPS_NMEA_FROM_GPS    iGPS            $GPGGA,184941.000,4144.3445,N,06959.5757,W,2,08,1.06,9.3,M,-34.3,M,0000,0000*50 
345.331         GPS_NMEA_FROM_GPS    iGPS            $GPGGA,184942.000,4144.3446,N,06959.5754,W,2,08,1.04,9.3,M,-34.3,M,0000,0000*51 
346.333         GPS_NMEA_FROM_GPS    iGPS            $GPRMC,184943.000,A,4144.3447,N,06959.5752,W,0.68,54.03,220321,,,D*41 
347.336         GPS_NMEA_FROM_GPS    iGPS            $GPGGA,184944.000,4144.3449,N,06959.5750,W,2,09,0.99,9.3,M,-34.3,M,0000,0000*58 
348.338         GPS_NMEA_FROM_GPS    iGPS            $GPGGA,184945.000,4144.3450,N,06959.5747,W,2,09,0.99,9.3,M,-34.3,M,0000,0000*57 
349.340         GPS_NMEA_FROM_GPS    iGPS            $GPRMC,184946.000,A,4144.3451,N,06959.5745,W,0.65,59.44,220321,,,D*46 
350.343         GPS_NMEA_FROM_GPS    iGPS            $GPGGA,184947.000,4144.3452,N,06959.5742,W,2,09,0.99,9.3,M,-34.3,M,0000,0000*52 
351.345         GPS_NMEA_FROM_GPS    iGPS            $GPGGA,184948.000,4144.3453,N,06959.5739,W,2,09,0.99,9.4,M,-34.3,M,0000,0000*57 
352.348         GPS_NMEA_FROM_GPS    iGPS            $GPGGA,184949.000,4144.3454,N,06959.5736,W,2,09,0.99,9.4,M,-34.3,M,0000,0000*5E 
353.350         GPS_NMEA_FROM_GPS    iGPS            $GPRMC,184950.000,A,4144.3455,N,06959.5734,W,0.65,65.62,220321,,,D*48 
354.353         GPS_NMEA_FROM_GPS    iGPS            $GPGGA,184951.000,4144.3456,N,06959.5731,W,2,09,0.99,9.4,M,-34.3,M,0000,0000*52 
355.357         GPS_NMEA_FROM_GPS    iGPS            $GPRMC,184952.000,A,4144.3457,N,06959.5728,W,0.71,66.32,220321,,,D*46 
356.359         GPS_NMEA_FROM_GPS    iGPS            $GPRMC,184953.000,A,4144.3457,N,06959.5725,W,0.68,66.51,220321,,,D*47 
357.361         GPS_NMEA_FROM_GPS    iGPS            $GPGGA,184954.000,4144.3458,N,06959.5722,W,2,09,1.01,9.4,M,-34.3,M,0000,0000*5B 
358.363         GPS_NMEA_FROM_GPS    iGPS            $GPGGA,184955.000,4144.3459,N,06959.5720,W,2,09,1.01,9.4,M,-34.3,M,0000,0000*59 
359.366         GPS_NMEA_FROM_GPS    iGPS            $GPGGA,184956.000,4144.3460,N,06959.5717,W,2,09,0.99,9.4,M,-34.3,M,0000,0000*54 
360.368         GPS_NMEA_FROM_GPS    iGPS            $GPGGA,184957.000,4144.3460,N,06959.5715,W,2,09,0.99,9.5,M,-34.3,M,0000,0000*56 
361.370         GPS_NMEA_FROM_GPS    iGPS            $GPGGA,184958.000,4144.3461,N,06959.5712,W,2,09,0.99,9.5,M,-34.3,M,0000,0000*5F 
362.273         GPS_NMEA_FROM_GPS    iGPS            $GPGGA,184959.000,4144.3462,N,06959.5710,W,2,09,0.99,9.6,M,-34.3,M,0000,0000*5C 
363.375         GPS_NMEA_FROM_GPS    iGPS            $GPGGA,185000.000,4144.3462,N,06959.5708,W,2,09,1.01,9.6,M,-34.3,M,0000,0000*51 
364.379         GPS_NMEA_FROM_GPS    iGPS            $GPGGA,185001.000,4144.3462,N,06959.5706,W,2,09,1.01,9.6,M,-34.3,M,0000,0000*5E 
365.381         GPS_NMEA_FROM_GPS    iGPS            $GPRMC,185002.000,A,4144.3463,N,06959.5704,W,0.50,77.28,220321,,,D*4A 
366.383         GPS_NMEA_FROM_GPS    iGPS            $GPRMC,185003.000,A,4144.3463,N,06959.5702,W,0.54,77.01,220321,,,D*42 
367.285         GPS_NMEA_FROM_GPS    iGPS            $GPGGA,185004.000,4144.3463,N,06959.5700,W,2,09,1.01,9.6,M,-34.3,M,0000,0000*5C 
368.387         GPS_NMEA_FROM_GPS    iGPS            $GPGGA,185005.000,4144.3464,N,06959.5698,W,2,09,1.01,9.7,M,-34.3,M,0000,0000*5B 
369.289         GPS_NMEA_FROM_GPS    iGPS            $GPGGA,185006.000,4144.3464,N,06959.5696,W,2,09,1.01,9.7,M,-34.3,M,0000,0000*56 
370.292         GPS_NMEA_FROM_GPS    iGPS            $GPGGA,185007.000,4144.3465,N,06959.5694,W,2,09,1.01,9.8,M,-34.3,M,0000,0000*5B 
371.294         GPS_NMEA_FROM_GPS    iGPS            $GPGGA,185008.000,4144.3465,N,06959.5692,W,2,09,1.01,9.9,M,-34.3,M,0000,0000*53 
372.296         GPS_NMEA_FROM_GPS    iGPS            $GPGGA,185009.000,4144.3466,N,06959.5690,W,2,09,1.01,10.0,M,-34.3,M,0000,0000*62 
373.399         GPS_NMEA_FROM_GPS    iGPS            $GPGGA,185010.000,4144.3466,N,06959.5688,W,2,09,1.01,10.0,M,-34.3,M,0000,0000*63 
374.301         GPS_NMEA_FROM_GPS    iGPS            $GPGGA,185011.000,4144.3467,N,06959.5685,W,2,09,1.01,10.0,M,-34.3,M,0000,0000*6E 
375.404         GPS_NMEA_FROM_GPS    iGPS            $GPRMC,185012.000,A,4144.3468,N,06959.5683,W,0.52,74.70,220321,,,D*42 
376.306         GPS_NMEA_FROM_GPS    iGPS            $GPGGA,185013.000,4144.3468,N,06959.5681,W,2,09,1.01,10.0,M,-34.3,M,0000,0000*67 
377.309         GPS_NMEA_FROM_GPS    iGPS            $GPGGA,185014.000,4144.3468,N,06959.5679,W,2,09,1.01,10.0,M,-34.3,M,0000,0000*67 
378.311         GPS_NMEA_FROM_GPS    iGPS            $GPGGA,185015.000,4144.3469,N,06959.5677,W,2,09,1.01,10.0,M,-34.3,M,0000,0000*69 
379.314         GPS_NMEA_FROM_GPS    iGPS            $GPGGA,185016.000,4144.3469,N,06959.5675,W,2,09,1.01,10.0,M,-34.3,M,0000,0000*68 
380.316         GPS_NMEA_FROM_GPS    iGPS            $GPGGA,185017.000,4144.3470,N,06959.5673,W,2,09,1.01,9.9,M,-34.3,M,0000,0000*56 
381.419         GPS_NMEA_FROM_GPS    iGPS            $GPRMC,185018.000,A,4144.3471,N,06959.5670,W,0.62,65.13,220321,,,D*4A 
382.421         GPS_NMEA_FROM_GPS    iGPS            $GPRMC,185019.000,A,4144.3472,N,06959.5668,W,0.63,62.69,220321,,,D*4A 
383.323         GPS_NMEA_FROM_GPS    iGPS            $GPGGA,185020.000,4144.3473,N,06959.5666,W,2,09,1.01,9.7,M,-34.3,M,0000,0000*5B 
384.326         GPS_NMEA_FROM_GPS    iGPS            $GPRMC,185021.000,A,4144.3474,N,06959.5664,W,0.60,58.29,220321,,,D*45 
385.328         GPS_NMEA_FROM_GPS    iGPS            $GPGGA,185022.000,4144.3475,N,06959.5662,W,2,09,1.01,9.7,M,-34.3,M,0000,0000*5B 
386.330         GPS_NMEA_FROM_GPS    iGPS            $GPGGA,185023.000,4144.3476,N,06959.5661,W,2,09,1.01,9.8,M,-34.3,M,0000,0000*55 
387.333         GPS_NMEA_FROM_GPS    iGPS            $GPGGA,185024.000,4144.3477,N,06959.5659,W,2,09,1.01,9.8,M,-34.3,M,0000,0000*58 
388.335         GPS_NMEA_FROM_GPS    iGPS            $GPGGA,185025.000,4144.3479,N,06959.5658,W,2,09,1.01,9.8,M,-34.3,M,0000,0000*56 
389.337         GPS_NMEA_FROM_GPS    iGPS            $GPGGA,185026.000,4144.3479,N,06959.5657,W,2,09,1.01,10.0,M,-34.3,M,0000,0000*6A 
390.340         GPS_NMEA_FROM_GPS    iGPS            $GPGGA,185027.000,4144.3481,N,06959.5656,W,2,09,1.01,9.9,M,-34.3,M,0000,0000*5C 
391.342         GPS_NMEA_FROM_GPS    iGPS            $GPRMC,185028.000,A,4144.3482,N,06959.5655,W,0.62,35.53,220321,,,D*43 
392.344         GPS_NMEA_FROM_GPS    iGPS            $GPRMC,185029.000,A,4144.3484,N,06959.5654,W,0.62,32.64,220321,,,D*46 
393.346         GPS_NMEA_FROM_GPS    iGPS            $GPGGA,185030.000,4144.3485,N,06959.5653,W,2,09,1.01,9.9,M,-34.3,M,0000,0000*5B 
394.348         GPS_NMEA_FROM_GPS    iGPS            $GPGGA,185031.000,4144.3487,N,06959.5652,W,2,09,1.01,9.8,M,-34.3,M,0000,0000*58 
395.351         GPS_NMEA_FROM_GPS    iGPS            $GPRMC,185032.000,A,4144.3488,N,06959.5651,W,0.59,28.74,220321,,,D*47 
396.353         GPS_NMEA_FROM_GPS    iGPS            $GPGGA,185033.000,4144.3489,N,06959.5649,W,2,09,1.01,9.8,M,-34.3,M,0000,0000*5E 
397.356         GPS_NMEA_FROM_GPS    iGPS            $GPRMC,185034.000,A,4144.3490,N,06959.5648,W,0.54,31.62,220321,,,D*42 
398.358         GPS_NMEA_FROM_GPS    iGPS            $GPRMC,185035.000,A,4144.3491,N,06959.5646,W,0.50,34.74,220321,,,D*4A 
399.360         GPS_NMEA_FROM_GPS    iGPS            $GPRMC,185036.000,A,4144.3492,N,06959.5645,W,0.46,39.68,220321,,,D*4E 
400.362         GPS_NMEA_FROM_GPS    iGPS            $GPGGA,185037.000,4144.3492,N,06959.5643,W,2,09,1.01,9.7,M,-34.3,M,0000,0000*55 
401.365         GPS_NMEA_FROM_GPS    iGPS            $GPGGA,185038.000,4144.3493,N,06959.5642,W,2,09,1.01,9.7,M,-34.3,M,0000,0000*5A 
402.367         GPS_NMEA_FROM_GPS    iGPS            $GPGGA,185039.000,4144.3493,N,06959.5640,W,2,09,1.01,9.7,M,-34.3,M,0000,0000*59 
403.370         GPS_NMEA_FROM_GPS    iGPS            $GPGGA,185040.000,4144.3493,N,06959.5639,W,2,09,1.01,9.7,M,-34.3,M,0000,0000*59 
404.372         GPS_NMEA_FROM_GPS    iGPS            $GPGGA,185041.000,4144.3493,N,06959.5637,W,2,09,1.01,9.7,M,-34.3,M,0000,0000*56 
405.375         GPS_NMEA_FROM_GPS    iGPS            $GPGGA,185042.000,4144.3493,N,06959.5636,W,2,09,1.01,9.6,M,-34.3,M,0000,0000*55 
406.277         GPS_NMEA_FROM_GPS    iGPS            $GPGGA,185043.000,4144.3492,N,06959.5636,W,2,09,1.01,9.6,M,-34.3,M,0000,0000*55 
407.280         GPS_NMEA_FROM_GPS    iGPS            $GPGGA,185044.000,4144.3492,N,06959.5635,W,2,08,1.25,9.6,M,-34.3,M,0000,0000*56 
408.383         GPS_NMEA_FROM_GPS    iGPS            $GPRMC,185045.000,A,4144.3491,N,06959.5635,W,0.25,197.19,220321,,,D*78 
409.386         GPS_NMEA_FROM_GPS    iGPS            $GPRMC,185046.000,A,4144.3490,N,06959.5636,W,0.23,222.62,220321,,,D*7E 
410.387         GPS_NMEA_FROM_GPS    iGPS            $GPRMC,185047.000,A,4144.3490,N,06959.5636,W,0.29,247.50,220321,,,D*77 
411.390         GPS_NMEA_FROM_GPS    iGPS            $GPRMC,185048.000,A,4144.3490,N,06959.5637,W,0.33,263.00,220321,,,D*71 
412.293         GPS_NMEA_FROM_GPS    iGPS            $GPGGA,185049.000,4144.3489,N,06959.5639,W,2,09,1.01,9.5,M,-34.3,M,0000,0000*59 
413.295         GPS_NMEA_FROM_GPS    iGPS            $GPGGA,185050.000,4144.3490,N,06959.5641,W,2,09,1.01,9.4,M,-34.3,M,0000,0000*57 
414.297         GPS_NMEA_FROM_GPS    iGPS            $GPGGA,185051.000,4144.3490,N,06959.5644,W,2,09,1.01,9.4,M,-34.3,M,0000,0000*53 
415.400         GPS_NMEA_FROM_GPS    iGPS            $GPRMC,185052.000,A,4144.3491,N,06959.5647,W,0.62,279.24,220321,,,D*75 
416.302         GPS_NMEA_FROM_GPS    iGPS            $GPGGA,185053.000,4144.3491,N,06959.5650,W,2,09,1.01,9.2,M,-34.3,M,0000,0000*53 
417.405         GPS_NMEA_FROM_GPS    iGPS            $GPRMC,185054.000,A,4144.3492,N,06959.5654,W,0.69,289.42,220321,,,D*76 
418.307         GPS_NMEA_FROM_GPS    iGPS            $GPGGA,185055.000,4144.3493,N,06959.5656,W,2,09,1.00,9.2,M,-34.3,M,0000,0000*50 
419.310         GPS_NMEA_FROM_GPS    iGPS            $GPGGA,185056.000,4144.3494,N,06959.5659,W,2,09,1.00,9.2,M,-34.3,M,0000,0000*5B 
420.312         GPS_NMEA_FROM_GPS    iGPS            $GPGGA,185057.000,4144.3495,N,06959.5662,W,2,09,1.00,9.2,M,-34.3,M,0000,0000*53 
421.315         GPS_NMEA_FROM_GPS    iGPS            $GPGGA,185058.000,4144.3496,N,06959.5665,W,2,09,1.00,9.1,M,-34.3,M,0000,0000*5B 
422.317         GPS_NMEA_FROM_GPS    iGPS            $GPGGA,185059.000,4144.3497,N,06959.5668,W,2,09,1.01,9.1,M,-34.3,M,0000,0000*57 
423.320         GPS_NMEA_FROM_GPS    iGPS            $GPGGA,185100.000,4144.3499,N,06959.5670,W,2,09,1.01,9.1,M,-34.3,M,0000,0000*5D 
424.322         GPS_NMEA_FROM_GPS    iGPS            $GPGGA,185101.000,4144.3500,N,06959.5673,W,2,09,1.01,9.1,M,-34.3,M,0000,0000*5E 
425.324         GPS_NMEA_FROM_GPS    iGPS            $GPGGA,185102.000,4144.3501,N,06959.5676,W,2,09,1.01,9.1,M,-34.3,M,0000,0000*59 
426.327         GPS_NMEA_FROM_GPS    iGPS            $GPGGA,185103.000,4144.3502,N,06959.5678,W,2,09,1.00,9.1,M,-34.3,M,0000,0000*54 
427.329         GPS_NMEA_FROM_GPS    iGPS            $GPRMC,185104.000,A,4144.3503,N,06959.5680,W,0.69,313.52,220321,,,D*71 
428.333         GPS_NMEA_FROM_GPS    iGPS            $GPRMC,185105.000,A,4144.3505,N,06959.5683,W,0.72,314.46,220321,,,D*7D 
429.335         GPS_NMEA_FROM_GPS    iGPS            $GPGGA,185106.000,4144.3506,N,06959.5685,W,2,09,1.01,9.0,M,-34.3,M,0000,0000*57 
430.337         GPS_NMEA_FROM_GPS    iGPS            $GPGGA,185107.000,4144.3508,N,06959.5687,W,2,09,1.01,9.1,M,-34.3,M,0000,0000*5B 
431.339         GPS_NMEA_FROM_GPS    iGPS            $GPGGA,185108.000,4144.3510,N,06959.5690,W,2,09,1.01,9.2,M,-34.3,M,0000,0000*58 
432.341         GPS_NMEA_FROM_GPS    iGPS            $GPGGA,185109.000,4144.3511,N,06959.5692,W,2,09,1.01,9.3,M,-34.3,M,0000,0000*5B 
433.344         GPS_NMEA_FROM_GPS    iGPS            $GPGGA,185110.000,4144.3513,N,06959.5695,W,2,09,1.00,9.2,M,-34.3,M,0000,0000*56 
434.346         GPS_NMEA_FROM_GPS    iGPS            $GPGGA,185111.000,4144.3514,N,06959.5697,W,2,09,1.00,9.1,M,-34.3,M,0000,0000*51 
435.349         GPS_NMEA_FROM_GPS    iGPS            $GPRMC,185112.000,A,4144.3516,N,06959.5700,W,0.70,310.64,220321,,,D*75 
436.350         GPS_NMEA_FROM_GPS    iGPS            $GPGGA,185113.000,4144.3517,N,06959.5702,W,2,09,1.01,8.9,M,-34.3,M,0000,0000*55 
437.353         GPS_NMEA_FROM_GPS    iGPS            $GPGGA,185114.000,4144.3519,N,06959.5705,W,2,09,1.01,9.0,M,-34.3,M,0000,0000*53 
438.355         GPS_NMEA_FROM_GPS    iGPS            $GPGGA,185115.000,4144.3520,N,06959.5708,W,2,09,1.01,8.8,M,-34.3,M,0000,0000*5C 
439.357         GPS_NMEA_FROM_GPS    iGPS            $GPGGA,185116.000,4144.3521,N,06959.5710,W,2,09,1.00,8.7,M,-34.3,M,0000,0000*59 
440.360         GPS_NMEA_FROM_GPS    iGPS            $GPRMC,185117.000,A,4144.3522,N,06959.5712,W,0.66,310.20,220321,,,D*73 
441.362         GPS_NMEA_FROM_GPS    iGPS            $GPGGA,185118.000,4144.3524,N,06959.5715,W,2,09,1.01,8.5,M,-34.3,M,0000,0000*54 
442.364         GPS_NMEA_FROM_GPS    iGPS            $GPRMC,185119.000,A,4144.3525,N,06959.5718,W,0.66,309.34,220321,,,D*7D 
443.366         GPS_NMEA_FROM_GPS    iGPS            $GPGGA,185120.000,4144.3527,N,06959.5720,W,2,09,1.01,8.0,M,-34.3,M,0000,0000*5F 
444.369         GPS_NMEA_FROM_GPS    iGPS            $GPGGA,185121.000,4144.3528,N,06959.5723,W,2,09,1.01,8.0,M,-34.3,M,0000,0000*52 
445.371         GPS_NMEA_FROM_GPS    iGPS            $GPGGA,185122.000,4144.3529,N,06959.5726,W,2,09,1.00,7.8,M,-34.3,M,0000,0000*53 
446.374         GPS_NMEA_FROM_GPS    iGPS            $GPGGA,185123.000,4144.3530,N,06959.5728,W,2,09,1.00,7.7,M,-34.3,M,0000,0000*5B 
447.276         GPS_NMEA_FROM_GPS    iGPS            $GPGGA,185124.000,4144.3530,N,06959.5731,W,2,09,1.01,7.5,M,-34.3,M,0000,0000*57 
448.279         GPS_NMEA_FROM_GPS    iGPS            $GPGGA,185125.000,4144.3531,N,06959.5733,W,2,09,1.01,7.3,M,-34.3,M,0000,0000*53 
449.281         GPS_NMEA_FROM_GPS    iGPS            $GPGGA,185126.000,4144.3531,N,06959.5736,W,2,09,1.01,7.1,M,-34.3,M,0000,0000*57 
