1.661           GPS_NMEA_FROM_GPS    iGPS            $GPGGA,173851.000,4144.3492,N,06959.5949,W,2,08,0.97,5.1,M,-34.3,M,0000,0000*54 
2.663           GPS_NMEA_FROM_GPS    iGPS            $GPGGA,173852.000,4144.3492,N,06959.5949,W,2,09,0.89,5.1,M,-34.3,M,0000,0000*59 
2.663           GPS_NMEA_FROM_GPS    iGPS            $GPGGA,173852.000,4144.3492,N,06959.5949,W,2,09,0.89,5.1,M,-34.3,M,0000,0000*59 
3.666           GPS_NMEA_FROM_GPS    iGPS            $GPGGA,173853.000,4144.3492,N,06959.5949,W,2,09,0.89,5.0,M,-34.3,M,0000,0000*59 
3.666           GPS_NMEA_FROM_GPS    iGPS            $GPGGA,173853.000,4144.3492,N,06959.5949,W,2,09,0.89,5.0,M,-34.3,M,0000,0000*59 
4.668           GPS_NMEA_FROM_GPS    iGPS            $GPGGA,173854.000,4144.3492,N,06959.5949,W,2,09,0.89,5.0,M,-34.3,M,0000,0000*5E 
5.771           GPS_NMEA_FROM_GPS    iGPS            $GPRMC,173855.000,A,4144.3492,N,06959.5949,W,0.05,32.86,220321,,,D*45 
6.773           GPS_NMEA_FROM_GPS    iGPS            $GPRMC,173856.000,A,4144.3492,N,06959.5949,W,0.02,58.78,220321,,,D*4C 
7.776           GPS_NMEA_FROM_GPS    iGPS            $GPRMC,173857.000,A,4144.3492,N,06959.5949,W,0.01,217.73,220321,,,D*7C 
8.677           GPS_NMEA_FROM_GPS    iGPS            $GPGGA,173858.000,4144.3492,N,06959.5949,W,2,09,0.89,5.0,M,-34.3,M,0000,0000*52 
9.680           GPS_NMEA_FROM_GPS    iGPS            $GPGGA,173859.000,4144.3492,N,06959.5949,W,2,09,0.89,5.0,M,-34.3,M,0000,0000*53 
10.682          GPS_NMEA_FROM_GPS    iGPS            $GPGGA,173900.000,4144.3492,N,06959.5949,W,2,09,0.89,5.0,M,-34.3,M,0000,0000*5E 
11.685          GPS_NMEA_FROM_GPS    iGPS            $GPGGA,173901.000,4144.3492,N,06959.5949,W,2,09,0.89,5.0,M,-34.3,M,0000,0000*5F 
11.685          GPS_NMEA_FROM_GPS    iGPS            $GPGGA,173901.000,4144.3492,N,06959.5949,W,2,09,0.89,5.0,M,-34.3,M,0000,0000*5F 
12.388          GPS_NMEA_FROM_GPS    iGPS            $GPGGA,173902.000,4144.3492,N,06959.5949,W,2,09,0.89,5.0,M,-34.3,M,0000,0000*5C 
12.388          GPS_NMEA_FROM_GPS    iGPS            $GPGGA,173902.000,4144.3492,N,06959.5949,W,2,09,0.89,5.0,M,-34.3,M,0000,0000*5C 
13.391          GPS_NMEA_FROM_GPS    iGPS            $GPRMC,173903.000,A,4144.3492,N,06959.5949,W,0.01,314.75,220321,,,D*78 
14.394          GPS_NMEA_FROM_GPS    iGPS            $GPRMC,173904.000,A,4144.3492,N,06959.5949,W,0.03,41.16,220321,,,D*4B 
15.396          GPS_NMEA_FROM_GPS    iGPS            $GPRMC,173905.000,A,4144.3492,N,06959.5949,W,0.00,140.39,220321,,,D*74 
16.399          GPS_NMEA_FROM_GPS    iGPS            $GPRMC,173906.000,A,4144.3492,N,06959.5949,W,0.01,353.92,220321,,,D*77 
16.399          GPS_NMEA_FROM_GPS    iGPS            $GPRMC,173906.000,A,4144.3492,N,06959.5949,W,0.01,353.92,220321,,,D*77 
17.401          GPS_NMEA_FROM_GPS    iGPS            $GPRMC,173907.000,A,4144.3492,N,06959.5949,W,0.02,260.66,220321,,,D*7F 
18.404          GPS_NMEA_FROM_GPS    iGPS            $GPRMC,173908.000,A,4144.3492,N,06959.5949,W,0.03,337.08,220321,,,D*7A 
19.306          GPS_NMEA_FROM_GPS    iGPS            $GPGGA,173909.000,4144.3492,N,06959.5949,W,2,09,0.89,5.1,M,-34.3,M,0000,0000*56 
20.410          GPS_NMEA_FROM_GPS    iGPS            $GPRMC,173910.000,A,4144.3492,N,06959.5949,W,0.02,42.53,220321,,,D*4D 
21.413          GPS_NMEA_FROM_GPS    iGPS            $GPRMC,173911.000,A,4144.3492,N,06959.5949,W,0.01,284.55,220321,,,D*71 
22.315          GPS_NMEA_FROM_GPS    iGPS            $GPGGA,173912.000,4144.3492,N,06959.5949,W,2,09,0.89,5.1,M,-34.3,M,0000,0000*5C 
23.318          GPS_NMEA_FROM_GPS    iGPS            $GPGGA,173913.000,4144.3492,N,06959.5949,W,2,09,0.89,5.1,M,-34.3,M,0000,0000*5D 
24.320          GPS_NMEA_FROM_GPS    iGPS            $GPGGA,173914.000,4144.3492,N,06959.5949,W,2,09,0.89,5.1,M,-34.3,M,0000,0000*5A 
25.323          GPS_NMEA_FROM_GPS    iGPS            $GPGGA,173915.000,4144.3492,N,06959.5949,W,2,08,0.98,5.1,M,-34.3,M,0000,0000*5A 
26.325          GPS_NMEA_FROM_GPS    iGPS            $GPGGA,173916.000,4144.3492,N,06959.5949,W,2,09,0.89,5.1,M,-34.3,M,0000,0000*58 
27.328          GPS_NMEA_FROM_GPS    iGPS            $GPGGA,173917.000,4144.3492,N,06959.5949,W,2,09,0.89,5.1,M,-34.3,M,0000,0000*59 
28.331          GPS_NMEA_FROM_GPS    iGPS            $GPGGA,173918.000,4144.3492,N,06959.5949,W,2,09,0.89,5.1,M,-34.3,M,0000,0000*56 
29.334          GPS_NMEA_FROM_GPS    iGPS            $GPGGA,173919.000,4144.3492,N,06959.5949,W,2,09,0.89,5.1,M,-34.3,M,0000,0000*57 
30.336          GPS_NMEA_FROM_GPS    iGPS            $GPGGA,173920.000,4144.3492,N,06959.5949,W,2,09,0.89,5.1,M,-34.3,M,0000,0000*5D 
31.339          GPS_NMEA_FROM_GPS    iGPS            $GPGGA,173921.000,4144.3492,N,06959.5949,W,2,09,0.89,5.1,M,-34.3,M,0000,0000*5C 
32.342          GPS_NMEA_FROM_GPS    iGPS            $GPGGA,173922.000,4144.3492,N,06959.5949,W,2,09,0.89,5.1,M,-34.3,M,0000,0000*5F 
33.344          GPS_NMEA_FROM_GPS    iGPS            $GPGGA,173923.000,4144.3492,N,06959.5949,W,2,09,0.89,5.1,M,-34.3,M,0000,0000*5E 
34.347          GPS_NMEA_FROM_GPS    iGPS            $GPGGA,173924.000,4144.3492,N,06959.5949,W,2,09,0.89,5.1,M,-34.3,M,0000,0000*59 
35.350          GPS_NMEA_FROM_GPS    iGPS            $GPGGA,173925.000,4144.3492,N,06959.5949,W,2,08,0.98,5.1,M,-34.3,M,0000,0000*59 
36.352          GPS_NMEA_FROM_GPS    iGPS            $GPGGA,173926.000,4144.3492,N,06959.5949,W,2,09,0.89,5.1,M,-34.3,M,0000,0000*5B 
37.355          GPS_NMEA_FROM_GPS    iGPS            $GPGGA,173927.000,4144.3492,N,06959.5949,W,2,09,0.89,5.1,M,-34.3,M,0000,0000*5A 
38.358          GPS_NMEA_FROM_GPS    iGPS            $GPGGA,173928.000,4144.3492,N,06959.5949,W,2,08,0.98,5.1,M,-34.3,M,0000,0000*54 
39.360          GPS_NMEA_FROM_GPS    iGPS            $GPGGA,173929.000,4144.3492,N,06959.5949,W,2,08,0.98,5.1,M,-34.3,M,0000,0000*55 
40.664          GPS_NMEA_FROM_GPS    iGPS            $GPGGA,173930.000,4144.3492,N,06959.5949,W,2,08,0.98,5.1,M,-34.3,M,0000,0000*5D 
41.767          GPS_NMEA_FROM_GPS    iGPS            $GPRMC,173931.000,A,4144.3492,N,06959.5949,W,0.02,108.34,220321,,,D*70 
42.769          GPS_NMEA_FROM_GPS    iGPS            $GPRMC,173932.000,A,4144.3492,N,06959.5949,W,0.03,65.24,220321,,,D*49 
43.671          GPS_NMEA_FROM_GPS    iGPS            $GPGGA,173933.000,4144.3492,N,06959.5949,W,2,09,0.89,5.1,M,-34.3,M,0000,0000*5F 
44.674          GPS_NMEA_FROM_GPS    iGPS            $GPRMC,173934.000,A,4144.3492,N,06959.5949,W,0.00,93.79,220321,,,D*4D 
45.676          GPS_NMEA_FROM_GPS    iGPS            $GPGGA,173935.000,4144.3492,N,06959.5949,W,2,09,0.89,5.1,M,-34.3,M,0000,0000*59 
46.679          GPS_NMEA_FROM_GPS    iGPS            $GPGGA,173936.000,4144.3492,N,06959.5949,W,2,08,0.98,5.1,M,-34.3,M,0000,0000*5B 
47.782          GPS_NMEA_FROM_GPS    iGPS            $GPRMC,173937.000,A,4144.3492,N,06959.5949,W,0.02,254.76,220321,,,D*7A 
48.684          GPS_NMEA_FROM_GPS    iGPS            $GPGGA,173938.000,4144.3492,N,06959.5949,W,2,07,1.04,5.1,M,-34.3,M,0000,0000*5E 
49.687          GPS_NMEA_FROM_GPS    iGPS            $GPGGA,173939.000,4144.3492,N,06959.5949,W,2,08,0.98,5.1,M,-34.3,M,0000,0000*54 
49.687          GPS_NMEA_FROM_GPS    iGPS            $GPGGA,173939.000,4144.3492,N,06959.5949,W,2,08,0.98,5.1,M,-34.3,M,0000,0000*54 
50.689          GPS_NMEA_FROM_GPS    iGPS            $GPGGA,173940.000,4144.3492,N,06959.5949,W,2,08,0.98,5.1,M,-34.3,M,0000,0000*5A 
51.692          GPS_NMEA_FROM_GPS    iGPS            $GPGGA,173941.000,4144.3492,N,06959.5949,W,2,08,0.98,5.1,M,-34.3,M,0000,0000*5B 
52.694          GPS_NMEA_FROM_GPS    iGPS            $GPGGA,173942.000,4144.3492,N,06959.5949,W,2,08,0.98,5.1,M,-34.3,M,0000,0000*58 
53.696          GPS_NMEA_FROM_GPS    iGPS            $GPGGA,173943.000,4144.3492,N,06959.5949,W,2,08,0.98,5.1,M,-34.3,M,0000,0000*59 
54.799          GPS_NMEA_FROM_GPS    iGPS            $GPRMC,173944.000,A,4144.3492,N,06959.5949,W,0.03,190.99,220321,,,D*75 
55.702          GPS_NMEA_FROM_GPS    iGPS            $GPGGA,173945.000,4144.3492,N,06959.5949,W,2,09,0.86,5.1,M,-34.3,M,0000,0000*51 
56.704          GPS_NMEA_FROM_GPS    iGPS            $GPGGA,173946.000,4144.3492,N,06959.5949,W,2,09,0.87,5.1,M,-34.3,M,0000,0000*53 
57.708          GPS_NMEA_FROM_GPS    iGPS            $GPRMC,173947.000,A,4144.3491,N,06959.5949,W,0.15,177.91,220321,,,D*73 
58.710          GPS_NMEA_FROM_GPS    iGPS            $GPGGA,173948.000,4144.3491,N,06959.5949,W,2,07,1.03,5.1,M,-34.3,M,0000,0000*5D 
59.713          GPS_NMEA_FROM_GPS    iGPS            $GPRMC,173949.000,A,4144.3490,N,06959.5949,W,0.17,168.27,220321,,,D*7D 
60.715          GPS_NMEA_FROM_GPS    iGPS            $GPRMC,173950.000,A,4144.3490,N,06959.5949,W,0.14,154.77,220321,,,D*7C 
61.718          GPS_NMEA_FROM_GPS    iGPS            $GPGGA,173951.000,4144.3489,N,06959.5949,W,2,08,0.96,4.9,M,-34.3,M,0000,0000*57 
62.721          GPS_NMEA_FROM_GPS    iGPS            $GPRMC,173952.000,A,4144.3487,N,06959.5948,W,0.21,132.96,220321,,,D*70 
63.723          GPS_NMEA_FROM_GPS    iGPS            $GPGGA,173953.000,4144.3486,N,06959.5948,W,2,08,0.96,4.6,M,-34.3,M,0000,0000*54 
64.725          GPS_NMEA_FROM_GPS    iGPS            $GPGGA,173954.000,4144.3484,N,06959.5947,W,2,08,0.96,4.6,M,-34.3,M,0000,0000*5E 
65.728          GPS_NMEA_FROM_GPS    iGPS            $GPRMC,173955.000,A,4144.3483,N,06959.5945,W,0.28,129.63,220321,,,D*77 
66.731          GPS_NMEA_FROM_GPS    iGPS            $GPRMC,173956.000,A,4144.3483,N,06959.5944,W,0.31,123.28,220321,,,D*78 
67.733          GPS_NMEA_FROM_GPS    iGPS            $GPRMC,173957.000,A,4144.3482,N,06959.5943,W,0.34,117.90,220321,,,D*7E 
68.736          GPS_NMEA_FROM_GPS    iGPS            $GPGGA,173958.000,4144.3482,N,06959.5942,W,2,08,0.96,4.5,M,-34.3,M,0000,0000*52 
69.739          GPS_NMEA_FROM_GPS    iGPS            $GPGGA,173959.000,4144.3482,N,06959.5940,W,2,08,0.96,4.5,M,-34.3,M,0000,0000*51 
70.741          GPS_NMEA_FROM_GPS    iGPS            $GPGGA,174000.000,4144.3481,N,06959.5939,W,2,08,0.96,4.5,M,-34.3,M,0000,0000*5E 
71.744          GPS_NMEA_FROM_GPS    iGPS            $GPGGA,174001.000,4144.3481,N,06959.5938,W,2,08,0.96,4.5,M,-34.3,M,0000,0000*5E 
72.747          GPS_NMEA_FROM_GPS    iGPS            $GPRMC,174002.000,A,4144.3481,N,06959.5936,W,0.47,103.80,220321,,,D*71 
73.749          GPS_NMEA_FROM_GPS    iGPS            $GPRMC,174003.000,A,4144.3480,N,06959.5933,W,0.48,102.74,220321,,,D*71 
74.751          GPS_NMEA_FROM_GPS    iGPS            $GPGGA,174004.000,4144.3478,N,06959.5930,W,2,08,0.96,4.6,M,-34.3,M,0000,0000*56 
75.753          GPS_NMEA_FROM_GPS    iGPS            $GPGGA,174005.000,4144.3478,N,06959.5927,W,2,09,0.87,4.5,M,-34.3,M,0000,0000*53 
76.756          GPS_NMEA_FROM_GPS    iGPS            $GPGGA,174006.000,4144.3477,N,06959.5925,W,2,08,0.96,4.5,M,-34.3,M,0000,0000*5C 
77.759          GPS_NMEA_FROM_GPS    iGPS            $GPGGA,174007.000,4144.3476,N,06959.5922,W,2,08,0.96,4.5,M,-34.3,M,0000,0000*5B 
78.661          GPS_NMEA_FROM_GPS    iGPS            $GPGGA,174008.000,4144.3475,N,06959.5919,W,2,08,0.96,4.5,M,-34.3,M,0000,0000*5F 
79.764          GPS_NMEA_FROM_GPS    iGPS            $GPRMC,174009.000,A,4144.3474,N,06959.5917,W,0.56,101.19,220321,,,D*71 
80.668          GPS_NMEA_FROM_GPS    iGPS            $GPGGA,174010.000,4144.3474,N,06959.5915,W,2,08,0.96,4.5,M,-34.3,M,0000,0000*5B 
81.670          GPS_NMEA_FROM_GPS    iGPS            $GPGGA,174011.000,4144.3473,N,06959.5912,W,2,08,0.96,4.5,M,-34.3,M,0000,0000*5A 
82.774          GPS_NMEA_FROM_GPS    iGPS            $GPRMC,174012.000,A,4144.3472,N,06959.5910,W,0.60,103.96,220321,,,D*7A 
83.676          GPS_NMEA_FROM_GPS    iGPS            $GPGGA,174013.000,4144.3471,N,06959.5908,W,2,08,0.96,4.3,M,-34.3,M,0000,0000*57 
84.679          GPS_NMEA_FROM_GPS    iGPS            $GPGGA,174014.000,4144.3470,N,06959.5906,W,2,09,0.87,4.2,M,-34.3,M,0000,0000*5F 
85.782          GPS_NMEA_FROM_GPS    iGPS            $GPRMC,174015.000,A,4144.3469,N,06959.5903,W,0.62,107.40,220321,,,D*78 
86.684          GPS_NMEA_FROM_GPS    iGPS            $GPGGA,174016.000,4144.3468,N,06959.5901,W,2,09,0.87,4.2,M,-34.3,M,0000,0000*53 
87.686          GPS_NMEA_FROM_GPS    iGPS            $GPGGA,174017.000,4144.3466,N,06959.5899,W,2,09,0.87,4.2,M,-34.3,M,0000,0000*5C 
88.689          GPS_NMEA_FROM_GPS    iGPS            $GPGGA,174018.000,4144.3465,N,06959.5897,W,2,09,0.87,4.1,M,-34.3,M,0000,0000*5D 
89.692          GPS_NMEA_FROM_GPS    iGPS            $GPGGA,174019.000,4144.3463,N,06959.5895,W,2,09,0.87,4.1,M,-34.3,M,0000,0000*58 
90.695          GPS_NMEA_FROM_GPS    iGPS            $GPGGA,174020.000,4144.3462,N,06959.5893,W,2,08,0.96,4.0,M,-34.3,M,0000,0000*55 
91.697          GPS_NMEA_FROM_GPS    iGPS            $GPGGA,174021.000,4144.3461,N,06959.5892,W,2,08,0.97,4.0,M,-34.3,M,0000,0000*57 
92.700          GPS_NMEA_FROM_GPS    iGPS            $GPGGA,174022.000,4144.3459,N,06959.5890,W,2,09,0.87,4.0,M,-34.3,M,0000,0000*5D 
93.702          GPS_NMEA_FROM_GPS    iGPS            $GPGGA,174023.000,4144.3458,N,06959.5888,W,2,09,0.87,4.1,M,-34.3,M,0000,0000*55 
94.705          GPS_NMEA_FROM_GPS    iGPS            $GPGGA,174024.000,4144.3456,N,06959.5885,W,2,09,0.87,4.1,M,-34.3,M,0000,0000*51 
95.809          GPS_NMEA_FROM_GPS    iGPS            $GPRMC,174025.000,A,4144.3454,N,06959.5883,W,0.63,123.13,220321,,,D*7D 
96.711          GPS_NMEA_FROM_GPS    iGPS            $GPGGA,174026.000,4144.3453,N,06959.5880,W,2,09,0.87,4.4,M,-34.3,M,0000,0000*56 
97.714          GPS_NMEA_FROM_GPS    iGPS            $GPGGA,174027.000,4144.3451,N,06959.5877,W,2,09,0.87,4.5,M,-34.3,M,0000,0000*5C 
98.716          GPS_NMEA_FROM_GPS    iGPS            $GPGGA,174028.000,4144.3450,N,06959.5875,W,2,09,0.87,4.6,M,-34.3,M,0000,0000*53 
99.719          GPS_NMEA_FROM_GPS    iGPS            $GPGGA,174029.000,4144.3449,N,06959.5873,W,2,09,0.87,4.6,M,-34.3,M,0000,0000*5C 
100.722         GPS_NMEA_FROM_GPS    iGPS            $GPRMC,174030.000,A,4144.3448,N,06959.5871,W,0.60,130.23,220321,,,D*7B 
101.724         GPS_NMEA_FROM_GPS    iGPS            $GPGGA,174031.000,4144.3448,N,06959.5869,W,2,09,0.87,4.7,M,-34.3,M,0000,0000*5E 
102.727         GPS_NMEA_FROM_GPS    iGPS            $GPGGA,174032.000,4144.3447,N,06959.5868,W,2,09,0.87,4.7,M,-34.3,M,0000,0000*53 
103.730         GPS_NMEA_FROM_GPS    iGPS            $GPGGA,174033.000,4144.3446,N,06959.5866,W,2,09,0.87,4.7,M,-34.3,M,0000,0000*5D 
104.733         GPS_NMEA_FROM_GPS    iGPS            $GPGGA,174034.000,4144.3444,N,06959.5864,W,2,09,0.87,4.7,M,-34.3,M,0000,0000*5A 
105.635         GPS_NMEA_FROM_GPS    iGPS            $GPGGA,174035.000,4144.3443,N,06959.5863,W,2,09,0.87,4.8,M,-34.3,M,0000,0000*54 
106.738         GPS_NMEA_FROM_GPS    iGPS            $GPGGA,174036.000,4144.3441,N,06959.5861,W,2,09,0.87,4.8,M,-34.3,M,0000,0000*57 
107.641         GPS_NMEA_FROM_GPS    iGPS            $GPGGA,174037.000,4144.3440,N,06959.5860,W,2,09,0.87,4.9,M,-34.3,M,0000,0000*57 
108.644         GPS_NMEA_FROM_GPS    iGPS            $GPGGA,174038.000,4144.3438,N,06959.5858,W,2,08,0.97,4.9,M,-34.3,M,0000,0000*5C 
109.747         GPS_NMEA_FROM_GPS    iGPS            $GPRMC,174039.000,A,4144.3436,N,06959.5857,W,0.54,140.73,220321,,,D*7A 
110.649         GPS_NMEA_FROM_GPS    iGPS            $GPGGA,174040.000,4144.3435,N,06959.5856,W,2,08,0.96,4.9,M,-34.3,M,0000,0000*51 
111.752         GPS_NMEA_FROM_GPS    iGPS            $GPRMC,174041.000,A,4144.3434,N,06959.5854,W,0.53,142.35,220321,,,D*73 
112.755         GPS_NMEA_FROM_GPS    iGPS            $GPRMC,174042.000,A,4144.3433,N,06959.5853,W,0.49,142.82,220321,,,D*77 
113.757         GPS_NMEA_FROM_GPS    iGPS            $GPGGA,174043.000,4144.3431,N,06959.5852,W,2,09,0.87,4.9,M,-34.3,M,0000,0000*53 
114.660         GPS_NMEA_FROM_GPS    iGPS            $GPGGA,174044.000,4144.3430,N,06959.5851,W,2,09,0.87,4.9,M,-34.3,M,0000,0000*56 
115.662         GPS_NMEA_FROM_GPS    iGPS            $GPGGA,174045.000,4144.3429,N,06959.5850,W,2,09,0.87,4.9,M,-34.3,M,0000,0000*5E 
116.765         GPS_NMEA_FROM_GPS    iGPS            $GPRMC,174046.000,A,4144.3428,N,06959.5848,W,0.53,140.68,220321,,,D*7E 
117.667         GPS_NMEA_FROM_GPS    iGPS            $GPGGA,174047.000,4144.3427,N,06959.5847,W,2,09,0.89,5.0,M,-34.3,M,0000,0000*52 
118.770         GPS_NMEA_FROM_GPS    iGPS            $GPRMC,174048.000,A,4144.3426,N,06959.5846,W,0.57,140.42,220321,,,D*7C 
119.673         GPS_NMEA_FROM_GPS    iGPS            $GPGGA,174049.000,4144.3425,N,06959.5844,W,2,09,0.87,5.0,M,-34.3,M,0000,0000*53 
120.676         GPS_NMEA_FROM_GPS    iGPS            $GPGGA,174050.000,4144.3423,N,06959.5843,W,2,09,0.89,5.0,M,-34.3,M,0000,0000*54 
121.678         GPS_NMEA_FROM_GPS    iGPS            $GPGGA,174051.000,4144.3422,N,06959.5842,W,2,09,0.89,5.0,M,-34.3,M,0000,0000*55 
122.681         GPS_NMEA_FROM_GPS    iGPS            $GPGGA,174052.000,4144.3421,N,06959.5840,W,2,09,0.89,5.0,M,-34.3,M,0000,0000*57 
123.784         GPS_NMEA_FROM_GPS    iGPS            $GPRMC,174053.000,A,4144.3419,N,06959.5839,W,0.60,143.22,220321,,,D*73 
124.686         GPS_NMEA_FROM_GPS    iGPS            $GPGGA,174054.000,4144.3418,N,06959.5837,W,2,09,0.87,5.1,M,-34.3,M,0000,0000*54 
125.689         GPS_NMEA_FROM_GPS    iGPS            $GPGGA,174055.000,4144.3416,N,06959.5836,W,2,09,0.87,5.1,M,-34.3,M,0000,0000*5A 
126.692         GPS_NMEA_FROM_GPS    iGPS            $GPRMC,174056.000,A,4144.3415,N,06959.5835,W,0.65,144.52,220321,,,D*73 
127.694         GPS_NMEA_FROM_GPS    iGPS            $GPGGA,174057.000,4144.3413,N,06959.5833,W,2,08,0.97,5.2,M,-34.3,M,0000,0000*5B 
128.698         GPS_NMEA_FROM_GPS    iGPS            $GPRMC,174058.000,A,4144.3412,N,06959.5832,W,0.62,142.92,220321,,,D*70 
129.700         GPS_NMEA_FROM_GPS    iGPS            $GPGGA,174059.000,4144.3410,N,06959.5830,W,2,08,0.97,5.3,M,-34.3,M,0000,0000*54 
130.703         GPS_NMEA_FROM_GPS    iGPS            $GPRMC,174100.000,A,4144.3408,N,06959.5828,W,0.65,142.15,220321,,,D*74 
131.705         GPS_NMEA_FROM_GPS    iGPS            $GPGGA,174101.000,4144.3407,N,06959.5826,W,2,09,0.87,5.5,M,-34.3,M,0000,0000*5F 
132.708         GPS_NMEA_FROM_GPS    iGPS            $GPGGA,174102.000,4144.3405,N,06959.5825,W,2,09,0.87,5.6,M,-34.3,M,0000,0000*5E 
133.711         GPS_NMEA_FROM_GPS    iGPS            $GPGGA,174103.000,4144.3404,N,06959.5823,W,2,09,0.87,5.7,M,-34.3,M,0000,0000*59 
134.713         GPS_NMEA_FROM_GPS    iGPS            $GPGGA,174104.000,4144.3403,N,06959.5822,W,2,09,0.87,5.7,M,-34.3,M,0000,0000*58 
135.716         GPS_NMEA_FROM_GPS    iGPS            $GPGGA,174105.000,4144.3402,N,06959.5821,W,2,09,0.87,5.8,M,-34.3,M,0000,0000*54 
136.719         GPS_NMEA_FROM_GPS    iGPS            $GPGGA,174106.000,4144.3400,N,06959.5820,W,2,09,0.89,5.9,M,-34.3,M,0000,0000*5B 
137.722         GPS_NMEA_FROM_GPS    iGPS            $GPGGA,174107.000,4144.3399,N,06959.5819,W,2,09,0.89,5.9,M,-34.3,M,0000,0000*57 
138.724         GPS_NMEA_FROM_GPS    iGPS            $GPGGA,174108.000,4144.3398,N,06959.5817,W,2,09,0.89,5.9,M,-34.3,M,0000,0000*57 
139.727         GPS_NMEA_FROM_GPS    iGPS            $GPGGA,174109.000,4144.3397,N,06959.5816,W,2,09,0.89,5.9,M,-34.3,M,0000,0000*58 
140.729         GPS_NMEA_FROM_GPS    iGPS            $GPRMC,174110.000,A,4144.3396,N,06959.5815,W,0.53,143.80,220321,,,D*73 
141.732         GPS_NMEA_FROM_GPS    iGPS            $GPGGA,174111.000,4144.3394,N,06959.5814,W,2,09,0.87,6.1,M,-34.3,M,0000,0000*55 
142.635         GPS_NMEA_FROM_GPS    iGPS            $GPGGA,174112.000,4144.3393,N,06959.5812,W,2,09,0.87,6.2,M,-34.3,M,0000,0000*54 
143.638         GPS_NMEA_FROM_GPS    iGPS            $GPGGA,174113.000,4144.3392,N,06959.5811,W,2,09,0.87,6.3,M,-34.3,M,0000,0000*56 
144.641         GPS_NMEA_FROM_GPS    iGPS            $GPGGA,174114.000,4144.3390,N,06959.5809,W,2,09,0.87,6.3,M,-34.3,M,0000,0000*5A 
145.744         GPS_NMEA_FROM_GPS    iGPS            $GPRMC,174115.000,A,4144.3389,N,06959.5808,W,0.53,144.12,220321,,,D*78 
146.746         GPS_NMEA_FROM_GPS    iGPS            $GPGGA,174116.000,4144.3387,N,06959.5806,W,2,09,0.87,6.4,M,-34.3,M,0000,0000*56 
147.649         GPS_NMEA_FROM_GPS    iGPS            $GPGGA,174117.000,4144.3386,N,06959.5805,W,2,09,0.89,6.4,M,-34.3,M,0000,0000*5B 
148.752         GPS_NMEA_FROM_GPS    iGPS            $GPRMC,174118.000,A,4144.3385,N,06959.5804,W,0.58,144.70,220321,,,D*7A 
149.654         GPS_NMEA_FROM_GPS    iGPS            $GPGGA,174119.000,4144.3384,N,06959.5802,W,2,09,0.87,6.4,M,-34.3,M,0000,0000*5E 
150.657         GPS_NMEA_FROM_GPS    iGPS            $GPGGA,174120.000,4144.3383,N,06959.5801,W,2,09,0.87,6.5,M,-34.3,M,0000,0000*51 
151.660         GPS_NMEA_FROM_GPS    iGPS            $GPGGA,174121.000,4144.3381,N,06959.5799,W,2,09,0.89,6.5,M,-34.3,M,0000,0000*52 
152.663         GPS_NMEA_FROM_GPS    iGPS            $GPGGA,174122.000,4144.3380,N,06959.5798,W,2,09,0.87,6.6,M,-34.3,M,0000,0000*5C 
153.665         GPS_NMEA_FROM_GPS    iGPS            $GPGGA,174123.000,4144.3378,N,06959.5796,W,2,09,0.87,6.7,M,-34.3,M,0000,0000*55 
154.769         GPS_NMEA_FROM_GPS    iGPS            $GPRMC,174124.000,A,4144.3376,N,06959.5794,W,0.65,142.67,220321,,,D*71 
155.771         GPS_NMEA_FROM_GPS    iGPS            $GPGGA,174125.000,4144.3375,N,06959.5792,W,2,09,0.87,7.0,M,-34.3,M,0000,0000*5C 
156.774         GPS_NMEA_FROM_GPS    iGPS            $GPRMC,174126.000,A,4144.3373,N,06959.5791,W,0.65,142.66,220321,,,D*72 
157.777         GPS_NMEA_FROM_GPS    iGPS            $GPRMC,174127.000,A,4144.3372,N,06959.5789,W,0.66,143.71,220321,,,D*7F 
158.679         GPS_NMEA_FROM_GPS    iGPS            $GPGGA,174128.000,4144.3370,N,06959.5788,W,2,09,0.87,7.3,M,-34.3,M,0000,0000*5C 
159.682         GPS_NMEA_FROM_GPS    iGPS            $GPGGA,174129.000,4144.3368,N,06959.5786,W,2,09,0.87,7.3,M,-34.3,M,0000,0000*5A 
160.684         GPS_NMEA_FROM_GPS    iGPS            $GPGGA,174130.000,4144.3367,N,06959.5785,W,2,09,0.87,7.3,M,-34.3,M,0000,0000*5E 
161.687         GPS_NMEA_FROM_GPS    iGPS            $GPGGA,174131.000,4144.3365,N,06959.5784,W,2,09,0.87,7.4,M,-34.3,M,0000,0000*5B 
162.690         GPS_NMEA_FROM_GPS    iGPS            $GPGGA,174132.000,4144.3364,N,06959.5783,W,2,09,0.89,7.4,M,-34.3,M,0000,0000*50 
163.692         GPS_NMEA_FROM_GPS    iGPS            $GPRMC,174133.000,A,4144.3362,N,06959.5781,W,0.60,141.83,220321,,,D*7A 
164.695         GPS_NMEA_FROM_GPS    iGPS            $GPGGA,174134.000,4144.3361,N,06959.5780,W,2,09,0.89,7.5,M,-34.3,M,0000,0000*51 
165.698         GPS_NMEA_FROM_GPS    iGPS            $GPRMC,174135.000,A,4144.3359,N,06959.5778,W,0.63,142.98,220321,,,D*78 
166.701         GPS_NMEA_FROM_GPS    iGPS            $GPRMC,174136.000,A,4144.3358,N,06959.5777,W,0.59,143.58,220321,,,D*71 
167.703         GPS_NMEA_FROM_GPS    iGPS            $GPGGA,174137.000,4144.3356,N,06959.5776,W,2,09,0.87,8.0,M,-34.3,M,0000,0000*5B 
168.706         GPS_NMEA_FROM_GPS    iGPS            $GPGGA,174138.000,4144.3355,N,06959.5774,W,2,09,0.87,8.1,M,-34.3,M,0000,0000*54 
169.708         GPS_NMEA_FROM_GPS    iGPS            $GPGGA,174139.000,4144.3353,N,06959.5773,W,2,09,0.89,8.1,M,-34.3,M,0000,0000*5A 
170.711         GPS_NMEA_FROM_GPS    iGPS            $GPGGA,174140.000,4144.3352,N,06959.5771,W,2,09,0.89,8.1,M,-34.3,M,0000,0000*57 
171.714         GPS_NMEA_FROM_GPS    iGPS            $GPRMC,174141.000,A,4144.3351,N,06959.5770,W,0.56,145.85,220321,,,D*76 
172.716         GPS_NMEA_FROM_GPS    iGPS            $GPRMC,174142.000,A,4144.3349,N,06959.5769,W,0.54,145.66,220321,,,D*7B 
173.618         GPS_NMEA_FROM_GPS    iGPS            $GPGGA,174143.000,4144.3348,N,06959.5767,W,2,09,0.87,8.1,M,-34.3,M,0000,0000*56 
174.721         GPS_NMEA_FROM_GPS    iGPS            $GPGGA,174144.000,4144.3347,N,06959.5766,W,2,09,0.87,8.1,M,-34.3,M,0000,0000*5F 
175.724         GPS_NMEA_FROM_GPS    iGPS            $GPRMC,174145.000,A,4144.3346,N,06959.5765,W,0.54,145.04,220321,,,D*7B 
176.726         GPS_NMEA_FROM_GPS    iGPS            $GPGGA,174146.000,4144.3345,N,06959.5764,W,2,09,0.87,8.0,M,-34.3,M,0000,0000*5C 
177.729         GPS_NMEA_FROM_GPS    iGPS            $GPGGA,174147.000,4144.3344,N,06959.5763,W,2,09,0.87,8.0,M,-34.3,M,0000,0000*5B 
178.732         GPS_NMEA_FROM_GPS    iGPS            $GPGGA,174148.000,4144.3342,N,06959.5762,W,2,09,0.89,8.1,M,-34.3,M,0000,0000*5C 
179.734         GPS_NMEA_FROM_GPS    iGPS            $GPGGA,174149.000,4144.3341,N,06959.5761,W,2,09,0.87,8.1,M,-34.3,M,0000,0000*53 
180.738         GPS_NMEA_FROM_GPS    iGPS            $GPGGA,174150.000,4144.3340,N,06959.5760,W,2,09,0.87,8.1,M,-34.3,M,0000,0000*5B 
181.740         GPS_NMEA_FROM_GPS    iGPS            $GPGGA,174151.000,4144.3338,N,06959.5759,W,2,09,0.89,8.1,M,-34.3,M,0000,0000*51 
182.745         GPS_NMEA_FROM_GPS    iGPS            $GPGGA,174152.000,4144.3337,N,06959.5758,W,2,09,0.89,8.2,M,-34.3,M,0000,0000*5F 
183.746         GPS_NMEA_FROM_GPS    iGPS            $GPGGA,174153.000,4144.3336,N,06959.5756,W,2,09,0.89,8.2,M,-34.3,M,0000,0000*51 
184.649         GPS_NMEA_FROM_GPS    iGPS            $GPGGA,174154.000,4144.3335,N,06959.5755,W,2,09,0.89,8.2,M,-34.3,M,0000,0000*56 
185.652         GPS_NMEA_FROM_GPS    iGPS            $GPGGA,174155.000,4144.3333,N,06959.5754,W,2,09,0.87,8.2,M,-34.3,M,0000,0000*5E 
186.654         GPS_NMEA_FROM_GPS    iGPS            $GPGGA,174156.000,4144.3332,N,06959.5752,W,2,09,0.87,8.1,M,-34.3,M,0000,0000*59 
187.657         GPS_NMEA_FROM_GPS    iGPS            $GPGGA,174157.000,4144.3331,N,06959.5751,W,2,09,0.87,8.1,M,-34.3,M,0000,0000*58 
188.760         GPS_NMEA_FROM_GPS    iGPS            $GPGGA,174158.000,4144.3330,N,06959.5749,W,2,09,0.87,8.1,M,-34.3,M,0000,0000*5F 
189.763         GPS_NMEA_FROM_GPS    iGPS            $GPRMC,174159.000,A,4144.3329,N,06959.5747,W,0.60,137.72,220321,,,D*7C 
190.665         GPS_NMEA_FROM_GPS    iGPS            $GPGGA,174200.000,4144.3328,N,06959.5746,W,2,09,0.87,8.2,M,-34.3,M,0000,0000*54 
191.768         GPS_NMEA_FROM_GPS    iGPS            $GPGGA,174201.000,4144.3326,N,06959.5744,W,2,09,0.87,8.2,M,-34.3,M,0000,0000*59 
192.670         GPS_NMEA_FROM_GPS    iGPS            $GPGGA,174202.000,4144.3325,N,06959.5742,W,2,09,0.87,8.3,M,-34.3,M,0000,0000*5E 
193.673         GPS_NMEA_FROM_GPS    iGPS            $GPGGA,174203.000,4144.3323,N,06959.5741,W,2,09,0.87,8.3,M,-34.3,M,0000,0000*5A 
194.676         GPS_NMEA_FROM_GPS    iGPS            $GPGGA,174204.000,4144.3322,N,06959.5739,W,2,09,0.87,8.3,M,-34.3,M,0000,0000*53 
195.678         GPS_NMEA_FROM_GPS    iGPS            $GPGGA,174205.000,4144.3320,N,06959.5737,W,2,09,0.87,8.3,M,-34.3,M,0000,0000*5E 
196.681         GPS_NMEA_FROM_GPS    iGPS            $GPGGA,174206.000,4144.3319,N,06959.5735,W,2,09,0.87,8.3,M,-34.3,M,0000,0000*55 
197.784         GPS_NMEA_FROM_GPS    iGPS            $GPRMC,174207.000,A,4144.3317,N,06959.5734,W,0.59,136.23,220321,,,D*72 
198.687         GPS_NMEA_FROM_GPS    iGPS            $GPGGA,174208.000,4144.3316,N,06959.5732,W,2,09,0.87,8.3,M,-34.3,M,0000,0000*53 
199.690         GPS_NMEA_FROM_GPS    iGPS            $GPGGA,174209.000,4144.3314,N,06959.5730,W,2,09,0.87,8.3,M,-34.3,M,0000,0000*52 
200.793         GPS_NMEA_FROM_GPS    iGPS            $GPRMC,174210.000,A,4144.3313,N,06959.5728,W,0.61,135.26,220321,,,D*70 
201.694         GPS_NMEA_FROM_GPS    iGPS            $GPGGA,174211.000,4144.3311,N,06959.5726,W,2,09,0.87,8.3,M,-34.3,M,0000,0000*59 
202.697         GPS_NMEA_FROM_GPS    iGPS            $GPGGA,174212.000,4144.3310,N,06959.5724,W,2,09,0.87,8.3,M,-34.3,M,0000,0000*59 
203.800         GPS_NMEA_FROM_GPS    iGPS            $GPRMC,174213.000,A,4144.3309,N,06959.5723,W,0.59,137.71,220321,,,D*78 
204.802         GPS_NMEA_FROM_GPS    iGPS            $GPRMC,174214.000,A,4144.3307,N,06959.5722,W,0.64,138.55,220321,,,D*77 
205.704         GPS_NMEA_FROM_GPS    iGPS            $GPGGA,174215.000,4144.3306,N,06959.5720,W,2,09,0.87,8.5,M,-34.3,M,0000,0000*5B 
206.707         GPS_NMEA_FROM_GPS    iGPS            $GPGGA,174216.000,4144.3305,N,06959.5719,W,2,09,0.90,8.4,M,-34.3,M,0000,0000*56 
207.709         GPS_NMEA_FROM_GPS    iGPS            $GPGGA,174217.000,4144.3304,N,06959.5718,W,2,09,0.89,8.4,M,-34.3,M,0000,0000*5F 
208.712         GPS_NMEA_FROM_GPS    iGPS            $GPRMC,174218.000,A,4144.3303,N,06959.5717,W,0.56,140.84,220321,,,D*7B 
209.715         GPS_NMEA_FROM_GPS    iGPS            $GPGGA,174219.000,4144.3301,N,06959.5715,W,2,09,0.87,8.3,M,-34.3,M,0000,0000*50 
210.717         GPS_NMEA_FROM_GPS    iGPS            $GPGGA,174220.000,4144.3301,N,06959.5714,W,2,09,0.90,8.3,M,-34.3,M,0000,0000*5D 
211.720         GPS_NMEA_FROM_GPS    iGPS            $GPGGA,174221.000,4144.3299,N,06959.5712,W,2,09,0.87,8.2,M,-34.3,M,0000,0000*5D 
212.724         GPS_NMEA_FROM_GPS    iGPS            $GPGGA,174222.000,4144.3298,N,06959.5711,W,2,09,0.87,8.2,M,-34.3,M,0000,0000*5C 
213.726         GPS_NMEA_FROM_GPS    iGPS            $GPRMC,174223.000,A,4144.3297,N,06959.5710,W,0.56,139.58,220321,,,D*77 
214.729         GPS_NMEA_FROM_GPS    iGPS            $GPRMC,174224.000,A,4144.3296,N,06959.5708,W,0.57,140.21,220321,,,D*79 
215.731         GPS_NMEA_FROM_GPS    iGPS            $GPRMC,174225.000,A,4144.3295,N,06959.5707,W,0.55,140.28,220321,,,D*7F 
216.634         GPS_NMEA_FROM_GPS    iGPS            $GPGGA,174226.000,4144.3293,N,06959.5706,W,2,09,0.90,8.2,M,-34.3,M,0000,0000*53 
217.737         GPS_NMEA_FROM_GPS    iGPS            $GPRMC,174227.000,A,4144.3292,N,06959.5705,W,0.56,140.91,220321,,,D*79 
218.739         GPS_NMEA_FROM_GPS    iGPS            $GPGGA,174228.000,4144.3291,N,06959.5703,W,2,09,0.87,8.3,M,-34.3,M,0000,0000*5D 
219.741         GPS_NMEA_FROM_GPS    iGPS            $GPRMC,174229.000,A,4144.3290,N,06959.5702,W,0.55,139.06,220321,,,D*71 
220.744         GPS_NMEA_FROM_GPS    iGPS            $GPRMC,174230.000,A,4144.3289,N,06959.5701,W,0.55,137.39,220321,,,D*70 
221.746         GPS_NMEA_FROM_GPS    iGPS            $GPGGA,174231.000,4144.3288,N,06959.5699,W,2,09,0.90,8.3,M,-34.3,M,0000,0000*59 
222.748         GPS_NMEA_FROM_GPS    iGPS            $GPGGA,174232.000,4144.3287,N,06959.5698,W,2,09,0.90,8.3,M,-34.3,M,0000,0000*54 
223.651         GPS_NMEA_FROM_GPS    iGPS            $GPGGA,174233.000,4144.3286,N,06959.5696,W,2,09,0.90,8.3,M,-34.3,M,0000,0000*5A 
224.754         GPS_NMEA_FROM_GPS    iGPS            $GPRMC,174234.000,A,4144.3285,N,06959.5695,W,0.57,131.60,220321,,,D*7C 
225.656         GPS_NMEA_FROM_GPS    iGPS            $GPGGA,174235.000,4144.3284,N,06959.5693,W,2,09,0.90,8.3,M,-34.3,M,0000,0000*5B 
226.759         GPS_NMEA_FROM_GPS    iGPS            $GPGGA,174236.000,4144.3283,N,06959.5691,W,2,09,0.90,8.3,M,-34.3,M,0000,0000*5D 
227.662         GPS_NMEA_FROM_GPS    iGPS            $GPGGA,174237.000,4144.3282,N,06959.5690,W,2,09,0.90,8.3,M,-34.3,M,0000,0000*5C 
228.665         GPS_NMEA_FROM_GPS    iGPS            $GPGGA,174238.000,4144.3281,N,06959.5689,W,2,09,0.90,8.3,M,-34.3,M,0000,0000*58 
229.668         GPS_NMEA_FROM_GPS    iGPS            $GPGGA,174239.000,4144.3280,N,06959.5687,W,2,09,0.90,8.3,M,-34.3,M,0000,0000*56 
230.770         GPS_NMEA_FROM_GPS    iGPS            $GPGGA,174240.000,4144.3279,N,06959.5686,W,2,09,0.90,8.2,M,-34.3,M,0000,0000*5E 
231.673         GPS_NMEA_FROM_GPS    iGPS            $GPGGA,174241.000,4144.3279,N,06959.5684,W,2,09,0.90,8.2,M,-34.3,M,0000,0000*5D 
232.676         GPS_NMEA_FROM_GPS    iGPS            $GPGGA,174242.000,4144.3278,N,06959.5683,W,2,09,0.90,8.1,M,-34.3,M,0000,0000*5B 
233.779         GPS_NMEA_FROM_GPS    iGPS            $GPGGA,174243.000,4144.3278,N,06959.5681,W,2,09,0.90,8.1,M,-34.3,M,0000,0000*58 
234.681         GPS_NMEA_FROM_GPS    iGPS            $GPGGA,174244.000,4144.3277,N,06959.5679,W,2,09,0.90,8.0,M,-34.3,M,0000,0000*56 
235.684         GPS_NMEA_FROM_GPS    iGPS            $GPGGA,174245.000,4144.3276,N,06959.5677,W,2,09,0.90,8.0,M,-34.3,M,0000,0000*58 
236.687         GPS_NMEA_FROM_GPS    iGPS            $GPGGA,174246.000,4144.3275,N,06959.5674,W,2,09,0.90,8.0,M,-34.3,M,0000,0000*5B 
237.790         GPS_NMEA_FROM_GPS    iGPS            $GPRMC,174247.000,A,4144.3275,N,06959.5672,W,0.63,121.51,220321,,,D*7A 
238.692         GPS_NMEA_FROM_GPS    iGPS            $GPGGA,174248.000,4144.3274,N,06959.5671,W,2,09,0.90,7.9,M,-34.3,M,0000,0000*57 
239.795         GPS_NMEA_FROM_GPS    iGPS            $GPRMC,174249.000,A,4144.3273,N,06959.5669,W,0.54,122.47,220321,,,D*78 
240.697         GPS_NMEA_FROM_GPS    iGPS            $GPGGA,174250.000,4144.3272,N,06959.5668,W,2,09,0.90,7.9,M,-34.3,M,0000,0000*50 
241.700         GPS_NMEA_FROM_GPS    iGPS            $GPGGA,174251.000,4144.3272,N,06959.5668,W,2,09,0.90,7.8,M,-34.3,M,0000,0000*50 
242.803         GPS_NMEA_FROM_GPS    iGPS            $GPRMC,174252.000,A,4144.3271,N,06959.5668,W,0.31,126.51,220321,,,D*71 
243.705         GPS_NMEA_FROM_GPS    iGPS            $GPGGA,174253.000,4144.3271,N,06959.5667,W,2,09,0.90,7.7,M,-34.3,M,0000,0000*51 
244.710         GPS_NMEA_FROM_GPS    iGPS            $GPGGA,174254.000,4144.3271,N,06959.5667,W,2,09,0.90,7.6,M,-34.3,M,0000,0000*57 
245.712         GPS_NMEA_FROM_GPS    iGPS            $GPGGA,174255.000,4144.3270,N,06959.5666,W,2,09,0.90,7.6,M,-34.3,M,0000,0000*56 
246.715         GPS_NMEA_FROM_GPS    iGPS            $GPGGA,174256.000,4144.3270,N,06959.5665,W,2,09,0.90,7.5,M,-34.3,M,0000,0000*55 
247.718         GPS_NMEA_FROM_GPS    iGPS            $GPGGA,174257.000,4144.3269,N,06959.5665,W,2,09,0.90,7.5,M,-34.3,M,0000,0000*5C 
248.720         GPS_NMEA_FROM_GPS    iGPS            $GPRMC,174258.000,A,4144.3269,N,06959.5663,W,0.26,121.54,220321,,,D*7D 
249.723         GPS_NMEA_FROM_GPS    iGPS            $GPRMC,174259.000,A,4144.3269,N,06959.5662,W,0.25,117.18,220321,,,D*73 
250.726         GPS_NMEA_FROM_GPS    iGPS            $GPRMC,174300.000,A,4144.3269,N,06959.5661,W,0.23,113.65,220321,,,D*75 
251.728         GPS_NMEA_FROM_GPS    iGPS            $GPGGA,174301.000,4144.3269,N,06959.5660,W,2,09,0.87,7.5,M,-34.3,M,0000,0000*5D 
252.731         GPS_NMEA_FROM_GPS    iGPS            $GPRMC,174302.000,A,4144.3268,N,06959.5659,W,0.19,113.24,220321,,,D*71 
253.734         GPS_NMEA_FROM_GPS    iGPS            $GPRMC,174303.000,A,4144.3267,N,06959.5659,W,0.18,116.78,220321,,,D*72 
254.736         GPS_NMEA_FROM_GPS    iGPS            $GPGGA,174304.000,4144.3267,N,06959.5658,W,2,08,0.98,7.4,M,-34.3,M,0000,0000*53 
255.739         GPS_NMEA_FROM_GPS    iGPS            $GPGGA,174305.000,4144.3267,N,06959.5658,W,2,08,0.99,7.4,M,-34.3,M,0000,0000*53 
256.641         GPS_NMEA_FROM_GPS    iGPS            $GPGGA,174306.000,4144.3267,N,06959.5657,W,2,08,0.98,7.3,M,-34.3,M,0000,0000*59 
257.744         GPS_NMEA_FROM_GPS    iGPS            $GPRMC,174307.000,A,4144.3266,N,06959.5656,W,0.24,134.57,220321,,,D*7A 
258.646         GPS_NMEA_FROM_GPS    iGPS            $GPGGA,174308.000,4144.3265,N,06959.5655,W,2,08,0.99,7.5,M,-34.3,M,0000,0000*50 
259.649         GPS_NMEA_FROM_GPS    iGPS            $GPGGA,174309.000,4144.3264,N,06959.5653,W,2,08,0.99,7.6,M,-34.3,M,0000,0000*55 
260.752         GPS_NMEA_FROM_GPS    iGPS            $GPGGA,174310.000,4144.3264,N,06959.5652,W,2,09,0.90,7.8,M,-34.3,M,0000,0000*5A 
261.754         GPS_NMEA_FROM_GPS    iGPS            $GPRMC,174311.000,A,4144.3263,N,06959.5652,W,0.22,152.12,220321,,,D*7B 
262.757         GPS_NMEA_FROM_GPS    iGPS            $GPRMC,174312.000,A,4144.3264,N,06959.5650,W,0.14,152.94,220321,,,D*76 
263.659         GPS_NMEA_FROM_GPS    iGPS            $GPGGA,174313.000,4144.3264,N,06959.5648,W,2,08,0.99,8.5,M,-34.3,M,0000,0000*58 
264.661         GPS_NMEA_FROM_GPS    iGPS            $GPGGA,174314.000,4144.3265,N,06959.5646,W,2,08,0.99,8.6,M,-34.3,M,0000,0000*53 
265.764         GPS_NMEA_FROM_GPS    iGPS            $GPRMC,174315.000,A,4144.3266,N,06959.5645,W,0.11,43.76,220321,,,D*4F 
266.767         GPS_NMEA_FROM_GPS    iGPS            $GPRMC,174316.000,A,4144.3267,N,06959.5643,W,0.19,67.20,220321,,,D*46 
267.769         GPS_NMEA_FROM_GPS    iGPS            $GPRMC,174317.000,A,4144.3268,N,06959.5642,W,0.21,65.93,220321,,,D*48 
268.672         GPS_NMEA_FROM_GPS    iGPS            $GPGGA,174318.000,4144.3270,N,06959.5641,W,2,09,0.90,9.3,M,-34.3,M,0000,0000*50 
269.775         GPS_NMEA_FROM_GPS    iGPS            $GPRMC,174319.000,A,4144.3272,N,06959.5639,W,0.30,60.36,220321,,,D*4B 
270.677         GPS_NMEA_FROM_GPS    iGPS            $GPGGA,174320.000,4144.3273,N,06959.5638,W,2,09,0.90,9.6,M,-34.3,M,0000,0000*53 
271.680         GPS_NMEA_FROM_GPS    iGPS            $GPGGA,174321.000,4144.3274,N,06959.5637,W,2,09,0.90,9.8,M,-34.3,M,0000,0000*54 
272.682         GPS_NMEA_FROM_GPS    iGPS            $GPGGA,174322.000,4144.3275,N,06959.5637,W,2,09,0.90,9.9,M,-34.3,M,0000,0000*57 
273.785         GPS_NMEA_FROM_GPS    iGPS            $GPRMC,174323.000,A,4144.3276,N,06959.5636,W,0.34,34.17,220321,,,D*4F 
274.688         GPS_NMEA_FROM_GPS    iGPS            $GPGGA,174324.000,4144.3277,N,06959.5637,W,2,09,0.90,10.0,M,-34.3,M,0000,0000*62 
275.791         GPS_NMEA_FROM_GPS    iGPS            $GPRMC,174325.000,A,4144.3278,N,06959.5636,W,0.32,23.54,220321,,,D*40 
276.693         GPS_NMEA_FROM_GPS    iGPS            $GPGGA,174326.000,4144.3279,N,06959.5636,W,2,09,0.90,10.1,M,-34.3,M,0000,0000*6E 
277.695         GPS_NMEA_FROM_GPS    iGPS            $GPGGA,174327.000,4144.3280,N,06959.5636,W,2,09,0.90,10.1,M,-34.3,M,0000,0000*69 
278.698         GPS_NMEA_FROM_GPS    iGPS            $GPGGA,174328.000,4144.3282,N,06959.5636,W,2,09,0.90,10.1,M,-34.3,M,0000,0000*64 
279.700         GPS_NMEA_FROM_GPS    iGPS            $GPGGA,174329.000,4144.3284,N,06959.5635,W,2,09,0.90,10.3,M,-34.3,M,0000,0000*62 
280.703         GPS_NMEA_FROM_GPS    iGPS            $GPGGA,174330.000,4144.3286,N,06959.5634,W,2,09,0.90,10.3,M,-34.3,M,0000,0000*69 
281.706         GPS_NMEA_FROM_GPS    iGPS            $GPGGA,174331.000,4144.3288,N,06959.5633,W,2,09,0.90,10.4,M,-34.3,M,0000,0000*66 
282.709         GPS_NMEA_FROM_GPS    iGPS            $GPGGA,174332.000,4144.3290,N,06959.5633,W,2,09,0.90,10.4,M,-34.3,M,0000,0000*6C 
283.711         GPS_NMEA_FROM_GPS    iGPS            $GPGGA,174333.000,4144.3292,N,06959.5631,W,2,09,0.90,10.5,M,-34.3,M,0000,0000*6C 
284.714         GPS_NMEA_FROM_GPS    iGPS            $GPGGA,174334.000,4144.3294,N,06959.5630,W,2,09,0.90,10.7,M,-34.3,M,0000,0000*6E 
285.717         GPS_NMEA_FROM_GPS    iGPS            $GPGGA,174335.000,4144.3296,N,06959.5629,W,2,09,0.90,10.8,M,-34.3,M,0000,0000*6A 
286.720         GPS_NMEA_FROM_GPS    iGPS            $GPGGA,174336.000,4144.3298,N,06959.5629,W,2,09,0.90,10.9,M,-34.3,M,0000,0000*66 
287.723         GPS_NMEA_FROM_GPS    iGPS            $GPGGA,174337.000,4144.3300,N,06959.5628,W,2,08,1.45,11.0,M,-34.3,M,0000,0000*66 
288.725         GPS_NMEA_FROM_GPS    iGPS            $GPGGA,174338.000,4144.3302,N,06959.5627,W,2,08,1.45,11.0,M,-34.3,M,0000,0000*64 
289.728         GPS_NMEA_FROM_GPS    iGPS            $GPGGA,174339.000,4144.3305,N,06959.5626,W,2,08,1.45,11.0,M,-34.3,M,0000,0000*63 
290.731         GPS_NMEA_FROM_GPS    iGPS            $GPGGA,174340.000,4144.3306,N,06959.5625,W,2,09,0.90,11.1,M,-34.3,M,0000,0000*64 
291.733         GPS_NMEA_FROM_GPS    iGPS            $GPGGA,174341.000,4144.3307,N,06959.5623,W,2,09,0.90,11.2,M,-34.3,M,0000,0000*61 
292.636         GPS_NMEA_FROM_GPS    iGPS            $GPGGA,174342.000,4144.3308,N,06959.5622,W,2,09,0.90,11.2,M,-34.3,M,0000,0000*6C 
293.739         GPS_NMEA_FROM_GPS    iGPS            $GPRMC,174343.000,A,4144.3309,N,06959.5620,W,0.58,25.63,220321,,,D*4E 
294.742         GPS_NMEA_FROM_GPS    iGPS            $GPGGA,174344.000,4144.3310,N,06959.5618,W,2,09,0.90,11.3,M,-34.3,M,0000,0000*6B 
295.644         GPS_NMEA_FROM_GPS    iGPS            $GPGGA,174345.000,4144.3311,N,06959.5614,W,2,09,0.90,11.5,M,-34.3,M,0000,0000*61 
296.747         GPS_NMEA_FROM_GPS    iGPS            $GPRMC,174346.000,A,4144.3311,N,06959.5612,W,0.64,39.29,220321,,,D*4F 
297.750         GPS_NMEA_FROM_GPS    iGPS            $GPGGA,174347.000,4144.3312,N,06959.5611,W,2,09,0.90,11.6,M,-34.3,M,0000,0000*66 
298.652         GPS_NMEA_FROM_GPS    iGPS            $GPGGA,174348.000,4144.3314,N,06959.5609,W,2,09,0.90,11.6,M,-34.3,M,0000,0000*66 
299.755         GPS_NMEA_FROM_GPS    iGPS            $GPGGA,174349.000,4144.3316,N,06959.5608,W,2,09,0.90,11.7,M,-34.3,M,0000,0000*65 
300.658         GPS_NMEA_FROM_GPS    iGPS            $GPGGA,174350.000,4144.3318,N,06959.5606,W,2,09,0.90,11.7,M,-34.3,M,0000,0000*6D 
301.660         GPS_NMEA_FROM_GPS    iGPS            $GPGGA,174351.000,4144.3319,N,06959.5603,W,2,09,0.90,11.8,M,-34.3,M,0000,0000*67 
302.663         GPS_NMEA_FROM_GPS    iGPS            $GPGGA,174352.000,4144.3320,N,06959.5601,W,2,09,0.90,11.9,M,-34.3,M,0000,0000*6D 
303.766         GPS_NMEA_FROM_GPS    iGPS            $GPRMC,174353.000,A,4144.3320,N,06959.5599,W,0.68,51.70,220321,,,D*47 
304.769         GPS_NMEA_FROM_GPS    iGPS            $GPRMC,174354.000,A,4144.3321,N,06959.5597,W,0.66,53.51,220321,,,D*40 
305.671         GPS_NMEA_FROM_GPS    iGPS            $GPGGA,174355.000,4144.3321,N,06959.5594,W,2,09,0.90,11.7,M,-34.3,M,0000,0000*6A 
306.674         GPS_NMEA_FROM_GPS    iGPS            $GPGGA,174356.000,4144.3322,N,06959.5592,W,2,09,0.90,11.6,M,-34.3,M,0000,0000*6D 
307.777         GPS_NMEA_FROM_GPS    iGPS            $GPRMC,174357.000,A,4144.3323,N,06959.5590,W,0.67,59.35,220321,,,D*4F 
308.780         GPS_NMEA_FROM_GPS    iGPS            $GPRMC,174358.000,A,4144.3323,N,06959.5589,W,0.62,60.16,220321,,,D*46 
309.682         GPS_NMEA_FROM_GPS    iGPS            $GPGGA,174359.000,4144.3324,N,06959.5587,W,2,08,1.45,11.4,M,-34.3,M,0000,0000*6A 
310.684         GPS_NMEA_FROM_GPS    iGPS            $GPGGA,174400.000,4144.3324,N,06959.5586,W,2,08,1.45,11.4,M,-34.3,M,0000,0000*60 
311.687         GPS_NMEA_FROM_GPS    iGPS            $GPGGA,174401.000,4144.3325,N,06959.5584,W,2,08,1.45,11.4,M,-34.3,M,0000,0000*62 
312.690         GPS_NMEA_FROM_GPS    iGPS            $GPGGA,174402.000,4144.3326,N,06959.5583,W,2,08,1.45,11.4,M,-34.3,M,0000,0000*65 
313.692         GPS_NMEA_FROM_GPS    iGPS            $GPGGA,174403.000,4144.3326,N,06959.5582,W,2,08,1.45,11.5,M,-34.3,M,0000,0000*64 
314.695         GPS_NMEA_FROM_GPS    iGPS            $GPGGA,174404.000,4144.3328,N,06959.5580,W,2,08,1.45,11.3,M,-34.3,M,0000,0000*69 
315.698         GPS_NMEA_FROM_GPS    iGPS            $GPGGA,174405.000,4144.3328,N,06959.5579,W,2,08,1.45,11.2,M,-34.3,M,0000,0000*6F 
316.701         GPS_NMEA_FROM_GPS    iGPS            $GPGGA,174406.000,4144.3329,N,06959.5578,W,2,08,1.45,11.1,M,-34.3,M,0000,0000*6F 
317.704         GPS_NMEA_FROM_GPS    iGPS            $GPGGA,174407.000,4144.3330,N,06959.5576,W,2,09,0.90,11.0,M,-34.3,M,0000,0000*61 
318.707         GPS_NMEA_FROM_GPS    iGPS            $GPGGA,174408.000,4144.3330,N,06959.5574,W,2,08,1.45,10.9,M,-34.3,M,0000,0000*6C 
319.710         GPS_NMEA_FROM_GPS    iGPS            $GPRMC,174409.000,A,4144.3330,N,06959.5572,W,0.57,71.23,220321,,,D*43 
320.713         GPS_NMEA_FROM_GPS    iGPS            $GPRMC,174410.000,A,4144.3331,N,06959.5571,W,0.54,72.29,220321,,,D*43 
321.715         GPS_NMEA_FROM_GPS    iGPS            $GPGGA,174411.000,4144.3332,N,06959.5569,W,2,08,1.45,10.6,M,-34.3,M,0000,0000*65 
322.718         GPS_NMEA_FROM_GPS    iGPS            $GPGGA,174412.000,4144.3332,N,06959.5567,W,2,09,0.90,10.5,M,-34.3,M,0000,0000*63 
323.721         GPS_NMEA_FROM_GPS    iGPS            $GPGGA,174413.000,4144.3332,N,06959.5565,W,2,08,1.45,10.5,M,-34.3,M,0000,0000*68 
324.723         GPS_NMEA_FROM_GPS    iGPS            $GPGGA,174414.000,4144.3332,N,06959.5563,W,2,08,1.45,10.5,M,-34.3,M,0000,0000*69 
325.725         GPS_NMEA_FROM_GPS    iGPS            $GPGGA,174415.000,4144.3333,N,06959.5562,W,2,09,0.90,10.2,M,-34.3,M,0000,0000*67 
326.628         GPS_NMEA_FROM_GPS    iGPS            $GPGGA,174416.000,4144.3333,N,06959.5560,W,2,08,1.45,9.9,M,-34.3,M,0000,0000*5D 
327.731         GPS_NMEA_FROM_GPS    iGPS            $GPRMC,174417.000,A,4144.3333,N,06959.5558,W,0.59,80.88,220321,,,D*46 
328.734         GPS_NMEA_FROM_GPS    iGPS            $GPGGA,174418.000,4144.3334,N,06959.5556,W,2,09,0.90,9.6,M,-34.3,M,0000,0000*56 
329.736         GPS_NMEA_FROM_GPS    iGPS            $GPGGA,174419.000,4144.3335,N,06959.5554,W,2,08,1.45,9.4,M,-34.3,M,0000,0000*5E 
330.739         GPS_NMEA_FROM_GPS    iGPS            $GPGGA,174420.000,4144.3336,N,06959.5552,W,2,09,0.90,9.1,M,-34.3,M,0000,0000*5C 
331.742         GPS_NMEA_FROM_GPS    iGPS            $GPRMC,174421.000,A,4144.3337,N,06959.5550,W,0.66,78.12,220321,,,D*47 
332.744         GPS_NMEA_FROM_GPS    iGPS            $GPGGA,174422.000,4144.3337,N,06959.5547,W,2,09,0.90,8.7,M,-34.3,M,0000,0000*5C 
333.747         GPS_NMEA_FROM_GPS    iGPS            $GPRMC,174423.000,A,4144.3337,N,06959.5545,W,0.62,81.34,220321,,,D*47 
334.749         GPS_NMEA_FROM_GPS    iGPS            $GPGGA,174424.000,4144.3336,N,06959.5542,W,2,09,0.90,8.7,M,-34.3,M,0000,0000*5E 
335.752         GPS_NMEA_FROM_GPS    iGPS            $GPRMC,174425.000,A,4144.3336,N,06959.5540,W,0.61,86.48,220321,,,D*4A 
336.755         GPS_NMEA_FROM_GPS    iGPS            $GPGGA,174426.000,4144.3335,N,06959.5538,W,2,09,0.90,8.6,M,-34.3,M,0000,0000*53 
337.658         GPS_NMEA_FROM_GPS    iGPS            $GPGGA,174427.000,4144.3336,N,06959.5536,W,2,09,0.90,8.4,M,-34.3,M,0000,0000*5D 
338.661         GPS_NMEA_FROM_GPS    iGPS            $GPGGA,174428.000,4144.3336,N,06959.5535,W,2,09,0.90,8.2,M,-34.3,M,0000,0000*57 
339.764         GPS_NMEA_FROM_GPS    iGPS            $GPRMC,174429.000,A,4144.3336,N,06959.5533,W,0.57,91.37,220321,,,D*49 
340.666         GPS_NMEA_FROM_GPS    iGPS            $GPGGA,174430.000,4144.3335,N,06959.5530,W,2,09,0.90,8.1,M,-34.3,M,0000,0000*5B 
341.668         GPS_NMEA_FROM_GPS    iGPS            $GPGGA,174431.000,4144.3334,N,06959.5528,W,2,09,0.90,8.2,M,-34.3,M,0000,0000*51 
342.771         GPS_NMEA_FROM_GPS    iGPS            $GPGGA,174432.000,4144.3335,N,06959.5526,W,2,09,0.90,8.1,M,-34.3,M,0000,0000*5E 
343.775         GPS_NMEA_FROM_GPS    iGPS            $GPRMC,174433.000,A,4144.3334,N,06959.5524,W,0.59,87.96,220321,,,D*44 
344.677         GPS_NMEA_FROM_GPS    iGPS            $GPGGA,174434.000,4144.3335,N,06959.5523,W,2,09,0.90,7.8,M,-34.3,M,0000,0000*5B 
345.680         GPS_NMEA_FROM_GPS    iGPS            $GPGGA,174435.000,4144.3335,N,06959.5521,W,2,09,0.90,7.6,M,-34.3,M,0000,0000*56 
346.783         GPS_NMEA_FROM_GPS    iGPS            $GPRMC,174436.000,A,4144.3335,N,06959.5519,W,0.60,86.49,220321,,,D*47 
347.785         GPS_NMEA_FROM_GPS    iGPS            $GPRMC,174437.000,A,4144.3335,N,06959.5517,W,0.58,87.12,220321,,,D*4C 
348.687         GPS_NMEA_FROM_GPS    iGPS            $GPGGA,174438.000,4144.3335,N,06959.5515,W,2,09,0.90,7.3,M,-34.3,M,0000,0000*59 
349.689         GPS_NMEA_FROM_GPS    iGPS            $GPGGA,174439.000,4144.3335,N,06959.5514,W,2,09,0.90,7.1,M,-34.3,M,0000,0000*5B 
350.693         GPS_NMEA_FROM_GPS    iGPS            $GPGGA,174440.000,4144.3335,N,06959.5513,W,2,09,0.87,7.1,M,-34.3,M,0000,0000*54 
351.695         GPS_NMEA_FROM_GPS    iGPS            $GPGGA,174441.000,4144.3335,N,06959.5512,W,2,08,0.96,7.1,M,-34.3,M,0000,0000*55 
352.698         GPS_NMEA_FROM_GPS    iGPS            $GPGGA,174442.000,4144.3335,N,06959.5510,W,2,09,0.90,7.1,M,-34.3,M,0000,0000*53 
353.801         GPS_NMEA_FROM_GPS    iGPS            $GPRMC,174443.000,A,4144.3335,N,06959.5508,W,0.45,93.26,220321,,,D*4F 
354.703         GPS_NMEA_FROM_GPS    iGPS            $GPRMC,174444.000,A,4144.3334,N,06959.5507,W,0.50,92.64,220321,,,D*45 
355.705         GPS_NMEA_FROM_GPS    iGPS            $GPGGA,174445.000,4144.3334,N,06959.5505,W,2,09,0.90,7.0,M,-34.3,M,0000,0000*50 
356.707         GPS_NMEA_FROM_GPS    iGPS            $GPRMC,174446.000,A,4144.3334,N,06959.5503,W,0.46,92.95,220321,,,D*4A 
357.709         GPS_NMEA_FROM_GPS    iGPS            $GPGGA,174447.000,4144.3334,N,06959.5501,W,2,09,0.90,6.9,M,-34.3,M,0000,0000*5E 
358.712         GPS_NMEA_FROM_GPS    iGPS            $GPGGA,174448.000,4144.3334,N,06959.5500,W,2,08,0.98,6.9,M,-34.3,M,0000,0000*59 
359.714         GPS_NMEA_FROM_GPS    iGPS            $GPGGA,174449.000,4144.3334,N,06959.5497,W,2,08,0.98,6.8,M,-34.3,M,0000,0000*56 
360.716         GPS_NMEA_FROM_GPS    iGPS            $GPGGA,174450.000,4144.3334,N,06959.5495,W,2,08,0.98,7.0,M,-34.3,M,0000,0000*55 
361.619         GPS_NMEA_FROM_GPS    iGPS            $GPGGA,174451.000,4144.3334,N,06959.5493,W,2,08,0.98,7.1,M,-34.3,M,0000,0000*53 
362.722         GPS_NMEA_FROM_GPS    iGPS            $GPRMC,174452.000,A,4144.3332,N,06959.5491,W,0.59,89.64,220321,,,D*49 
363.725         GPS_NMEA_FROM_GPS    iGPS            $GPGGA,174453.000,4144.3332,N,06959.5489,W,2,08,0.98,7.1,M,-34.3,M,0000,0000*5C 
364.627         GPS_NMEA_FROM_GPS    iGPS            $GPGGA,174454.000,4144.3331,N,06959.5487,W,2,08,0.98,7.0,M,-34.3,M,0000,0000*57 
365.731         GPS_NMEA_FROM_GPS    iGPS            $GPRMC,174455.000,A,4144.3330,N,06959.5486,W,0.54,93.38,220321,,,D*45 
366.633         GPS_NMEA_FROM_GPS    iGPS            $GPGGA,174456.000,4144.3329,N,06959.5483,W,2,07,1.06,7.0,M,-34.3,M,0000,0000*51 
367.736         GPS_NMEA_FROM_GPS    iGPS            $GPGGA,174457.000,4144.3328,N,06959.5481,W,2,08,0.98,7.0,M,-34.3,M,0000,0000*5A 
368.738         GPS_NMEA_FROM_GPS    iGPS            $GPGGA,174458.000,4144.3328,N,06959.5478,W,2,07,1.06,7.0,M,-34.3,M,0000,0000*5A 
369.741         GPS_NMEA_FROM_GPS    iGPS            $GPRMC,174459.000,A,4144.3327,N,06959.5476,W,0.55,94.09,220321,,,D*44 
370.643         GPS_NMEA_FROM_GPS    iGPS            $GPGGA,174500.000,4144.3326,N,06959.5474,W,2,08,0.98,7.1,M,-34.3,M,0000,0000*5C 
371.746         GPS_NMEA_FROM_GPS    iGPS            $GPGGA,174501.000,4144.3326,N,06959.5470,W,2,08,0.98,7.0,M,-34.3,M,0000,0000*58 
372.648         GPS_NMEA_FROM_GPS    iGPS            $GPGGA,174502.000,4144.3326,N,06959.5468,W,2,08,0.98,7.1,M,-34.3,M,0000,0000*53 
373.751         GPS_NMEA_FROM_GPS    iGPS            $GPRMC,174503.000,A,4144.3325,N,06959.5466,W,0.67,92.37,220321,,,D*43 
374.754         GPS_NMEA_FROM_GPS    iGPS            $GPGGA,174504.000,4144.3324,N,06959.5465,W,2,08,0.98,7.0,M,-34.3,M,0000,0000*5B 
375.656         GPS_NMEA_FROM_GPS    iGPS            $GPGGA,174505.000,4144.3323,N,06959.5462,W,2,08,0.98,6.8,M,-34.3,M,0000,0000*53 
376.759         GPS_NMEA_FROM_GPS    iGPS            $GPRMC,174506.000,A,4144.3322,N,06959.5461,W,0.64,94.68,220321,,,D*49 
377.660         GPS_NMEA_FROM_GPS    iGPS            $GPGGA,174507.000,4144.3321,N,06959.5459,W,2,08,0.98,6.5,M,-34.3,M,0000,0000*56 
378.663         GPS_NMEA_FROM_GPS    iGPS            $GPGGA,174508.000,4144.3320,N,06959.5457,W,2,08,0.98,6.3,M,-34.3,M,0000,0000*50 
379.666         GPS_NMEA_FROM_GPS    iGPS            $GPGGA,174509.000,4144.3320,N,06959.5456,W,2,08,0.98,6.2,M,-34.3,M,0000,0000*51 
380.770         GPS_NMEA_FROM_GPS    iGPS            $GPRMC,174510.000,A,4144.3320,N,06959.5454,W,0.62,97.85,220321,,,D*4C 
381.671         GPS_NMEA_FROM_GPS    iGPS            $GPGGA,174511.000,4144.3319,N,06959.5452,W,2,08,0.98,6.1,M,-34.3,M,0000,0000*55 
382.673         GPS_NMEA_FROM_GPS    iGPS            $GPGGA,174512.000,4144.3318,N,06959.5450,W,2,08,0.98,6.0,M,-34.3,M,0000,0000*54 
383.676         GPS_NMEA_FROM_GPS    iGPS            $GPGGA,174513.000,4144.3317,N,06959.5448,W,2,08,0.98,5.9,M,-34.3,M,0000,0000*59 
384.778         GPS_NMEA_FROM_GPS    iGPS            $GPRMC,174514.000,A,4144.3316,N,06959.5447,W,0.59,101.33,220321,,,D*74 
385.681         GPS_NMEA_FROM_GPS    iGPS            $GPGGA,174515.000,4144.3315,N,06959.5445,W,2,07,1.04,5.6,M,-34.3,M,0000,0000*54 
386.683         GPS_NMEA_FROM_GPS    iGPS            $GPGGA,174516.000,4144.3314,N,06959.5444,W,2,07,1.04,5.5,M,-34.3,M,0000,0000*54 
387.686         GPS_NMEA_FROM_GPS    iGPS            $GPGGA,174517.000,4144.3313,N,06959.5442,W,2,06,1.59,5.3,M,-34.3,M,0000,0000*5B 
388.689         GPS_NMEA_FROM_GPS    iGPS            $GPGGA,174518.000,4144.3312,N,06959.5439,W,2,07,1.04,5.2,M,-34.3,M,0000,0000*51 
389.691         GPS_NMEA_FROM_GPS    iGPS            $GPGGA,174519.000,4144.3311,N,06959.5437,W,2,07,1.04,5.0,M,-34.3,M,0000,0000*5F 
390.694         GPS_NMEA_FROM_GPS    iGPS            $GPGGA,174520.000,4144.3310,N,06959.5436,W,2,07,1.04,4.9,M,-34.3,M,0000,0000*5D 
391.697         GPS_NMEA_FROM_GPS    iGPS            $GPGGA,174521.000,4144.3309,N,06959.5434,W,2,07,1.04,4.8,M,-34.3,M,0000,0000*57 
392.699         GPS_NMEA_FROM_GPS    iGPS            $GPGGA,174522.000,4144.3309,N,06959.5434,W,2,07,1.04,4.6,M,-34.3,M,0000,0000*5A 
393.702         GPS_NMEA_FROM_GPS    iGPS            $GPGGA,174523.000,4144.3309,N,06959.5432,W,2,06,1.59,4.5,M,-34.3,M,0000,0000*57 
394.705         GPS_NMEA_FROM_GPS    iGPS            $GPGGA,174524.000,4144.3308,N,06959.5431,W,2,07,1.04,4.5,M,-34.3,M,0000,0000*5B 
395.707         GPS_NMEA_FROM_GPS    iGPS            $GPGGA,174525.000,4144.3308,N,06959.5429,W,2,07,1.04,4.5,M,-34.3,M,0000,0000*53 
396.610         GPS_NMEA_FROM_GPS    iGPS            $GPGGA,174526.000,4144.3307,N,06959.5428,W,2,07,1.04,4.4,M,-34.3,M,0000,0000*5F 
397.712         GPS_NMEA_FROM_GPS    iGPS            $GPGGA,174527.000,4144.3307,N,06959.5426,W,2,06,1.59,4.4,M,-34.3,M,0000,0000*59 
398.615         GPS_NMEA_FROM_GPS    iGPS            $GPGGA,174528.000,4144.3306,N,06959.5424,W,2,07,1.04,4.4,M,-34.3,M,0000,0000*5C 
399.617         GPS_NMEA_FROM_GPS    iGPS            $GPGGA,174529.000,4144.3306,N,06959.5423,W,2,06,1.59,4.3,M,-34.3,M,0000,0000*54 
400.720         GPS_NMEA_FROM_GPS    iGPS            $GPRMC,174530.000,A,4144.3306,N,06959.5421,W,0.30,108.18,220321,,,D*7C 
401.723         GPS_NMEA_FROM_GPS    iGPS            $GPGGA,174531.000,4144.3306,N,06959.5420,W,2,07,1.03,4.3,M,-34.3,M,0000,0000*50 
402.726         GPS_NMEA_FROM_GPS    iGPS            $GPRMC,174532.000,A,4144.3305,N,06959.5419,W,0.22,116.05,220321,,,D*76 
403.728         GPS_NMEA_FROM_GPS    iGPS            $GPGGA,174533.000,4144.3305,N,06959.5419,W,2,06,1.59,4.2,M,-34.3,M,0000,0000*54 
404.631         GPS_NMEA_FROM_GPS    iGPS            $GPGGA,174534.000,4144.3304,N,06959.5418,W,2,06,1.59,4.2,M,-34.3,M,0000,0000*53 
