1.762           GPS_NMEA_FROM_GPS    iGPS            $GPGGA,193233.000,4144.3453,N,06959.5653,W,2,09,1.19,8.5,M,-34.3,M,0000,0000*52 
2.864           GPS_NMEA_FROM_GPS    iGPS            $GPGGA,193234.000,4144.3453,N,06959.5653,W,2,09,1.19,8.5,M,-34.3,M,0000,0000*55 
2.864           GPS_NMEA_FROM_GPS    iGPS            $GPGGA,193234.000,4144.3453,N,06959.5653,W,2,09,1.19,8.5,M,-34.3,M,0000,0000*55 
3.869           GPS_NMEA_FROM_GPS    iGPS            $GPGGA,193235.000,4144.3453,N,06959.5653,W,2,09,1.19,8.5,M,-34.3,M,0000,0000*54 
3.869           GPS_NMEA_FROM_GPS    iGPS            $GPGGA,193235.000,4144.3453,N,06959.5653,W,2,09,1.19,8.5,M,-34.3,M,0000,0000*54 
4.770           GPS_NMEA_FROM_GPS    iGPS            $GPGGA,193236.000,4144.3453,N,06959.5653,W,2,09,1.19,8.5,M,-34.3,M,0000,0000*57 
5.773           GPS_NMEA_FROM_GPS    iGPS            $GPGGA,193237.000,4144.3453,N,06959.5653,W,2,09,1.19,8.5,M,-34.3,M,0000,0000*56 
6.876           GPS_NMEA_FROM_GPS    iGPS            $GPRMC,193238.000,A,4144.3453,N,06959.5653,W,0.04,281.05,230321,,,D*72 
7.777           GPS_NMEA_FROM_GPS    iGPS            $GPGGA,193239.000,4144.3453,N,06959.5653,W,2,09,1.19,8.5,M,-34.3,M,0000,0000*58 
8.782           GPS_NMEA_FROM_GPS    iGPS            $GPGGA,193240.000,4144.3453,N,06959.5653,W,2,09,1.19,8.5,M,-34.3,M,0000,0000*56 
9.784           GPS_NMEA_FROM_GPS    iGPS            $GPGGA,193241.000,4144.3453,N,06959.5653,W,2,09,1.19,8.5,M,-34.3,M,0000,0000*57 
10.787          GPS_NMEA_FROM_GPS    iGPS            $GPGGA,193242.000,4144.3453,N,06959.5653,W,2,09,1.19,8.5,M,-34.3,M,0000,0000*54 
10.787          GPS_NMEA_FROM_GPS    iGPS            $GPGGA,193242.000,4144.3453,N,06959.5653,W,2,09,1.19,8.5,M,-34.3,M,0000,0000*54 
11.889          GPS_NMEA_FROM_GPS    iGPS            $GPRMC,193243.000,A,4144.3453,N,06959.5653,W,0.03,289.32,230321,,,D*75 
12.791          GPS_NMEA_FROM_GPS    iGPS            $GPGGA,193244.000,4144.3453,N,06959.5653,W,2,10,1.01,8.5,M,-34.3,M,0000,0000*53 
12.791          GPS_NMEA_FROM_GPS    iGPS            $GPGGA,193244.000,4144.3453,N,06959.5653,W,2,10,1.01,8.5,M,-34.3,M,0000,0000*53 
13.895          GPS_NMEA_FROM_GPS    iGPS            $GPRMC,193245.000,A,4144.3453,N,06959.5653,W,0.04,272.43,230321,,,D*76 
14.898          GPS_NMEA_FROM_GPS    iGPS            $GPRMC,193246.000,A,4144.3453,N,06959.5653,W,0.04,262.63,230321,,,D*76 
14.898          GPS_NMEA_FROM_GPS    iGPS            $GPRMC,193246.000,A,4144.3453,N,06959.5653,W,0.04,262.63,230321,,,D*76 
15.901          GPS_NMEA_FROM_GPS    iGPS            $GPRMC,193247.000,A,4144.3453,N,06959.5653,W,0.05,266.10,230321,,,D*76 
16.903          GPS_NMEA_FROM_GPS    iGPS            $GPRMC,193248.000,A,4144.3453,N,06959.5653,W,0.05,270.43,230321,,,D*78 
17.807          GPS_NMEA_FROM_GPS    iGPS            $GPGGA,193249.000,4144.3453,N,06959.5653,W,2,10,1.01,8.6,M,-34.3,M,0000,0000*5D 
18.809          GPS_NMEA_FROM_GPS    iGPS            $GPGGA,193250.000,4144.3453,N,06959.5653,W,2,10,1.01,8.6,M,-34.3,M,0000,0000*55 
19.912          GPS_NMEA_FROM_GPS    iGPS            $GPRMC,193251.000,A,4144.3453,N,06959.5653,W,0.05,278.89,230321,,,D*7E 
20.815          GPS_NMEA_FROM_GPS    iGPS            $GPGGA,193252.000,4144.3453,N,06959.5654,W,2,10,1.01,8.6,M,-34.3,M,0000,0000*50 
21.818          GPS_NMEA_FROM_GPS    iGPS            $GPGGA,193253.000,4144.3453,N,06959.5654,W,2,10,1.01,8.6,M,-34.3,M,0000,0000*51 
21.818          GPS_NMEA_FROM_GPS    iGPS            $GPGGA,193253.000,4144.3453,N,06959.5654,W,2,10,1.01,8.6,M,-34.3,M,0000,0000*51 
22.821          GPS_NMEA_FROM_GPS    iGPS            $GPGGA,193254.000,4144.3453,N,06959.5654,W,2,10,1.01,8.6,M,-34.3,M,0000,0000*56 
23.823          GPS_NMEA_FROM_GPS    iGPS            $GPGGA,193255.000,4144.3453,N,06959.5654,W,2,10,1.01,8.6,M,-34.3,M,0000,0000*57 
24.825          GPS_NMEA_FROM_GPS    iGPS            $GPGGA,193256.000,4144.3453,N,06959.5654,W,2,10,1.01,8.6,M,-34.3,M,0000,0000*54 
25.828          GPS_NMEA_FROM_GPS    iGPS            $GPGGA,193257.000,4144.3453,N,06959.5654,W,2,10,1.01,8.6,M,-34.3,M,0000,0000*55 
26.831          GPS_NMEA_FROM_GPS    iGPS            $GPGGA,193258.000,4144.3453,N,06959.5654,W,2,10,1.01,8.6,M,-34.3,M,0000,0000*5A 
27.835          GPS_NMEA_FROM_GPS    iGPS            $GPGGA,193259.000,4144.3453,N,06959.5654,W,2,10,1.01,8.6,M,-34.3,M,0000,0000*5B 
28.837          GPS_NMEA_FROM_GPS    iGPS            $GPRMC,193300.000,A,4144.3453,N,06959.5654,W,0.09,150.43,230321,,,D*7F 
29.839          GPS_NMEA_FROM_GPS    iGPS            $GPGGA,193301.000,4144.3453,N,06959.5654,W,2,10,1.01,8.6,M,-34.3,M,0000,0000*57 
30.742          GPS_NMEA_FROM_GPS    iGPS            $GPGGA,193302.000,4144.3453,N,06959.5654,W,2,10,1.01,8.6,M,-34.3,M,0000,0000*54 
31.745          GPS_NMEA_FROM_GPS    iGPS            $GPRMC,193303.000,A,4144.3453,N,06959.5654,W,0.07,113.19,230321,,,D*7A 
32.847          GPS_NMEA_FROM_GPS    iGPS            $GPGGA,193304.000,4144.3453,N,06959.5654,W,2,10,1.01,8.6,M,-34.3,M,0000,0000*52 
33.750          GPS_NMEA_FROM_GPS    iGPS            $GPGGA,193305.000,4144.3453,N,06959.5654,W,2,10,1.01,8.6,M,-34.3,M,0000,0000*53 
34.753          GPS_NMEA_FROM_GPS    iGPS            $GPGGA,193306.000,4144.3453,N,06959.5654,W,2,09,1.05,8.6,M,-34.3,M,0000,0000*5C 
35.755          GPS_NMEA_FROM_GPS    iGPS            $GPGGA,193307.000,4144.3453,N,06959.5653,W,2,10,1.01,8.6,M,-34.3,M,0000,0000*56 
36.757          GPS_NMEA_FROM_GPS    iGPS            $GPGGA,193308.000,4144.3453,N,06959.5653,W,2,10,1.01,8.6,M,-34.3,M,0000,0000*59 
37.860          GPS_NMEA_FROM_GPS    iGPS            $GPGGA,193309.000,4144.3453,N,06959.5653,W,2,10,1.01,8.6,M,-34.3,M,0000,0000*58 
38.863          GPS_NMEA_FROM_GPS    iGPS            $GPRMC,193310.000,A,4144.3453,N,06959.5653,W,0.15,49.13,230321,,,D*48 
39.865          GPS_NMEA_FROM_GPS    iGPS            $GPRMC,193311.000,A,4144.3453,N,06959.5653,W,0.09,41.59,230321,,,D*42 
40.867          GPS_NMEA_FROM_GPS    iGPS            $GPGGA,193312.000,4144.3453,N,06959.5653,W,2,10,1.01,8.6,M,-34.3,M,0000,0000*52 
41.771          GPS_NMEA_FROM_GPS    iGPS            $GPRMC,193313.000,A,4144.3453,N,06959.5653,W,0.11,39.09,230321,,,D*43 
42.773          GPS_NMEA_FROM_GPS    iGPS            $GPRMC,193314.000,A,4144.3453,N,06959.5653,W,0.12,45.04,230321,,,D*41 
43.777          GPS_NMEA_FROM_GPS    iGPS            $GPGGA,193315.000,4144.3453,N,06959.5653,W,2,10,1.01,8.6,M,-34.3,M,0000,0000*55 
44.781          GPS_NMEA_FROM_GPS    iGPS            $GPRMC,193316.000,A,4144.3453,N,06959.5653,W,0.30,63.06,230321,,,D*45 
45.783          GPS_NMEA_FROM_GPS    iGPS            $GPRMC,193317.000,A,4144.3454,N,06959.5652,W,0.41,61.09,230321,,,D*49 
46.685          GPS_NMEA_FROM_GPS    iGPS            $GPGGA,193318.000,4144.3454,N,06959.5650,W,2,09,1.02,8.6,M,-34.3,M,0000,0000*57 
47.687          GPS_NMEA_FROM_GPS    iGPS            $GPGGA,193319.000,4144.3455,N,06959.5648,W,2,08,1.12,8.6,M,-34.3,M,0000,0000*5E 
48.790          GPS_NMEA_FROM_GPS    iGPS            $GPRMC,193320.000,A,4144.3455,N,06959.5645,W,0.66,77.46,230321,,,D*43 
49.692          GPS_NMEA_FROM_GPS    iGPS            $GPGGA,193321.000,4144.3455,N,06959.5643,W,2,08,1.12,8.7,M,-34.3,M,0000,0000*5F 
50.695          GPS_NMEA_FROM_GPS    iGPS            $GPRMC,193322.000,A,4144.3454,N,06959.5640,W,0.71,89.63,230321,,,D*45 
51.697          GPS_NMEA_FROM_GPS    iGPS            $GPGGA,193323.000,4144.3454,N,06959.5637,W,2,09,1.02,8.8,M,-34.3,M,0000,0000*50 
52.700          GPS_NMEA_FROM_GPS    iGPS            $GPGGA,193324.000,4144.3453,N,06959.5635,W,2,10,0.95,8.9,M,-34.3,M,0000,0000*54 
53.802          GPS_NMEA_FROM_GPS    iGPS            $GPRMC,193325.000,A,4144.3452,N,06959.5633,W,0.71,102.34,230321,,,D*70 
54.704          GPS_NMEA_FROM_GPS    iGPS            $GPGGA,193326.000,4144.3452,N,06959.5630,W,2,09,1.02,9.2,M,-34.3,M,0000,0000*5F 
55.707          GPS_NMEA_FROM_GPS    iGPS            $GPGGA,193327.000,4144.3451,N,06959.5628,W,2,09,1.02,9.3,M,-34.3,M,0000,0000*55 
56.709          GPS_NMEA_FROM_GPS    iGPS            $GPGGA,193328.000,4144.3450,N,06959.5625,W,2,09,1.02,9.4,M,-34.3,M,0000,0000*51 
57.712          GPS_NMEA_FROM_GPS    iGPS            $GPGGA,193329.000,4144.3449,N,06959.5623,W,2,09,1.02,9.5,M,-34.3,M,0000,0000*5F 
58.714          GPS_NMEA_FROM_GPS    iGPS            $GPGGA,193330.000,4144.3448,N,06959.5621,W,2,10,0.95,9.6,M,-34.3,M,0000,0000*50 
59.717          GPS_NMEA_FROM_GPS    iGPS            $GPGGA,193331.000,4144.3448,N,06959.5618,W,2,09,1.02,9.7,M,-34.3,M,0000,0000*5D 
60.820          GPS_NMEA_FROM_GPS    iGPS            $GPRMC,193332.000,A,4144.3447,N,06959.5616,W,0.64,106.26,230321,,,D*76 
61.921          GPS_NMEA_FROM_GPS    iGPS            $GPRMC,193333.000,A,4144.3447,N,06959.5612,W,0.64,102.64,230321,,,D*71 
62.824          GPS_NMEA_FROM_GPS    iGPS            $GPRMC,193334.000,A,4144.3446,N,06959.5610,W,0.64,99.31,230321,,,D*46 
63.826          GPS_NMEA_FROM_GPS    iGPS            $GPGGA,193335.000,4144.3447,N,06959.5607,W,2,10,0.95,9.6,M,-34.3,M,0000,0000*5E 
64.828          GPS_NMEA_FROM_GPS    iGPS            $GPGGA,193336.000,4144.3447,N,06959.5604,W,2,10,0.95,9.5,M,-34.3,M,0000,0000*5D 
65.831          GPS_NMEA_FROM_GPS    iGPS            $GPRMC,193337.000,A,4144.3448,N,06959.5601,W,0.65,82.04,230321,,,D*46 
66.732          GPS_NMEA_FROM_GPS    iGPS            $GPGGA,193338.000,4144.3448,N,06959.5598,W,2,09,1.05,9.4,M,-34.3,M,0000,0000*5B 
67.835          GPS_NMEA_FROM_GPS    iGPS            $GPRMC,193339.000,A,4144.3449,N,06959.5596,W,0.66,72.13,230321,,,D*4E 
68.737          GPS_NMEA_FROM_GPS    iGPS            $GPGGA,193340.000,4144.3451,N,06959.5593,W,2,10,0.95,9.2,M,-34.3,M,0000,0000*51 
69.739          GPS_NMEA_FROM_GPS    iGPS            $GPGGA,193341.000,4144.3452,N,06959.5591,W,2,10,0.95,9.1,M,-34.3,M,0000,0000*52 
70.742          GPS_NMEA_FROM_GPS    iGPS            $GPGGA,193342.000,4144.3454,N,06959.5588,W,2,10,0.95,9.0,M,-34.3,M,0000,0000*5E 
71.744          GPS_NMEA_FROM_GPS    iGPS            $GPGGA,193343.000,4144.3456,N,06959.5586,W,2,09,1.02,8.9,M,-34.3,M,0000,0000*5C 
72.747          GPS_NMEA_FROM_GPS    iGPS            $GPRMC,193344.000,A,4144.3458,N,06959.5583,W,0.79,51.04,230321,,,D*49 
73.749          GPS_NMEA_FROM_GPS    iGPS            $GPRMC,193345.000,A,4144.3460,N,06959.5580,W,0.77,49.90,230321,,,D*4A 
74.751          GPS_NMEA_FROM_GPS    iGPS            $GPGGA,193346.000,4144.3461,N,06959.5578,W,2,09,1.02,8.6,M,-34.3,M,0000,0000*53 
75.753          GPS_NMEA_FROM_GPS    iGPS            $GPGGA,193347.000,4144.3463,N,06959.5575,W,2,09,1.02,8.7,M,-34.3,M,0000,0000*5C 
76.655          GPS_NMEA_FROM_GPS    iGPS            $GPGGA,193348.000,4144.3464,N,06959.5573,W,2,09,1.02,8.7,M,-34.3,M,0000,0000*52 
77.757          GPS_NMEA_FROM_GPS    iGPS            $GPGGA,193349.000,4144.3465,N,06959.5570,W,2,09,1.02,8.6,M,-34.3,M,0000,0000*50 
78.761          GPS_NMEA_FROM_GPS    iGPS            $GPGGA,193350.000,4144.3465,N,06959.5568,W,2,09,1.02,8.6,M,-34.3,M,0000,0000*51 
79.763          GPS_NMEA_FROM_GPS    iGPS            $GPGGA,193351.000,4144.3466,N,06959.5566,W,2,09,1.02,8.7,M,-34.3,M,0000,0000*5C 
80.766          GPS_NMEA_FROM_GPS    iGPS            $GPGGA,193352.000,4144.3466,N,06959.5564,W,2,09,1.02,8.7,M,-34.3,M,0000,0000*5D 
81.668          GPS_NMEA_FROM_GPS    iGPS            $GPGGA,193353.000,4144.3466,N,06959.5562,W,2,09,1.05,8.9,M,-34.3,M,0000,0000*53 
82.771          GPS_NMEA_FROM_GPS    iGPS            $GPGGA,193354.000,4144.3465,N,06959.5560,W,2,09,1.05,9.2,M,-34.3,M,0000,0000*5F 
83.673          GPS_NMEA_FROM_GPS    iGPS            $GPGGA,193355.000,4144.3464,N,06959.5559,W,2,09,1.05,9.4,M,-34.3,M,0000,0000*53 
84.675          GPS_NMEA_FROM_GPS    iGPS            $GPGGA,193356.000,4144.3463,N,06959.5557,W,2,09,1.02,9.4,M,-34.3,M,0000,0000*5E 
85.677          GPS_NMEA_FROM_GPS    iGPS            $GPGGA,193357.000,4144.3462,N,06959.5556,W,2,09,1.02,9.5,M,-34.3,M,0000,0000*5E 
86.780          GPS_NMEA_FROM_GPS    iGPS            $GPRMC,193358.000,A,4144.3461,N,06959.5554,W,0.73,113.76,230321,,,D*7C 
87.782          GPS_NMEA_FROM_GPS    iGPS            $GPRMC,193359.000,A,4144.3459,N,06959.5553,W,0.71,120.75,230321,,,D*70 
88.784          GPS_NMEA_FROM_GPS    iGPS            $GPRMC,193400.000,A,4144.3458,N,06959.5552,W,0.64,125.73,230321,,,D*7C 
89.686          GPS_NMEA_FROM_GPS    iGPS            $GPGGA,193401.000,4144.3456,N,06959.5551,W,2,09,1.02,9.6,M,-34.3,M,0000,0000*59 
90.688          GPS_NMEA_FROM_GPS    iGPS            $GPGGA,193402.000,4144.3455,N,06959.5550,W,2,09,1.02,9.7,M,-34.3,M,0000,0000*59 
91.691          GPS_NMEA_FROM_GPS    iGPS            $GPGGA,193403.000,4144.3454,N,06959.5550,W,2,09,1.02,9.7,M,-34.3,M,0000,0000*59 
92.693          GPS_NMEA_FROM_GPS    iGPS            $GPGGA,193404.000,4144.3453,N,06959.5548,W,2,09,1.02,9.7,M,-34.3,M,0000,0000*50 
93.695          GPS_NMEA_FROM_GPS    iGPS            $GPGGA,193405.000,4144.3452,N,06959.5547,W,2,09,1.05,9.6,M,-34.3,M,0000,0000*59 
94.698          GPS_NMEA_FROM_GPS    iGPS            $GPGGA,193406.000,4144.3450,N,06959.5546,W,2,09,1.05,9.6,M,-34.3,M,0000,0000*59 
95.700          GPS_NMEA_FROM_GPS    iGPS            $GPGGA,193407.000,4144.3450,N,06959.5544,W,2,09,1.05,9.5,M,-34.3,M,0000,0000*59 
96.703          GPS_NMEA_FROM_GPS    iGPS            $GPGGA,193408.000,4144.3449,N,06959.5542,W,2,09,1.05,9.4,M,-34.3,M,0000,0000*59 
97.705          GPS_NMEA_FROM_GPS    iGPS            $GPGGA,193409.000,4144.3449,N,06959.5540,W,2,09,1.05,9.4,M,-34.3,M,0000,0000*5A 
98.808          GPS_NMEA_FROM_GPS    iGPS            $GPRMC,193410.000,A,4144.3449,N,06959.5539,W,0.37,109.62,230321,,,D*78 
99.811          GPS_NMEA_FROM_GPS    iGPS            $GPRMC,193411.000,A,4144.3449,N,06959.5537,W,0.34,101.74,230321,,,D*7B 
100.813         GPS_NMEA_FROM_GPS    iGPS            $GPGGA,193412.000,4144.3449,N,06959.5536,W,2,09,1.02,9.3,M,-34.3,M,0000,0000*51 
101.815         GPS_NMEA_FROM_GPS    iGPS            $GPRMC,193413.000,A,4144.3450,N,06959.5535,W,0.37,78.10,230321,,,D*4D 
102.818         GPS_NMEA_FROM_GPS    iGPS            $GPRMC,193414.000,A,4144.3451,N,06959.5534,W,0.42,62.50,230321,,,D*47 
103.720         GPS_NMEA_FROM_GPS    iGPS            $GPGGA,193415.000,4144.3452,N,06959.5534,W,2,08,1.22,9.1,M,-34.3,M,0000,0000*5F 
104.823         GPS_NMEA_FROM_GPS    iGPS            $GPRMC,193416.000,A,4144.3454,N,06959.5534,W,0.58,27.76,230321,,,D*4E 
105.725         GPS_NMEA_FROM_GPS    iGPS            $GPRMC,193417.000,A,4144.3456,N,06959.5534,W,0.67,12.73,230321,,,D*42 
106.727         GPS_NMEA_FROM_GPS    iGPS            $GPRMC,193418.000,A,4144.3458,N,06959.5534,W,0.66,4.93,230321,,,D*7B 
107.729         GPS_NMEA_FROM_GPS    iGPS            $GPGGA,193419.000,4144.3460,N,06959.5533,W,2,10,1.01,8.9,M,-34.3,M,0000,0000*54 
108.732         GPS_NMEA_FROM_GPS    iGPS            $GPGGA,193420.000,4144.3462,N,06959.5534,W,2,10,1.01,8.9,M,-34.3,M,0000,0000*5B 
109.834         GPS_NMEA_FROM_GPS    iGPS            $GPRMC,193421.000,A,4144.3464,N,06959.5534,W,0.61,358.46,230321,,,D*7B 
110.736         GPS_NMEA_FROM_GPS    iGPS            $GPGGA,193422.000,4144.3465,N,06959.5533,W,2,09,1.06,8.8,M,-34.3,M,0000,0000*57 
111.739         GPS_NMEA_FROM_GPS    iGPS            $GPGGA,193423.000,4144.3467,N,06959.5532,W,2,09,1.19,8.7,M,-34.3,M,0000,0000*54 
112.741         GPS_NMEA_FROM_GPS    iGPS            $GPGGA,193424.000,4144.3469,N,06959.5531,W,2,10,1.01,8.8,M,-34.3,M,0000,0000*50 
113.743         GPS_NMEA_FROM_GPS    iGPS            $GPGGA,193425.000,4144.3471,N,06959.5529,W,2,09,1.06,8.7,M,-34.3,M,0000,0000*51 
114.645         GPS_NMEA_FROM_GPS    iGPS            $GPGGA,193426.000,4144.3472,N,06959.5528,W,2,09,1.06,8.7,M,-34.3,M,0000,0000*50 
115.648         GPS_NMEA_FROM_GPS    iGPS            $GPGGA,193427.000,4144.3473,N,06959.5526,W,2,09,1.06,8.7,M,-34.3,M,0000,0000*5E 
116.650         GPS_NMEA_FROM_GPS    iGPS            $GPGGA,193428.000,4144.3474,N,06959.5525,W,2,09,1.06,8.8,M,-34.3,M,0000,0000*5A 
117.753         GPS_NMEA_FROM_GPS    iGPS            $GPGGA,193429.000,4144.3474,N,06959.5523,W,2,10,1.01,8.8,M,-34.3,M,0000,0000*52 
118.655         GPS_NMEA_FROM_GPS    iGPS            $GPGGA,193430.000,4144.3474,N,06959.5522,W,2,09,1.06,8.8,M,-34.3,M,0000,0000*54 
119.758         GPS_NMEA_FROM_GPS    iGPS            $GPGGA,193431.000,4144.3474,N,06959.5521,W,2,09,1.06,8.8,M,-34.3,M,0000,0000*56 
120.761         GPS_NMEA_FROM_GPS    iGPS            $GPGGA,193432.000,4144.3473,N,06959.5520,W,2,10,1.01,8.8,M,-34.3,M,0000,0000*5C 
121.763         GPS_NMEA_FROM_GPS    iGPS            $GPRMC,193433.000,A,4144.3472,N,06959.5519,W,0.42,115.43,230321,,,D*7F 
122.766         GPS_NMEA_FROM_GPS    iGPS            $GPGGA,193434.000,4144.3471,N,06959.5518,W,2,09,1.06,8.8,M,-34.3,M,0000,0000*5C 
123.668         GPS_NMEA_FROM_GPS    iGPS            $GPGGA,193435.000,4144.3470,N,06959.5518,W,2,09,1.06,8.8,M,-34.3,M,0000,0000*5C 
124.670         GPS_NMEA_FROM_GPS    iGPS            $GPGGA,193436.000,4144.3468,N,06959.5518,W,2,09,1.02,8.8,M,-34.3,M,0000,0000*52 
125.773         GPS_NMEA_FROM_GPS    iGPS            $GPGGA,193437.000,4144.3467,N,06959.5518,W,2,09,1.02,8.7,M,-34.3,M,0000,0000*53 
126.675         GPS_NMEA_FROM_GPS    iGPS            $GPGGA,193438.000,4144.3466,N,06959.5518,W,2,09,1.02,8.8,M,-34.3,M,0000,0000*52 
127.779         GPS_NMEA_FROM_GPS    iGPS            $GPGGA,193439.000,4144.3464,N,06959.5518,W,2,09,1.02,8.8,M,-34.3,M,0000,0000*51 
128.681         GPS_NMEA_FROM_GPS    iGPS            $GPGGA,193440.000,4144.3463,N,06959.5518,W,2,09,1.02,8.8,M,-34.3,M,0000,0000*58 
129.784         GPS_NMEA_FROM_GPS    iGPS            $GPRMC,193441.000,A,4144.3462,N,06959.5518,W,0.49,171.92,230321,,,D*7F 
130.786         GPS_NMEA_FROM_GPS    iGPS            $GPGGA,193442.000,4144.3460,N,06959.5518,W,2,10,0.95,8.8,M,-34.3,M,0000,0000*5E 
131.889         GPS_NMEA_FROM_GPS    iGPS            $GPRMC,193443.000,A,4144.3459,N,06959.5517,W,0.41,164.96,230321,,,D*72 
132.790         GPS_NMEA_FROM_GPS    iGPS            $GPGGA,193444.000,4144.3458,N,06959.5516,W,2,10,0.95,8.8,M,-34.3,M,0000,0000*5D 
133.696         GPS_NMEA_FROM_GPS    iGPS            $GPGGA,193445.000,4144.3457,N,06959.5516,W,2,09,1.02,8.8,M,-34.3,M,0000,0000*54 
134.798         GPS_NMEA_FROM_GPS    iGPS            $GPGGA,193446.000,4144.3457,N,06959.5514,W,2,10,0.95,8.8,M,-34.3,M,0000,0000*52 
135.700         GPS_NMEA_FROM_GPS    iGPS            $GPGGA,193447.000,4144.3456,N,06959.5513,W,2,10,0.95,8.8,M,-34.3,M,0000,0000*55 
136.803         GPS_NMEA_FROM_GPS    iGPS            $GPRMC,193448.000,A,4144.3456,N,06959.5512,W,0.27,124.47,230321,,,D*7B 
137.705         GPS_NMEA_FROM_GPS    iGPS            $GPGGA,193449.000,4144.3456,N,06959.5511,W,2,10,0.95,8.8,M,-34.3,M,0000,0000*59 
138.808         GPS_NMEA_FROM_GPS    iGPS            $GPRMC,193450.000,A,4144.3457,N,06959.5510,W,0.41,85.92,230321,,,D*43 
139.711         GPS_NMEA_FROM_GPS    iGPS            $GPGGA,193451.000,4144.3458,N,06959.5509,W,2,10,0.95,8.7,M,-34.3,M,0000,0000*58 
140.713         GPS_NMEA_FROM_GPS    iGPS            $GPGGA,193452.000,4144.3459,N,06959.5508,W,2,09,1.02,8.7,M,-34.3,M,0000,0000*5C 
141.715         GPS_NMEA_FROM_GPS    iGPS            $GPGGA,193453.000,4144.3460,N,06959.5508,W,2,09,1.06,8.7,M,-34.3,M,0000,0000*53 
142.717         GPS_NMEA_FROM_GPS    iGPS            $GPGGA,193454.000,4144.3462,N,06959.5508,W,2,09,1.06,8.7,M,-34.3,M,0000,0000*56 
143.719         GPS_NMEA_FROM_GPS    iGPS            $GPGGA,193455.000,4144.3464,N,06959.5508,W,2,09,1.06,8.7,M,-34.3,M,0000,0000*51 
144.722         GPS_NMEA_FROM_GPS    iGPS            $GPGGA,193456.000,4144.3465,N,06959.5508,W,2,09,1.06,8.7,M,-34.3,M,0000,0000*53 
145.731         GPS_NMEA_FROM_GPS    iGPS            $GPRMC,193457.000,A,4144.3467,N,06959.5508,W,0.39,359.37,230321,,,D*7C 
146.733         GPS_NMEA_FROM_GPS    iGPS            $GPGGA,193458.000,4144.3468,N,06959.5508,W,2,09,1.06,8.6,M,-34.3,M,0000,0000*51 
