2.979           GPS_NMEA_FROM_GPS    iGPS            $GPGGA,185016.000,4144.3482,N,06959.5600,W,2,08,1.35,6.3,M,-34.3,M,0000,0000*5D 
3.981           GPS_NMEA_FROM_GPS    iGPS            $GPGGA,185017.000,4144.3482,N,06959.5599,W,2,08,1.35,6.3,M,-34.3,M,0000,0000*5F 
3.981           GPS_NMEA_FROM_GPS    iGPS            $GPGGA,185017.000,4144.3482,N,06959.5599,W,2,08,1.35,6.3,M,-34.3,M,0000,0000*5F 
4.983           GPS_NMEA_FROM_GPS    iGPS            $GPGGA,185018.000,4144.3482,N,06959.5599,W,2,08,1.35,6.3,M,-34.3,M,0000,0000*50 
6.086           GPS_NMEA_FROM_GPS    iGPS            $GPRMC,185019.000,A,4144.3483,N,06959.5599,W,0.18,38.68,310321,,,D*49 
6.988           GPS_NMEA_FROM_GPS    iGPS            $GPGGA,185020.000,4144.3483,N,06959.5598,W,2,08,1.35,6.3,M,-34.3,M,0000,0000*5B 
7.991           GPS_NMEA_FROM_GPS    iGPS            $GPGGA,185021.000,4144.3484,N,06959.5598,W,2,08,1.35,6.3,M,-34.3,M,0000,0000*5D 
8.993           GPS_NMEA_FROM_GPS    iGPS            $GPGGA,185022.000,4144.3484,N,06959.5597,W,2,08,1.11,6.4,M,-34.3,M,0000,0000*50 
9.996           GPS_NMEA_FROM_GPS    iGPS            $GPGGA,185023.000,4144.3485,N,06959.5597,W,2,07,1.29,6.4,M,-34.3,M,0000,0000*54 
10.998          GPS_NMEA_FROM_GPS    iGPS            $GPGGA,185024.000,4144.3485,N,06959.5596,W,2,08,1.11,6.4,M,-34.3,M,0000,0000*56 
10.998          GPS_NMEA_FROM_GPS    iGPS            $GPGGA,185024.000,4144.3485,N,06959.5596,W,2,08,1.11,6.4,M,-34.3,M,0000,0000*56 
12.101          GPS_NMEA_FROM_GPS    iGPS            $GPRMC,185025.000,A,4144.3486,N,06959.5596,W,0.26,38.13,310321,,,D*4D 
12.101          GPS_NMEA_FROM_GPS    iGPS            $GPRMC,185025.000,A,4144.3486,N,06959.5596,W,0.26,38.13,310321,,,D*4D 
13.004          GPS_NMEA_FROM_GPS    iGPS            $GPRMC,185026.000,A,4144.3486,N,06959.5595,W,0.20,39.28,310321,,,D*42 
14.007          GPS_NMEA_FROM_GPS    iGPS            $GPGGA,185027.000,4144.3487,N,06959.5595,W,2,07,1.29,6.4,M,-34.3,M,0000,0000*50 
15.010          GPS_NMEA_FROM_GPS    iGPS            $GPRMC,185028.000,A,4144.3487,N,06959.5594,W,0.20,40.86,310321,,,D*46 
16.012          GPS_NMEA_FROM_GPS    iGPS            $GPGGA,185029.000,4144.3487,N,06959.5594,W,2,07,1.29,6.4,M,-34.3,M,0000,0000*5F 
17.015          GPS_NMEA_FROM_GPS    iGPS            $GPGGA,185030.000,4144.3488,N,06959.5593,W,2,08,1.11,6.4,M,-34.3,M,0000,0000*5B 
18.017          GPS_NMEA_FROM_GPS    iGPS            $GPGGA,185031.000,4144.3488,N,06959.5593,W,2,09,0.99,6.4,M,-34.3,M,0000,0000*5A 
18.720          GPS_NMEA_FROM_GPS    iGPS            $GPRMC,185032.000,A,4144.3489,N,06959.5592,W,0.18,36.87,310321,,,D*4E 
19.722          GPS_NMEA_FROM_GPS    iGPS            $GPRMC,185033.000,A,4144.3489,N,06959.5592,W,0.19,35.80,310321,,,D*4A 
20.725          GPS_NMEA_FROM_GPS    iGPS            $GPRMC,185034.000,A,4144.3490,N,06959.5592,W,0.16,33.51,310321,,,D*40 
21.727          GPS_NMEA_FROM_GPS    iGPS            $GPRMC,185035.000,A,4144.3490,N,06959.5591,W,0.16,31.92,310321,,,D*4F 
22.629          GPS_NMEA_FROM_GPS    iGPS            $GPGGA,185036.000,4144.3491,N,06959.5591,W,2,09,0.99,6.4,M,-34.3,M,0000,0000*57 
22.629          GPS_NMEA_FROM_GPS    iGPS            $GPGGA,185036.000,4144.3491,N,06959.5591,W,2,09,0.99,6.4,M,-34.3,M,0000,0000*57 
23.732          GPS_NMEA_FROM_GPS    iGPS            $GPRMC,185037.000,A,4144.3491,N,06959.5591,W,0.18,28.30,310321,,,D*42 
24.735          GPS_NMEA_FROM_GPS    iGPS            $GPRMC,185038.000,A,4144.3491,N,06959.5591,W,0.15,13.29,310321,,,D*40 
25.637          GPS_NMEA_FROM_GPS    iGPS            $GPGGA,185039.000,4144.3492,N,06959.5590,W,2,09,1.03,6.4,M,-34.3,M,0000,0000*58 
26.639          GPS_NMEA_FROM_GPS    iGPS            $GPGGA,185040.000,4144.3492,N,06959.5590,W,2,09,1.03,6.4,M,-34.3,M,0000,0000*56 
27.642          GPS_NMEA_FROM_GPS    iGPS            $GPGGA,185041.000,4144.3493,N,06959.5590,W,2,09,1.03,6.4,M,-34.3,M,0000,0000*56 
28.645          GPS_NMEA_FROM_GPS    iGPS            $GPGGA,185042.000,4144.3493,N,06959.5590,W,2,09,1.03,6.4,M,-34.3,M,0000,0000*55 
28.645          GPS_NMEA_FROM_GPS    iGPS            $GPGGA,185042.000,4144.3493,N,06959.5590,W,2,09,1.03,6.4,M,-34.3,M,0000,0000*55 
29.648          GPS_NMEA_FROM_GPS    iGPS            $GPGGA,185043.000,4144.3494,N,06959.5590,W,2,09,1.03,6.4,M,-34.3,M,0000,0000*53 
30.652          GPS_NMEA_FROM_GPS    iGPS            $GPGGA,185044.000,4144.3494,N,06959.5590,W,2,09,1.03,6.4,M,-34.3,M,0000,0000*54 
31.655          GPS_NMEA_FROM_GPS    iGPS            $GPGGA,185045.000,4144.3494,N,06959.5590,W,2,09,1.03,6.4,M,-34.3,M,0000,0000*55 
32.657          GPS_NMEA_FROM_GPS    iGPS            $GPGGA,185046.000,4144.3495,N,06959.5590,W,2,09,1.03,6.4,M,-34.3,M,0000,0000*57 
33.661          GPS_NMEA_FROM_GPS    iGPS            $GPGGA,185047.000,4144.3495,N,06959.5590,W,2,09,1.03,6.4,M,-34.3,M,0000,0000*56 
34.663          GPS_NMEA_FROM_GPS    iGPS            $GPGGA,185048.000,4144.3496,N,06959.5590,W,2,09,1.03,6.4,M,-34.3,M,0000,0000*5A 
35.666          GPS_NMEA_FROM_GPS    iGPS            $GPGGA,185049.000,4144.3497,N,06959.5590,W,2,09,1.03,6.4,M,-34.3,M,0000,0000*5A 
36.669          GPS_NMEA_FROM_GPS    iGPS            $GPGGA,185050.000,4144.3497,N,06959.5590,W,2,09,1.03,6.4,M,-34.3,M,0000,0000*52 
37.672          GPS_NMEA_FROM_GPS    iGPS            $GPGGA,185051.000,4144.3498,N,06959.5590,W,2,09,1.03,6.4,M,-34.3,M,0000,0000*5C 
38.674          GPS_NMEA_FROM_GPS    iGPS            $GPGGA,185052.000,4144.3499,N,06959.5590,W,2,09,1.03,6.4,M,-34.3,M,0000,0000*5E 
39.677          GPS_NMEA_FROM_GPS    iGPS            $GPGGA,185053.000,4144.3500,N,06959.5590,W,2,09,1.03,6.4,M,-34.3,M,0000,0000*5E 
41.080          GPS_NMEA_FROM_GPS    iGPS            $GPRMC,185054.000,A,4144.3501,N,06959.5590,W,0.33,358.60,310321,,,D*76 
41.982          GPS_NMEA_FROM_GPS    iGPS            $GPGGA,185055.000,4144.3501,N,06959.5590,W,2,09,1.03,6.4,M,-34.3,M,0000,0000*59 
42.985          GPS_NMEA_FROM_GPS    iGPS            $GPGGA,185056.000,4144.3502,N,06959.5590,W,2,09,1.03,6.3,M,-34.3,M,0000,0000*5E 
43.988          GPS_NMEA_FROM_GPS    iGPS            $GPGGA,185057.000,4144.3504,N,06959.5591,W,2,09,1.03,6.3,M,-34.3,M,0000,0000*58 
45.091          GPS_NMEA_FROM_GPS    iGPS            $GPRMC,185058.000,A,4144.3504,N,06959.5591,W,0.46,344.37,310321,,,D*73 
46.093          GPS_NMEA_FROM_GPS    iGPS            $GPRMC,185059.000,A,4144.3506,N,06959.5592,W,0.47,338.70,310321,,,D*7A 
47.095          GPS_NMEA_FROM_GPS    iGPS            $GPRMC,185100.000,A,4144.3507,N,06959.5593,W,0.53,333.29,310321,,,D*75 
48.098          GPS_NMEA_FROM_GPS    iGPS            $GPRMC,185101.000,A,4144.3508,N,06959.5594,W,0.56,329.15,310321,,,D*7D 
49.000          GPS_NMEA_FROM_GPS    iGPS            $GPGGA,185102.000,4144.3509,N,06959.5596,W,2,09,0.99,6.4,M,-34.3,M,0000,0000*56 
50.003          GPS_NMEA_FROM_GPS    iGPS            $GPGGA,185103.000,4144.3510,N,06959.5597,W,2,09,0.99,6.3,M,-34.3,M,0000,0000*59 
51.005          GPS_NMEA_FROM_GPS    iGPS            $GPGGA,185104.000,4144.3512,N,06959.5599,W,2,09,0.99,6.4,M,-34.3,M,0000,0000*55 
52.008          GPS_NMEA_FROM_GPS    iGPS            $GPGGA,185105.000,4144.3514,N,06959.5600,W,2,09,0.99,6.6,M,-34.3,M,0000,0000*53 
53.011          GPS_NMEA_FROM_GPS    iGPS            $GPGGA,185106.000,4144.3517,N,06959.5602,W,2,09,0.99,6.7,M,-34.3,M,0000,0000*50 
54.114          GPS_NMEA_FROM_GPS    iGPS            $GPRMC,185107.000,A,4144.3519,N,06959.5604,W,0.68,328.04,310321,,,D*7D 
55.016          GPS_NMEA_FROM_GPS    iGPS            $GPGGA,185108.000,4144.3521,N,06959.5605,W,2,09,0.99,6.8,M,-34.3,M,0000,0000*53 
56.018          GPS_NMEA_FROM_GPS    iGPS            $GPGGA,185109.000,4144.3523,N,06959.5607,W,2,09,0.99,6.8,M,-34.3,M,0000,0000*52 
57.021          GPS_NMEA_FROM_GPS    iGPS            $GPGGA,185110.000,4144.3525,N,06959.5608,W,2,09,0.99,6.9,M,-34.3,M,0000,0000*52 
58.024          GPS_NMEA_FROM_GPS    iGPS            $GPGGA,185111.000,4144.3527,N,06959.5609,W,2,09,0.99,7.1,M,-34.3,M,0000,0000*59 
59.026          GPS_NMEA_FROM_GPS    iGPS            $GPGGA,185112.000,4144.3529,N,06959.5611,W,2,09,0.99,7.2,M,-34.3,M,0000,0000*5E 
60.130          GPS_NMEA_FROM_GPS    iGPS            $GPRMC,185113.000,A,4144.3531,N,06959.5613,W,0.77,332.02,310321,,,D*77 
61.032          GPS_NMEA_FROM_GPS    iGPS            $GPGGA,185114.000,4144.3533,N,06959.5615,W,2,09,0.99,7.4,M,-34.3,M,0000,0000*51 
62.034          GPS_NMEA_FROM_GPS    iGPS            $GPGGA,185115.000,4144.3535,N,06959.5617,W,2,09,0.99,7.4,M,-34.3,M,0000,0000*54 
63.037          GPS_NMEA_FROM_GPS    iGPS            $GPRMC,185116.000,A,4144.3537,N,06959.5619,W,0.78,325.90,310321,,,D*7C 
64.039          GPS_NMEA_FROM_GPS    iGPS            $GPRMC,185117.000,A,4144.3539,N,06959.5621,W,0.76,324.85,310321,,,D*73 
65.042          GPS_NMEA_FROM_GPS    iGPS            $GPRMC,185118.000,A,4144.3541,N,06959.5623,W,0.80,324.02,310321,,,D*77 
66.044          GPS_NMEA_FROM_GPS    iGPS            $GPGGA,185119.000,4144.3543,N,06959.5625,W,2,09,0.99,7.4,M,-34.3,M,0000,0000*58 
67.047          GPS_NMEA_FROM_GPS    iGPS            $GPGGA,185120.000,4144.3546,N,06959.5627,W,2,09,0.99,7.4,M,-34.3,M,0000,0000*55 
67.949          GPS_NMEA_FROM_GPS    iGPS            $GPGGA,185121.000,4144.3548,N,06959.5629,W,2,09,0.99,7.4,M,-34.3,M,0000,0000*54 
69.052          GPS_NMEA_FROM_GPS    iGPS            $GPGGA,185122.000,4144.3550,N,06959.5631,W,2,08,1.13,7.4,M,-34.3,M,0000,0000*55 
69.955          GPS_NMEA_FROM_GPS    iGPS            $GPGGA,185123.000,4144.3552,N,06959.5633,W,2,08,1.13,7.5,M,-34.3,M,0000,0000*55 
71.057          GPS_NMEA_FROM_GPS    iGPS            $GPGGA,185124.000,4144.3554,N,06959.5634,W,2,09,1.00,7.5,M,-34.3,M,0000,0000*50 
71.960          GPS_NMEA_FROM_GPS    iGPS            $GPGGA,185125.000,4144.3555,N,06959.5636,W,2,08,1.13,7.6,M,-34.3,M,0000,0000*52 
72.962          GPS_NMEA_FROM_GPS    iGPS            $GPGGA,185126.000,4144.3557,N,06959.5638,W,2,09,1.00,7.6,M,-34.3,M,0000,0000*5E 
73.965          GPS_NMEA_FROM_GPS    iGPS            $GPGGA,185127.000,4144.3558,N,06959.5640,W,2,09,1.00,7.7,M,-34.3,M,0000,0000*5E 
75.068          GPS_NMEA_FROM_GPS    iGPS            $GPGGA,185128.000,4144.3559,N,06959.5642,W,2,09,0.99,7.8,M,-34.3,M,0000,0000*5C 
75.970          GPS_NMEA_FROM_GPS    iGPS            $GPGGA,185129.000,4144.3560,N,06959.5644,W,2,09,1.00,7.9,M,-34.3,M,0000,0000*51 
76.973          GPS_NMEA_FROM_GPS    iGPS            $GPGGA,185130.000,4144.3561,N,06959.5646,W,2,09,1.00,8.0,M,-34.3,M,0000,0000*5C 
77.976          GPS_NMEA_FROM_GPS    iGPS            $GPGGA,185131.000,4144.3561,N,06959.5647,W,2,09,0.99,7.9,M,-34.3,M,0000,0000*5B 
78.978          GPS_NMEA_FROM_GPS    iGPS            $GPGGA,185132.000,4144.3561,N,06959.5648,W,2,09,1.00,7.9,M,-34.3,M,0000,0000*56 
80.081          GPS_NMEA_FROM_GPS    iGPS            $GPRMC,185133.000,A,4144.3561,N,06959.5650,W,0.37,275.37,310321,,,D*77 
81.083          GPS_NMEA_FROM_GPS    iGPS            $GPGGA,185134.000,4144.3560,N,06959.5651,W,2,09,1.00,7.9,M,-34.3,M,0000,0000*59 
81.985          GPS_NMEA_FROM_GPS    iGPS            $GPGGA,185135.000,4144.3559,N,06959.5652,W,2,09,1.00,7.9,M,-34.3,M,0000,0000*51 
82.988          GPS_NMEA_FROM_GPS    iGPS            $GPGGA,185136.000,4144.3558,N,06959.5654,W,2,09,1.00,8.0,M,-34.3,M,0000,0000*53 
83.991          GPS_NMEA_FROM_GPS    iGPS            $GPGGA,185137.000,4144.3557,N,06959.5655,W,2,09,1.00,8.0,M,-34.3,M,0000,0000*5C 
84.993          GPS_NMEA_FROM_GPS    iGPS            $GPGGA,185138.000,4144.3556,N,06959.5656,W,2,09,1.00,8.0,M,-34.3,M,0000,0000*51 
85.996          GPS_NMEA_FROM_GPS    iGPS            $GPGGA,185139.000,4144.3554,N,06959.5657,W,2,08,1.13,8.0,M,-34.3,M,0000,0000*50 
87.099          GPS_NMEA_FROM_GPS    iGPS            $GPRMC,185140.000,A,4144.3553,N,06959.5659,W,0.63,219.26,310321,,,D*70 
88.102          GPS_NMEA_FROM_GPS    iGPS            $GPRMC,185141.000,A,4144.3552,N,06959.5661,W,0.62,220.73,310321,,,D*70 
89.105          GPS_NMEA_FROM_GPS    iGPS            $GPRMC,185142.000,A,4144.3551,N,06959.5664,W,0.72,222.73,310321,,,D*76 
90.108          GPS_NMEA_FROM_GPS    iGPS            $GPRMC,185143.000,A,4144.3550,N,06959.5667,W,0.70,225.23,310321,,,D*75 
91.111          GPS_NMEA_FROM_GPS    iGPS            $GPRMC,185144.000,A,4144.3549,N,06959.5670,W,0.61,227.02,310321,,,D*7D 
92.013          GPS_NMEA_FROM_GPS    iGPS            $GPGGA,185145.000,4144.3548,N,06959.5672,W,2,09,1.00,8.3,M,-34.3,M,0000,0000*51 
93.016          GPS_NMEA_FROM_GPS    iGPS            $GPRMC,185146.000,A,4144.3547,N,06959.5675,W,0.59,228.69,310321,,,D*7D 
93.918          GPS_NMEA_FROM_GPS    iGPS            $GPGGA,185147.000,4144.3546,N,06959.5677,W,2,09,1.00,8.3,M,-34.3,M,0000,0000*58 
94.921          GPS_NMEA_FROM_GPS    iGPS            $GPGGA,185148.000,4144.3544,N,06959.5679,W,2,08,1.13,8.3,M,-34.3,M,0000,0000*58 
96.025          GPS_NMEA_FROM_GPS    iGPS            $GPGGA,185149.000,4144.3543,N,06959.5681,W,2,08,1.13,8.3,M,-34.3,M,0000,0000*59 
96.927          GPS_NMEA_FROM_GPS    iGPS            $GPGGA,185150.000,4144.3542,N,06959.5682,W,2,09,1.00,8.3,M,-34.3,M,0000,0000*50 
98.030          GPS_NMEA_FROM_GPS    iGPS            $GPGGA,185151.000,4144.3540,N,06959.5684,W,2,09,1.00,8.3,M,-34.3,M,0000,0000*55 
99.033          GPS_NMEA_FROM_GPS    iGPS            $GPRMC,185152.000,A,4144.3539,N,06959.5686,W,0.75,214.03,310321,,,D*70 
100.036         GPS_NMEA_FROM_GPS    iGPS            $GPRMC,185153.000,A,4144.3537,N,06959.5688,W,0.74,210.24,310321,,,D*71 
101.038         GPS_NMEA_FROM_GPS    iGPS            $GPGGA,185154.000,4144.3535,N,06959.5689,W,2,09,1.00,8.5,M,-34.3,M,0000,0000*59 
102.041         GPS_NMEA_FROM_GPS    iGPS            $GPGGA,185155.000,4144.3533,N,06959.5691,W,2,09,1.00,8.6,M,-34.3,M,0000,0000*54 
103.044         GPS_NMEA_FROM_GPS    iGPS            $GPRMC,185156.000,A,4144.3531,N,06959.5692,W,0.74,203.58,310321,,,D*70 
103.946         GPS_NMEA_FROM_GPS    iGPS            $GPGGA,185157.000,4144.3529,N,06959.5693,W,2,09,1.00,8.7,M,-34.3,M,0000,0000*5E 
104.949         GPS_NMEA_FROM_GPS    iGPS            $GPGGA,185158.000,4144.3528,N,06959.5695,W,2,09,1.00,8.8,M,-34.3,M,0000,0000*59 
106.051         GPS_NMEA_FROM_GPS    iGPS            $GPGGA,185159.000,4144.3526,N,06959.5696,W,2,09,1.00,8.8,M,-34.3,M,0000,0000*55 
107.054         GPS_NMEA_FROM_GPS    iGPS            $GPRMC,185200.000,A,4144.3524,N,06959.5697,W,0.76,199.61,310321,,,D*79 
108.056         GPS_NMEA_FROM_GPS    iGPS            $GPGGA,185201.000,4144.3522,N,06959.5699,W,2,09,1.00,8.9,M,-34.3,M,0000,0000*51 
109.059         GPS_NMEA_FROM_GPS    iGPS            $GPRMC,185202.000,A,4144.3521,N,06959.5700,W,0.77,199.74,310321,,,D*74 
110.062         GPS_NMEA_FROM_GPS    iGPS            $GPGGA,185203.000,4144.3519,N,06959.5702,W,2,09,1.00,9.0,M,-34.3,M,0000,0000*50 
111.064         GPS_NMEA_FROM_GPS    iGPS            $GPGGA,185204.000,4144.3517,N,06959.5703,W,2,09,1.00,9.0,M,-34.3,M,0000,0000*58 
112.067         GPS_NMEA_FROM_GPS    iGPS            $GPRMC,185205.000,A,4144.3515,N,06959.5705,W,0.73,200.63,310321,,,D*70 
113.069         GPS_NMEA_FROM_GPS    iGPS            $GPGGA,185206.000,4144.3514,N,06959.5706,W,2,09,1.00,9.2,M,-34.3,M,0000,0000*5E 
113.972         GPS_NMEA_FROM_GPS    iGPS            $GPGGA,185207.000,4144.3512,N,06959.5708,W,2,09,1.00,9.2,M,-34.3,M,0000,0000*57 
114.974         GPS_NMEA_FROM_GPS    iGPS            $GPGGA,185208.000,4144.3511,N,06959.5709,W,2,09,1.00,9.2,M,-34.3,M,0000,0000*5A 
115.977         GPS_NMEA_FROM_GPS    iGPS            $GPGGA,185209.000,4144.3509,N,06959.5710,W,2,09,1.00,9.2,M,-34.3,M,0000,0000*5A 
117.079         GPS_NMEA_FROM_GPS    iGPS            $GPGGA,185210.000,4144.3507,N,06959.5712,W,2,09,1.00,9.2,M,-34.3,M,0000,0000*5E 
118.082         GPS_NMEA_FROM_GPS    iGPS            $GPRMC,185211.000,A,4144.3505,N,06959.5713,W,0.74,199.54,310321,,,D*73 
118.984         GPS_NMEA_FROM_GPS    iGPS            $GPGGA,185212.000,4144.3503,N,06959.5714,W,2,09,1.00,9.2,M,-34.3,M,0000,0000*5E 
120.087         GPS_NMEA_FROM_GPS    iGPS            $GPGGA,185213.000,4144.3501,N,06959.5715,W,2,09,1.00,9.2,M,-34.3,M,0000,0000*5C 
120.989         GPS_NMEA_FROM_GPS    iGPS            $GPGGA,185214.000,4144.3499,N,06959.5716,W,2,09,1.00,9.3,M,-34.3,M,0000,0000*59 
122.092         GPS_NMEA_FROM_GPS    iGPS            $GPRMC,185215.000,A,4144.3497,N,06959.5717,W,0.79,196.81,310321,,,D*73 
123.095         GPS_NMEA_FROM_GPS    iGPS            $GPRMC,185216.000,A,4144.3495,N,06959.5718,W,0.80,196.32,310321,,,D*73 
124.097         GPS_NMEA_FROM_GPS    iGPS            $GPRMC,185217.000,A,4144.3493,N,06959.5718,W,0.81,196.27,310321,,,D*71 
124.999         GPS_NMEA_FROM_GPS    iGPS            $GPGGA,185218.000,4144.3490,N,06959.5719,W,2,09,1.00,9.3,M,-34.3,M,0000,0000*53 
126.001         GPS_NMEA_FROM_GPS    iGPS            $GPGGA,185219.000,4144.3488,N,06959.5720,W,2,09,1.00,9.2,M,-34.3,M,0000,0000*50 
127.104         GPS_NMEA_FROM_GPS    iGPS            $GPRMC,185220.000,A,4144.3486,N,06959.5721,W,0.79,196.26,310321,,,D*7D 
128.107         GPS_NMEA_FROM_GPS    iGPS            $GPRMC,185221.000,A,4144.3484,N,06959.5723,W,0.80,196.40,310321,,,D*7A 
129.009         GPS_NMEA_FROM_GPS    iGPS            $GPGGA,185222.000,4144.3482,N,06959.5724,W,2,09,1.00,9.4,M,-34.3,M,0000,0000*50 
130.011         GPS_NMEA_FROM_GPS    iGPS            $GPGGA,185223.000,4144.3480,N,06959.5725,W,2,09,1.00,9.4,M,-34.3,M,0000,0000*52 
131.014         GPS_NMEA_FROM_GPS    iGPS            $GPGGA,185224.000,4144.3478,N,06959.5726,W,2,09,1.00,9.4,M,-34.3,M,0000,0000*51 
132.016         GPS_NMEA_FROM_GPS    iGPS            $GPGGA,185225.000,4144.3476,N,06959.5727,W,2,09,1.00,9.4,M,-34.3,M,0000,0000*5F 
133.019         GPS_NMEA_FROM_GPS    iGPS            $GPGGA,185226.000,4144.3473,N,06959.5729,W,2,09,1.00,9.4,M,-34.3,M,0000,0000*57 
134.022         GPS_NMEA_FROM_GPS    iGPS            $GPGGA,185227.000,4144.3471,N,06959.5730,W,2,09,1.00,9.4,M,-34.3,M,0000,0000*5C 
135.025         GPS_NMEA_FROM_GPS    iGPS            $GPGGA,185228.000,4144.3469,N,06959.5731,W,2,09,1.00,9.5,M,-34.3,M,0000,0000*5A 
136.028         GPS_NMEA_FROM_GPS    iGPS            $GPGGA,185229.000,4144.3467,N,06959.5732,W,2,09,1.00,9.5,M,-34.3,M,0000,0000*56 
137.031         GPS_NMEA_FROM_GPS    iGPS            $GPRMC,185230.000,A,4144.3465,N,06959.5732,W,0.73,196.28,310321,,,D*77 
138.033         GPS_NMEA_FROM_GPS    iGPS            $GPGGA,185231.000,4144.3463,N,06959.5733,W,2,09,1.00,9.5,M,-34.3,M,0000,0000*5A 
139.036         GPS_NMEA_FROM_GPS    iGPS            $GPGGA,185232.000,4144.3461,N,06959.5734,W,2,09,1.00,9.5,M,-34.3,M,0000,0000*5C 
140.038         GPS_NMEA_FROM_GPS    iGPS            $GPRMC,185233.000,A,4144.3459,N,06959.5734,W,0.76,192.35,310321,,,D*70 
141.040         GPS_NMEA_FROM_GPS    iGPS            $GPGGA,185234.000,4144.3457,N,06959.5734,W,2,09,1.00,9.5,M,-34.3,M,0000,0000*5F 
142.043         GPS_NMEA_FROM_GPS    iGPS            $GPRMC,185235.000,A,4144.3455,N,06959.5735,W,0.78,189.86,310321,,,D*77 
142.945         GPS_NMEA_FROM_GPS    iGPS            $GPGGA,185236.000,4144.3453,N,06959.5735,W,2,09,1.00,9.5,M,-34.3,M,0000,0000*58 
144.049         GPS_NMEA_FROM_GPS    iGPS            $GPRMC,185237.000,A,4144.3451,N,06959.5735,W,0.65,186.54,310321,,,D*7D 
144.951         GPS_NMEA_FROM_GPS    iGPS            $GPGGA,185238.000,4144.3449,N,06959.5735,W,2,09,1.00,9.5,M,-34.3,M,0000,0000*5D 
146.054         GPS_NMEA_FROM_GPS    iGPS            $GPGGA,185239.000,4144.3447,N,06959.5735,W,2,09,1.00,9.4,M,-34.3,M,0000,0000*53 
147.057         GPS_NMEA_FROM_GPS    iGPS            $GPGGA,185240.000,4144.3446,N,06959.5734,W,2,09,1.00,9.3,M,-34.3,M,0000,0000*5A 
148.059         GPS_NMEA_FROM_GPS    iGPS            $GPGGA,185241.000,4144.3444,N,06959.5733,W,2,09,1.00,9.2,M,-34.3,M,0000,0000*5F 
148.962         GPS_NMEA_FROM_GPS    iGPS            $GPGGA,185242.000,4144.3443,N,06959.5733,W,2,09,1.00,9.3,M,-34.3,M,0000,0000*5A 
150.065         GPS_NMEA_FROM_GPS    iGPS            $GPGGA,185243.000,4144.3441,N,06959.5732,W,2,08,1.13,9.4,M,-34.3,M,0000,0000*5C 
150.967         GPS_NMEA_FROM_GPS    iGPS            $GPGGA,185244.000,4144.3439,N,06959.5731,W,2,09,1.00,9.4,M,-34.3,M,0000,0000*54 
152.070         GPS_NMEA_FROM_GPS    iGPS            $GPRMC,185245.000,A,4144.3437,N,06959.5730,W,0.75,154.85,310321,,,D*7F 
153.072         GPS_NMEA_FROM_GPS    iGPS            $GPGGA,185246.000,4144.3436,N,06959.5729,W,2,09,1.00,9.5,M,-34.3,M,0000,0000*51 
154.075         GPS_NMEA_FROM_GPS    iGPS            $GPRMC,185247.000,A,4144.3434,N,06959.5727,W,0.69,147.80,310321,,,D*72 
154.977         GPS_NMEA_FROM_GPS    iGPS            $GPGGA,185248.000,4144.3432,N,06959.5725,W,2,08,1.13,9.5,M,-34.3,M,0000,0000*54 
156.081         GPS_NMEA_FROM_GPS    iGPS            $GPGGA,185249.000,4144.3431,N,06959.5724,W,2,08,1.13,9.5,M,-34.3,M,0000,0000*57 
157.082         GPS_NMEA_FROM_GPS    iGPS            $GPRMC,185250.000,A,4144.3429,N,06959.5722,W,0.68,141.58,310321,,,D*7F 
157.984         GPS_NMEA_FROM_GPS    iGPS            $GPGGA,185251.000,4144.3427,N,06959.5720,W,2,09,1.00,9.5,M,-34.3,M,0000,0000*5E 
158.987         GPS_NMEA_FROM_GPS    iGPS            $GPGGA,185252.000,4144.3425,N,06959.5719,W,2,09,1.00,9.5,M,-34.3,M,0000,0000*55 
160.090         GPS_NMEA_FROM_GPS    iGPS            $GPRMC,185253.000,A,4144.3424,N,06959.5717,W,0.70,137.71,310321,,,D*74 
160.992         GPS_NMEA_FROM_GPS    iGPS            $GPGGA,185254.000,4144.3422,N,06959.5716,W,2,09,1.00,9.7,M,-34.3,M,0000,0000*59 
161.995         GPS_NMEA_FROM_GPS    iGPS            $GPGGA,185255.000,4144.3420,N,06959.5714,W,2,09,1.00,9.8,M,-34.3,M,0000,0000*57 
162.998         GPS_NMEA_FROM_GPS    iGPS            $GPRMC,185256.000,A,4144.3418,N,06959.5712,W,0.66,133.61,310321,,,D*79 
164.001         GPS_NMEA_FROM_GPS    iGPS            $GPGGA,185257.000,4144.3417,N,06959.5711,W,2,09,1.00,10.1,M,-34.3,M,0000,0000*65 
165.003         GPS_NMEA_FROM_GPS    iGPS            $GPGGA,185258.000,4144.3415,N,06959.5709,W,2,09,1.00,10.2,M,-34.3,M,0000,0000*62 
166.006         GPS_NMEA_FROM_GPS    iGPS            $GPGGA,185259.000,4144.3414,N,06959.5707,W,2,09,1.00,10.4,M,-34.3,M,0000,0000*6A 
167.008         GPS_NMEA_FROM_GPS    iGPS            $GPGGA,185300.000,4144.3412,N,06959.5705,W,2,09,1.00,10.4,M,-34.3,M,0000,0000*63 
168.111         GPS_NMEA_FROM_GPS    iGPS            $GPRMC,185301.000,A,4144.3411,N,06959.5703,W,0.70,123.17,310321,,,D*74 
169.013         GPS_NMEA_FROM_GPS    iGPS            $GPGGA,185302.000,4144.3410,N,06959.5701,W,2,09,1.00,10.6,M,-34.3,M,0000,0000*65 
170.016         GPS_NMEA_FROM_GPS    iGPS            $GPRMC,185303.000,A,4144.3409,N,06959.5698,W,0.71,119.54,310321,,,D*73 
171.018         GPS_NMEA_FROM_GPS    iGPS            $GPGGA,185304.000,4144.3408,N,06959.5696,W,2,09,1.00,10.8,M,-34.3,M,0000,0000*6B 
172.020         GPS_NMEA_FROM_GPS    iGPS            $GPGGA,185305.000,4144.3407,N,06959.5693,W,2,09,1.00,10.9,M,-34.3,M,0000,0000*61 
173.024         GPS_NMEA_FROM_GPS    iGPS            $GPGGA,185306.000,4144.3406,N,06959.5691,W,2,09,1.00,11.0,M,-34.3,M,0000,0000*69 
174.026         GPS_NMEA_FROM_GPS    iGPS            $GPGGA,185307.000,4144.3405,N,06959.5688,W,2,09,1.00,11.0,M,-34.3,M,0000,0000*63 
175.029         GPS_NMEA_FROM_GPS    iGPS            $GPGGA,185308.000,4144.3404,N,06959.5686,W,2,09,1.00,11.1,M,-34.3,M,0000,0000*62 
175.931         GPS_NMEA_FROM_GPS    iGPS            $GPGGA,185309.000,4144.3403,N,06959.5683,W,2,09,1.00,11.1,M,-34.3,M,0000,0000*61 
177.034         GPS_NMEA_FROM_GPS    iGPS            $GPGGA,185310.000,4144.3403,N,06959.5681,W,2,09,1.00,11.2,M,-34.3,M,0000,0000*68 
178.037         GPS_NMEA_FROM_GPS    iGPS            $GPGGA,185311.000,4144.3402,N,06959.5679,W,2,09,1.03,11.2,M,-34.3,M,0000,0000*6C 
179.039         GPS_NMEA_FROM_GPS    iGPS            $GPGGA,185312.000,4144.3401,N,06959.5677,W,2,09,1.00,11.2,M,-34.3,M,0000,0000*61 
180.042         GPS_NMEA_FROM_GPS    iGPS            $GPRMC,185313.000,A,4144.3399,N,06959.5674,W,0.70,117.96,310321,,,D*7F 
181.045         GPS_NMEA_FROM_GPS    iGPS            $GPGGA,185314.000,4144.3398,N,06959.5672,W,2,09,1.03,11.1,M,-34.3,M,0000,0000*65 
182.048         GPS_NMEA_FROM_GPS    iGPS            $GPRMC,185315.000,A,4144.3397,N,06959.5670,W,0.64,118.50,310321,,,D*73 
183.050         GPS_NMEA_FROM_GPS    iGPS            $GPRMC,185316.000,A,4144.3396,N,06959.5668,W,0.65,118.54,310321,,,D*7D 
184.052         GPS_NMEA_FROM_GPS    iGPS            $GPGGA,185317.000,4144.3395,N,06959.5665,W,2,09,1.03,11.1,M,-34.3,M,0000,0000*6D 
185.055         GPS_NMEA_FROM_GPS    iGPS            $GPRMC,185318.000,A,4144.3394,N,06959.5663,W,0.69,118.07,310321,,,D*70 
186.058         GPS_NMEA_FROM_GPS    iGPS            $GPRMC,185319.000,A,4144.3393,N,06959.5660,W,0.72,118.18,310321,,,D*71 
187.060         GPS_NMEA_FROM_GPS    iGPS            $GPRMC,185320.000,A,4144.3391,N,06959.5657,W,0.73,118.63,310321,,,D*70 
188.062         GPS_NMEA_FROM_GPS    iGPS            $GPGGA,185321.000,4144.3390,N,06959.5655,W,2,09,1.03,10.9,M,-34.3,M,0000,0000*67 
189.065         GPS_NMEA_FROM_GPS    iGPS            $GPGGA,185322.000,4144.3389,N,06959.5653,W,2,09,1.03,10.8,M,-34.3,M,0000,0000*6B 
190.068         GPS_NMEA_FROM_GPS    iGPS            $GPGGA,185323.000,4144.3388,N,06959.5651,W,2,09,1.03,10.7,M,-34.3,M,0000,0000*66 
191.070         GPS_NMEA_FROM_GPS    iGPS            $GPRMC,185324.000,A,4144.3387,N,06959.5648,W,0.71,115.62,310321,,,D*73 
192.073         GPS_NMEA_FROM_GPS    iGPS            $GPGGA,185325.000,4144.3386,N,06959.5646,W,2,09,1.03,10.5,M,-34.3,M,0000,0000*6A 
193.075         GPS_NMEA_FROM_GPS    iGPS            $GPRMC,185326.000,A,4144.3385,N,06959.5643,W,0.72,114.42,310321,,,D*78 
194.078         GPS_NMEA_FROM_GPS    iGPS            $GPGGA,185327.000,4144.3385,N,06959.5640,W,2,09,1.03,10.4,M,-34.3,M,0000,0000*6C 
195.080         GPS_NMEA_FROM_GPS    iGPS            $GPGGA,185328.000,4144.3384,N,06959.5637,W,2,09,1.00,10.4,M,-34.3,M,0000,0000*61 
196.083         GPS_NMEA_FROM_GPS    iGPS            $GPGGA,185329.000,4144.3384,N,06959.5634,W,2,09,1.00,10.4,M,-34.3,M,0000,0000*63 
196.985         GPS_NMEA_FROM_GPS    iGPS            $GPGGA,185330.000,4144.3383,N,06959.5630,W,2,09,1.00,10.5,M,-34.3,M,0000,0000*69 
198.088         GPS_NMEA_FROM_GPS    iGPS            $GPRMC,185331.000,A,4144.3382,N,06959.5627,W,0.78,106.86,310321,,,D*7A 
198.990         GPS_NMEA_FROM_GPS    iGPS            $GPGGA,185332.000,4144.3382,N,06959.5624,W,2,09,1.00,10.5,M,-34.3,M,0000,0000*6F 
199.993         GPS_NMEA_FROM_GPS    iGPS            $GPGGA,185333.000,4144.3381,N,06959.5621,W,2,09,1.00,10.6,M,-34.3,M,0000,0000*6B 
200.996         GPS_NMEA_FROM_GPS    iGPS            $GPGGA,185334.000,4144.3381,N,06959.5618,W,2,09,1.00,10.7,M,-34.3,M,0000,0000*67 
202.098         GPS_NMEA_FROM_GPS    iGPS            $GPGGA,185335.000,4144.3380,N,06959.5615,W,2,09,1.00,10.7,M,-34.3,M,0000,0000*6A 
203.001         GPS_NMEA_FROM_GPS    iGPS            $GPGGA,185336.000,4144.3380,N,06959.5612,W,2,09,1.00,10.9,M,-34.3,M,0000,0000*60 
204.003         GPS_NMEA_FROM_GPS    iGPS            $GPGGA,185337.000,4144.3379,N,06959.5609,W,2,09,1.00,11.0,M,-34.3,M,0000,0000*65 
205.006         GPS_NMEA_FROM_GPS    iGPS            $GPGGA,185338.000,4144.3379,N,06959.5605,W,2,09,1.00,11.1,M,-34.3,M,0000,0000*67 
206.008         GPS_NMEA_FROM_GPS    iGPS            $GPGGA,185339.000,4144.3378,N,06959.5602,W,2,09,1.00,11.2,M,-34.3,M,0000,0000*63 
207.011         GPS_NMEA_FROM_GPS    iGPS            $GPGGA,185340.000,4144.3378,N,06959.5599,W,2,09,1.00,11.2,M,-34.3,M,0000,0000*6C 
208.013         GPS_NMEA_FROM_GPS    iGPS            $GPGGA,185341.000,4144.3377,N,06959.5596,W,2,09,1.00,11.3,M,-34.3,M,0000,0000*6C 
209.116         GPS_NMEA_FROM_GPS    iGPS            $GPRMC,185342.000,A,4144.3377,N,06959.5593,W,0.76,101.92,310321,,,D*74 
210.018         GPS_NMEA_FROM_GPS    iGPS            $GPGGA,185343.000,4144.3377,N,06959.5589,W,2,09,1.00,11.4,M,-34.3,M,0000,0000*67 
211.021         GPS_NMEA_FROM_GPS    iGPS            $GPGGA,185344.000,4144.3376,N,06959.5586,W,2,09,1.00,11.5,M,-34.3,M,0000,0000*6F 
212.024         GPS_NMEA_FROM_GPS    iGPS            $GPGGA,185345.000,4144.3376,N,06959.5583,W,2,09,1.00,11.5,M,-34.3,M,0000,0000*6B 
213.027         GPS_NMEA_FROM_GPS    iGPS            $GPGGA,185346.000,4144.3375,N,06959.5580,W,2,09,1.00,11.6,M,-34.3,M,0000,0000*6B 
214.029         GPS_NMEA_FROM_GPS    iGPS            $GPGGA,185347.000,4144.3375,N,06959.5576,W,2,09,1.00,11.6,M,-34.3,M,0000,0000*63 
215.032         GPS_NMEA_FROM_GPS    iGPS            $GPRMC,185348.000,A,4144.3374,N,06959.5573,W,0.75,98.91,310321,,,D*42 
216.034         GPS_NMEA_FROM_GPS    iGPS            $GPGGA,185349.000,4144.3374,N,06959.5570,W,2,09,1.00,11.5,M,-34.3,M,0000,0000*69 
217.037         GPS_NMEA_FROM_GPS    iGPS            $GPGGA,185350.000,4144.3374,N,06959.5567,W,2,09,1.00,11.3,M,-34.3,M,0000,0000*61 
218.039         GPS_NMEA_FROM_GPS    iGPS            $GPGGA,185351.000,4144.3373,N,06959.5564,W,2,09,1.00,11.3,M,-34.3,M,0000,0000*64 
219.042         GPS_NMEA_FROM_GPS    iGPS            $GPGGA,185352.000,4144.3373,N,06959.5561,W,2,09,1.00,11.4,M,-34.3,M,0000,0000*65 
220.044         GPS_NMEA_FROM_GPS    iGPS            $GPGGA,185353.000,4144.3373,N,06959.5558,W,2,09,1.00,11.2,M,-34.3,M,0000,0000*68 
221.048         GPS_NMEA_FROM_GPS    iGPS            $GPRMC,185354.000,A,4144.3372,N,06959.5555,W,0.75,96.42,310321,,,D*4D 
222.050         GPS_NMEA_FROM_GPS    iGPS            $GPGGA,185355.000,4144.3372,N,06959.5552,W,2,09,1.00,11.1,M,-34.3,M,0000,0000*66 
223.052         GPS_NMEA_FROM_GPS    iGPS            $GPGGA,185356.000,4144.3371,N,06959.5549,W,2,09,1.00,11.1,M,-34.3,M,0000,0000*6C 
224.055         GPS_NMEA_FROM_GPS    iGPS            $GPGGA,185357.000,4144.3371,N,06959.5546,W,2,09,1.00,11.0,M,-34.3,M,0000,0000*63 
225.057         GPS_NMEA_FROM_GPS    iGPS            $GPRMC,185358.000,A,4144.3370,N,06959.5542,W,0.75,93.48,310321,,,D*4A 
226.060         GPS_NMEA_FROM_GPS    iGPS            $GPGGA,185359.000,4144.3370,N,06959.5539,W,2,09,1.00,11.0,M,-34.3,M,0000,0000*64 
226.962         GPS_NMEA_FROM_GPS    iGPS            $GPGGA,185400.000,4144.3369,N,06959.5536,W,2,09,1.00,10.9,M,-34.3,M,0000,0000*60 
228.064         GPS_NMEA_FROM_GPS    iGPS            $GPGGA,185401.000,4144.3369,N,06959.5533,W,2,09,1.00,10.9,M,-34.3,M,0000,0000*64 
229.067         GPS_NMEA_FROM_GPS    iGPS            $GPRMC,185402.000,A,4144.3369,N,06959.5529,W,0.76,89.96,310321,,,D*4C 
230.069         GPS_NMEA_FROM_GPS    iGPS            $GPGGA,185403.000,4144.3369,N,06959.5526,W,2,09,1.00,10.8,M,-34.3,M,0000,0000*63 
231.072         GPS_NMEA_FROM_GPS    iGPS            $GPGGA,185404.000,4144.3369,N,06959.5522,W,2,09,1.00,10.8,M,-34.3,M,0000,0000*60 
232.075         GPS_NMEA_FROM_GPS    iGPS            $GPRMC,185405.000,A,4144.3369,N,06959.5519,W,0.79,89.18,310321,,,D*41 
233.077         GPS_NMEA_FROM_GPS    iGPS            $GPRMC,185406.000,A,4144.3369,N,06959.5516,W,0.77,88.63,310321,,,D*4E 
234.080         GPS_NMEA_FROM_GPS    iGPS            $GPGGA,185407.000,4144.3369,N,06959.5512,W,2,09,1.00,10.6,M,-34.3,M,0000,0000*6E 
234.982         GPS_NMEA_FROM_GPS    iGPS            $GPGGA,185408.000,4144.3368,N,06959.5509,W,2,09,1.00,10.5,M,-34.3,M,0000,0000*69 
235.984         GPS_NMEA_FROM_GPS    iGPS            $GPGGA,185409.000,4144.3368,N,06959.5506,W,2,09,1.00,10.4,M,-34.3,M,0000,0000*66 
236.987         GPS_NMEA_FROM_GPS    iGPS            $GPGGA,185410.000,4144.3368,N,06959.5502,W,2,09,1.00,10.3,M,-34.3,M,0000,0000*6D 
238.090         GPS_NMEA_FROM_GPS    iGPS            $GPGGA,185411.000,4144.3368,N,06959.5499,W,2,09,1.00,10.3,M,-34.3,M,0000,0000*6F 
239.092         GPS_NMEA_FROM_GPS    iGPS            $GPRMC,185412.000,A,4144.3368,N,06959.5496,W,0.77,87.67,310321,,,D*48 
240.095         GPS_NMEA_FROM_GPS    iGPS            $GPRMC,185413.000,A,4144.3368,N,06959.5493,W,0.78,87.35,310321,,,D*44 
241.097         GPS_NMEA_FROM_GPS    iGPS            $GPRMC,185414.000,A,4144.3368,N,06959.5490,W,0.78,87.31,310321,,,D*44 
242.100         GPS_NMEA_FROM_GPS    iGPS            $GPRMC,185415.000,A,4144.3368,N,06959.5487,W,0.79,86.91,310321,,,D*49 
243.002         GPS_NMEA_FROM_GPS    iGPS            $GPGGA,185416.000,4144.3368,N,06959.5484,W,2,09,1.00,10.0,M,-34.3,M,0000,0000*67 
244.005         GPS_NMEA_FROM_GPS    iGPS            $GPGGA,185417.000,4144.3368,N,06959.5481,W,2,09,1.00,9.9,M,-34.3,M,0000,0000*52 
245.007         GPS_NMEA_FROM_GPS    iGPS            $GPGGA,185418.000,4144.3368,N,06959.5478,W,2,09,1.00,9.9,M,-34.3,M,0000,0000*5B 
246.010         GPS_NMEA_FROM_GPS    iGPS            $GPGGA,185419.000,4144.3369,N,06959.5475,W,2,09,1.00,9.8,M,-34.3,M,0000,0000*57 
247.013         GPS_NMEA_FROM_GPS    iGPS            $GPGGA,185420.000,4144.3369,N,06959.5472,W,2,09,1.00,9.7,M,-34.3,M,0000,0000*55 
248.015         GPS_NMEA_FROM_GPS    iGPS            $GPGGA,185421.000,4144.3369,N,06959.5469,W,2,09,1.00,9.6,M,-34.3,M,0000,0000*5F 
249.018         GPS_NMEA_FROM_GPS    iGPS            $GPGGA,185422.000,4144.3368,N,06959.5465,W,2,09,1.00,9.5,M,-34.3,M,0000,0000*52 
250.021         GPS_NMEA_FROM_GPS    iGPS            $GPRMC,185423.000,A,4144.3368,N,06959.5463,W,0.79,87.19,310321,,,D*47 
251.023         GPS_NMEA_FROM_GPS    iGPS            $GPGGA,185424.000,4144.3368,N,06959.5460,W,2,09,1.00,9.4,M,-34.3,M,0000,0000*50 
252.025         GPS_NMEA_FROM_GPS    iGPS            $GPGGA,185425.000,4144.3368,N,06959.5457,W,2,09,1.00,9.3,M,-34.3,M,0000,0000*52 
253.028         GPS_NMEA_FROM_GPS    iGPS            $GPGGA,185426.000,4144.3368,N,06959.5454,W,2,09,1.00,9.3,M,-34.3,M,0000,0000*52 
254.030         GPS_NMEA_FROM_GPS    iGPS            $GPRMC,185427.000,A,4144.3368,N,06959.5451,W,0.76,86.82,310321,,,D*4E 
255.033         GPS_NMEA_FROM_GPS    iGPS            $GPGGA,185428.000,4144.3368,N,06959.5447,W,2,09,1.00,9.2,M,-34.3,M,0000,0000*5F 
256.035         GPS_NMEA_FROM_GPS    iGPS            $GPRMC,185429.000,A,4144.3367,N,06959.5444,W,0.80,87.06,310321,,,D*4F 
257.038         GPS_NMEA_FROM_GPS    iGPS            $GPGGA,185430.000,4144.3367,N,06959.5441,W,2,09,1.00,9.0,M,-34.3,M,0000,0000*5D 
258.040         GPS_NMEA_FROM_GPS    iGPS            $GPGGA,185431.000,4144.3367,N,06959.5438,W,2,09,1.00,8.9,M,-34.3,M,0000,0000*5A 
259.043         GPS_NMEA_FROM_GPS    iGPS            $GPGGA,185432.000,4144.3367,N,06959.5435,W,2,09,1.00,8.9,M,-34.3,M,0000,0000*54 
260.046         GPS_NMEA_FROM_GPS    iGPS            $GPGGA,185433.000,4144.3367,N,06959.5432,W,2,09,1.00,8.8,M,-34.3,M,0000,0000*53 
261.048         GPS_NMEA_FROM_GPS    iGPS            $GPGGA,185434.000,4144.3368,N,06959.5429,W,2,09,1.00,8.7,M,-34.3,M,0000,0000*5E 
262.051         GPS_NMEA_FROM_GPS    iGPS            $GPGGA,185435.000,4144.3368,N,06959.5426,W,2,09,1.00,8.7,M,-34.3,M,0000,0000*50 
263.055         GPS_NMEA_FROM_GPS    iGPS            $GPGGA,185436.000,4144.3368,N,06959.5423,W,2,09,1.00,8.7,M,-34.3,M,0000,0000*56 
264.057         GPS_NMEA_FROM_GPS    iGPS            $GPGGA,185437.000,4144.3368,N,06959.5420,W,2,09,1.00,8.6,M,-34.3,M,0000,0000*55 
265.060         GPS_NMEA_FROM_GPS    iGPS            $GPRMC,185438.000,A,4144.3368,N,06959.5417,W,0.77,83.59,310321,,,D*40 
266.062         GPS_NMEA_FROM_GPS    iGPS            $GPGGA,185439.000,4144.3368,N,06959.5414,W,2,09,1.00,8.4,M,-34.3,M,0000,0000*5E 
267.065         GPS_NMEA_FROM_GPS    iGPS            $GPGGA,185440.000,4144.3368,N,06959.5411,W,2,09,1.00,8.4,M,-34.3,M,0000,0000*55 
268.068         GPS_NMEA_FROM_GPS    iGPS            $GPRMC,185441.000,A,4144.3369,N,06959.5408,W,0.77,84.77,310321,,,D*4A 
269.070         GPS_NMEA_FROM_GPS    iGPS            $GPRMC,185442.000,A,4144.3369,N,06959.5405,W,0.84,86.78,310321,,,D*45 
270.072         GPS_NMEA_FROM_GPS    iGPS            $GPRMC,185443.000,A,4144.3369,N,06959.5402,W,0.74,86.11,310321,,,D*43 
270.975         GPS_NMEA_FROM_GPS    iGPS            $GPGGA,185444.000,4144.3369,N,06959.5399,W,2,09,1.00,8.4,M,-34.3,M,0000,0000*57 
272.077         GPS_NMEA_FROM_GPS    iGPS            $GPGGA,185445.000,4144.3369,N,06959.5396,W,2,09,1.00,8.4,M,-34.3,M,0000,0000*59 
273.079         GPS_NMEA_FROM_GPS    iGPS            $GPRMC,185446.000,A,4144.3368,N,06959.5393,W,0.76,87.66,310321,,,D*4B 
274.082         GPS_NMEA_FROM_GPS    iGPS            $GPRMC,185447.000,A,4144.3368,N,06959.5391,W,0.75,87.87,310321,,,D*44 
274.984         GPS_NMEA_FROM_GPS    iGPS            $GPGGA,185448.000,4144.3368,N,06959.5388,W,2,09,1.00,8.4,M,-34.3,M,0000,0000*5A 
275.987         GPS_NMEA_FROM_GPS    iGPS            $GPGGA,185449.000,4144.3368,N,06959.5385,W,2,09,1.00,8.5,M,-34.3,M,0000,0000*57 
276.989         GPS_NMEA_FROM_GPS    iGPS            $GPGGA,185450.000,4144.3368,N,06959.5382,W,2,09,1.00,8.4,M,-34.3,M,0000,0000*59 
277.992         GPS_NMEA_FROM_GPS    iGPS            $GPGGA,185451.000,4144.3368,N,06959.5379,W,2,09,1.00,8.5,M,-34.3,M,0000,0000*5D 
278.994         GPS_NMEA_FROM_GPS    iGPS            $GPGGA,185452.000,4144.3369,N,06959.5376,W,2,09,1.00,8.5,M,-34.3,M,0000,0000*50 
279.997         GPS_NMEA_FROM_GPS    iGPS            $GPGGA,185453.000,4144.3369,N,06959.5374,W,2,09,1.00,8.5,M,-34.3,M,0000,0000*53 
281.100         GPS_NMEA_FROM_GPS    iGPS            $GPRMC,185454.000,A,4144.3370,N,06959.5371,W,0.77,85.52,310321,,,D*49 
282.002         GPS_NMEA_FROM_GPS    iGPS            $GPGGA,185455.000,4144.3370,N,06959.5368,W,2,09,1.00,8.5,M,-34.3,M,0000,0000*50 
283.105         GPS_NMEA_FROM_GPS    iGPS            $GPRMC,185456.000,A,4144.3371,N,06959.5365,W,0.73,83.03,310321,,,D*49 
284.107         GPS_NMEA_FROM_GPS    iGPS            $GPRMC,185457.000,A,4144.3372,N,06959.5362,W,0.75,81.44,310321,,,D*4B 
285.110         GPS_NMEA_FROM_GPS    iGPS            $GPRMC,185458.000,A,4144.3373,N,06959.5359,W,0.74,80.41,310321,,,D*48 
286.012         GPS_NMEA_FROM_GPS    iGPS            $GPGGA,185459.000,4144.3374,N,06959.5356,W,2,09,1.04,8.4,M,-34.3,M,0000,0000*50 
287.114         GPS_NMEA_FROM_GPS    iGPS            $GPRMC,185500.000,A,4144.3375,N,06959.5353,W,0.77,78.82,310321,,,D*43 
288.016         GPS_NMEA_FROM_GPS    iGPS            $GPGGA,185501.000,4144.3376,N,06959.5350,W,2,09,1.00,8.3,M,-34.3,M,0000,0000*5B 
289.019         GPS_NMEA_FROM_GPS    iGPS            $GPGGA,185502.000,4144.3376,N,06959.5347,W,2,09,1.00,8.3,M,-34.3,M,0000,0000*5E 
290.022         GPS_NMEA_FROM_GPS    iGPS            $GPGGA,185503.000,4144.3377,N,06959.5344,W,2,09,1.00,8.3,M,-34.3,M,0000,0000*5D 
291.024         GPS_NMEA_FROM_GPS    iGPS            $GPGGA,185504.000,4144.3378,N,06959.5341,W,2,09,1.00,8.3,M,-34.3,M,0000,0000*50 
292.027         GPS_NMEA_FROM_GPS    iGPS            $GPGGA,185505.000,4144.3379,N,06959.5338,W,2,09,1.00,8.3,M,-34.3,M,0000,0000*5E 
293.029         GPS_NMEA_FROM_GPS    iGPS            $GPGGA,185506.000,4144.3379,N,06959.5336,W,2,09,1.00,8.3,M,-34.3,M,0000,0000*53 
294.032         GPS_NMEA_FROM_GPS    iGPS            $GPGGA,185507.000,4144.3380,N,06959.5333,W,2,09,1.00,8.3,M,-34.3,M,0000,0000*51 
295.035         GPS_NMEA_FROM_GPS    iGPS            $GPRMC,185508.000,A,4144.3381,N,06959.5330,W,0.78,77.76,310321,,,D*4E 
296.037         GPS_NMEA_FROM_GPS    iGPS            $GPRMC,185509.000,A,4144.3381,N,06959.5327,W,0.82,78.54,310321,,,D*43 
297.040         GPS_NMEA_FROM_GPS    iGPS            $GPGGA,185510.000,4144.3382,N,06959.5323,W,2,09,1.04,8.3,M,-34.3,M,0000,0000*50 
298.042         GPS_NMEA_FROM_GPS    iGPS            $GPRMC,185511.000,A,4144.3382,N,06959.5321,W,0.73,81.55,310321,,,D*46 
299.045         GPS_NMEA_FROM_GPS    iGPS            $GPRMC,185512.000,A,4144.3382,N,06959.5318,W,0.70,82.92,310321,,,D*44 
300.047         GPS_NMEA_FROM_GPS    iGPS            $GPGGA,185513.000,4144.3382,N,06959.5315,W,2,09,1.04,8.1,M,-34.3,M,0000,0000*54 
301.051         GPS_NMEA_FROM_GPS    iGPS            $GPRMC,185514.000,A,4144.3382,N,06959.5313,W,0.67,82.90,310321,,,D*4D 
302.053         GPS_NMEA_FROM_GPS    iGPS            $GPGGA,185515.000,4144.3383,N,06959.5310,W,2,09,1.00,8.0,M,-34.3,M,0000,0000*53 
303.056         GPS_NMEA_FROM_GPS    iGPS            $GPRMC,185516.000,A,4144.3384,N,06959.5308,W,0.67,79.09,310321,,,D*47 
304.058         GPS_NMEA_FROM_GPS    iGPS            $GPGGA,185517.000,4144.3384,N,06959.5305,W,2,09,1.00,7.9,M,-34.3,M,0000,0000*54 
305.061         GPS_NMEA_FROM_GPS    iGPS            $GPGGA,185518.000,4144.3385,N,06959.5303,W,2,09,1.00,7.9,M,-34.3,M,0000,0000*5C 
306.064         GPS_NMEA_FROM_GPS    iGPS            $GPGGA,185519.000,4144.3386,N,06959.5300,W,2,09,1.04,7.8,M,-34.3,M,0000,0000*58 
307.066         GPS_NMEA_FROM_GPS    iGPS            $GPRMC,185520.000,A,4144.3387,N,06959.5298,W,0.72,71.98,310321,,,D*4D 
308.069         GPS_NMEA_FROM_GPS    iGPS            $GPGGA,185521.000,4144.3388,N,06959.5295,W,2,09,1.00,7.8,M,-34.3,M,0000,0000*54 
309.071         GPS_NMEA_FROM_GPS    iGPS            $GPGGA,185522.000,4144.3389,N,06959.5292,W,2,09,1.04,7.8,M,-34.3,M,0000,0000*55 
309.974         GPS_NMEA_FROM_GPS    iGPS            $GPGGA,185523.000,4144.3390,N,06959.5289,W,2,09,1.00,7.8,M,-34.3,M,0000,0000*52 
311.077         GPS_NMEA_FROM_GPS    iGPS            $GPRMC,185524.000,A,4144.3390,N,06959.5287,W,0.77,74.08,310321,,,D*48 
312.079         GPS_NMEA_FROM_GPS    iGPS            $GPRMC,185525.000,A,4144.3391,N,06959.5284,W,0.77,75.35,310321,,,D*44 
312.981         GPS_NMEA_FROM_GPS    iGPS            $GPGGA,185526.000,4144.3391,N,06959.5281,W,2,09,1.00,7.6,M,-34.3,M,0000,0000*50 
314.085         GPS_NMEA_FROM_GPS    iGPS            $GPRMC,185527.000,A,4144.3392,N,06959.5278,W,0.77,78.54,310321,,,D*4C 
315.087         GPS_NMEA_FROM_GPS    iGPS            $GPRMC,185528.000,A,4144.3392,N,06959.5276,W,0.69,77.67,310321,,,D*4D 
315.989         GPS_NMEA_FROM_GPS    iGPS            $GPGGA,185529.000,4144.3393,N,06959.5273,W,2,09,1.00,7.5,M,-34.3,M,0000,0000*53 
316.992         GPS_NMEA_FROM_GPS    iGPS            $GPGGA,185530.000,4144.3393,N,06959.5271,W,2,09,1.04,7.4,M,-34.3,M,0000,0000*5C 
318.094         GPS_NMEA_FROM_GPS    iGPS            $GPGGA,185531.000,4144.3394,N,06959.5269,W,2,09,1.04,7.4,M,-34.3,M,0000,0000*53 
318.997         GPS_NMEA_FROM_GPS    iGPS            $GPGGA,185532.000,4144.3394,N,06959.5266,W,2,09,1.00,7.3,M,-34.3,M,0000,0000*5C 
320.000         GPS_NMEA_FROM_GPS    iGPS            $GPGGA,185533.000,4144.3395,N,06959.5263,W,2,09,1.00,7.2,M,-34.3,M,0000,0000*58 
321.004         GPS_NMEA_FROM_GPS    iGPS            $GPGGA,185534.000,4144.3396,N,06959.5261,W,2,09,1.00,7.1,M,-34.3,M,0000,0000*5D 
322.006         GPS_NMEA_FROM_GPS    iGPS            $GPGGA,185535.000,4144.3397,N,06959.5258,W,2,09,1.01,7.1,M,-34.3,M,0000,0000*56 
323.009         GPS_NMEA_FROM_GPS    iGPS            $GPGGA,185536.000,4144.3397,N,06959.5254,W,2,09,1.00,7.0,M,-34.3,M,0000,0000*59 
324.112         GPS_NMEA_FROM_GPS    iGPS            $GPGGA,185537.000,4144.3398,N,06959.5251,W,2,09,1.00,6.9,M,-34.3,M,0000,0000*5A 
325.014         GPS_NMEA_FROM_GPS    iGPS            $GPGGA,185538.000,4144.3399,N,06959.5248,W,2,09,1.00,6.8,M,-34.3,M,0000,0000*5D 
326.117         GPS_NMEA_FROM_GPS    iGPS            $GPRMC,185539.000,A,4144.3400,N,06959.5246,W,0.73,68.26,310321,,,D*42 
327.019         GPS_NMEA_FROM_GPS    iGPS            $GPGGA,185540.000,4144.3401,N,06959.5243,W,2,09,1.04,6.7,M,-34.3,M,0000,0000*54 
328.122         GPS_NMEA_FROM_GPS    iGPS            $GPRMC,185541.000,A,4144.3402,N,06959.5240,W,0.75,67.64,310321,,,D*46 
329.124         GPS_NMEA_FROM_GPS    iGPS            $GPRMC,185542.000,A,4144.3403,N,06959.5237,W,0.79,68.06,310321,,,D*43 
330.027         GPS_NMEA_FROM_GPS    iGPS            $GPGGA,185543.000,4144.3404,N,06959.5234,W,2,09,1.01,6.6,M,-34.3,M,0000,0000*56 
331.029         GPS_NMEA_FROM_GPS    iGPS            $GPGGA,185544.000,4144.3404,N,06959.5231,W,2,09,1.01,6.5,M,-34.3,M,0000,0000*57 
332.032         GPS_NMEA_FROM_GPS    iGPS            $GPGGA,185545.000,4144.3405,N,06959.5229,W,2,08,1.12,6.6,M,-34.3,M,0000,0000*5E 
333.035         GPS_NMEA_FROM_GPS    iGPS            $GPGGA,185546.000,4144.3406,N,06959.5226,W,2,09,1.01,6.6,M,-34.3,M,0000,0000*52 
334.037         GPS_NMEA_FROM_GPS    iGPS            $GPGGA,185547.000,4144.3406,N,06959.5223,W,2,08,1.12,6.5,M,-34.3,M,0000,0000*56 
335.040         GPS_NMEA_FROM_GPS    iGPS            $GPGGA,185548.000,4144.3407,N,06959.5221,W,2,08,1.12,6.6,M,-34.3,M,0000,0000*59 
336.042         GPS_NMEA_FROM_GPS    iGPS            $GPGGA,185549.000,4144.3408,N,06959.5218,W,2,08,1.12,6.6,M,-34.3,M,0000,0000*5D 
337.045         GPS_NMEA_FROM_GPS    iGPS            $GPGGA,185550.000,4144.3408,N,06959.5215,W,2,09,1.04,6.5,M,-34.3,M,0000,0000*5D 
338.048         GPS_NMEA_FROM_GPS    iGPS            $GPRMC,185551.000,A,4144.3409,N,06959.5213,W,0.66,76.87,310321,,,D*45 
339.050         GPS_NMEA_FROM_GPS    iGPS            $GPGGA,185552.000,4144.3410,N,06959.5211,W,2,09,1.04,6.4,M,-34.3,M,0000,0000*53 
340.052         GPS_NMEA_FROM_GPS    iGPS            $GPGGA,185553.000,4144.3411,N,06959.5208,W,2,09,1.01,6.3,M,-34.3,M,0000,0000*59 
341.055         GPS_NMEA_FROM_GPS    iGPS            $GPRMC,185554.000,A,4144.3412,N,06959.5206,W,0.73,72.08,310321,,,D*49 
342.057         GPS_NMEA_FROM_GPS    iGPS            $GPRMC,185555.000,A,4144.3413,N,06959.5203,W,0.74,70.28,310321,,,D*4B 
343.060         GPS_NMEA_FROM_GPS    iGPS            $GPRMC,185556.000,A,4144.3414,N,06959.5200,W,0.74,69.21,310321,,,D*4D 
343.962         GPS_NMEA_FROM_GPS    iGPS            $GPGGA,185557.000,4144.3415,N,06959.5198,W,2,09,1.01,6.2,M,-34.3,M,0000,0000*52 
344.965         GPS_NMEA_FROM_GPS    iGPS            $GPGGA,185558.000,4144.3416,N,06959.5195,W,2,09,1.04,6.2,M,-34.3,M,0000,0000*56 
346.067         GPS_NMEA_FROM_GPS    iGPS            $GPRMC,185559.000,A,4144.3417,N,06959.5192,W,0.76,66.25,310321,,,D*40 
347.069         GPS_NMEA_FROM_GPS    iGPS            $GPGGA,185600.000,4144.3418,N,06959.5189,W,2,09,1.01,6.1,M,-34.3,M,0000,0000*5D 
348.072         GPS_NMEA_FROM_GPS    iGPS            $GPGGA,185601.000,4144.3418,N,06959.5186,W,2,09,1.01,6.1,M,-34.3,M,0000,0000*53 
349.075         GPS_NMEA_FROM_GPS    iGPS            $GPGGA,185602.000,4144.3419,N,06959.5183,W,2,09,1.04,6.1,M,-34.3,M,0000,0000*51 
349.977         GPS_NMEA_FROM_GPS    iGPS            $GPGGA,185603.000,4144.3420,N,06959.5181,W,2,09,1.01,6.1,M,-34.3,M,0000,0000*5D 
351.080         GPS_NMEA_FROM_GPS    iGPS            $GPGGA,185604.000,4144.3421,N,06959.5178,W,2,09,1.01,6.0,M,-34.3,M,0000,0000*5C 
352.082         GPS_NMEA_FROM_GPS    iGPS            $GPGGA,185605.000,4144.3421,N,06959.5176,W,2,09,1.01,5.9,M,-34.3,M,0000,0000*59 
352.985         GPS_NMEA_FROM_GPS    iGPS            $GPGGA,185606.000,4144.3422,N,06959.5174,W,2,09,1.01,5.9,M,-34.3,M,0000,0000*5B 
354.087         GPS_NMEA_FROM_GPS    iGPS            $GPGGA,185607.000,4144.3423,N,06959.5172,W,2,09,1.04,5.8,M,-34.3,M,0000,0000*59 
354.990         GPS_NMEA_FROM_GPS    iGPS            $GPGGA,185608.000,4144.3425,N,06959.5171,W,2,09,1.01,5.7,M,-34.3,M,0000,0000*59 
356.093         GPS_NMEA_FROM_GPS    iGPS            $GPRMC,185609.000,A,4144.3426,N,06959.5169,W,0.63,57.77,310321,,,D*41 
357.096         GPS_NMEA_FROM_GPS    iGPS            $GPRMC,185610.000,A,4144.3428,N,06959.5168,W,0.64,54.98,310321,,,D*43 
357.998         GPS_NMEA_FROM_GPS    iGPS            $GPGGA,185611.000,4144.3429,N,06959.5167,W,2,09,1.04,5.6,M,-34.3,M,0000,0000*5E 
359.001         GPS_NMEA_FROM_GPS    iGPS            $GPGGA,185612.000,4144.3431,N,06959.5165,W,2,09,1.04,5.6,M,-34.3,M,0000,0000*56 
360.104         GPS_NMEA_FROM_GPS    iGPS            $GPGGA,185613.000,4144.3433,N,06959.5163,W,2,09,1.01,5.6,M,-34.3,M,0000,0000*56 
361.006         GPS_NMEA_FROM_GPS    iGPS            $GPGGA,185614.000,4144.3434,N,06959.5161,W,2,09,1.01,5.6,M,-34.3,M,0000,0000*54 
362.009         GPS_NMEA_FROM_GPS    iGPS            $GPGGA,185615.000,4144.3436,N,06959.5160,W,2,09,1.04,5.6,M,-34.3,M,0000,0000*53 
363.012         GPS_NMEA_FROM_GPS    iGPS            $GPGGA,185616.000,4144.3438,N,06959.5158,W,2,09,1.01,5.6,M,-34.3,M,0000,0000*50 
364.013         GPS_NMEA_FROM_GPS    iGPS            $GPGGA,185617.000,4144.3440,N,06959.5157,W,2,09,1.01,5.6,M,-34.3,M,0000,0000*51 
365.016         GPS_NMEA_FROM_GPS    iGPS            $GPGGA,185618.000,4144.3442,N,06959.5155,W,2,09,1.04,5.6,M,-34.3,M,0000,0000*5B 
366.019         GPS_NMEA_FROM_GPS    iGPS            $GPGGA,185619.000,4144.3443,N,06959.5153,W,2,09,1.04,5.6,M,-34.3,M,0000,0000*5D 
367.021         GPS_NMEA_FROM_GPS    iGPS            $GPGGA,185620.000,4144.3445,N,06959.5152,W,2,09,1.04,5.5,M,-34.3,M,0000,0000*53 
368.024         GPS_NMEA_FROM_GPS    iGPS            $GPGGA,185621.000,4144.3446,N,06959.5150,W,2,09,1.04,5.5,M,-34.3,M,0000,0000*53 
369.027         GPS_NMEA_FROM_GPS    iGPS            $GPGGA,185622.000,4144.3448,N,06959.5148,W,2,09,1.04,5.4,M,-34.3,M,0000,0000*56 
370.029         GPS_NMEA_FROM_GPS    iGPS            $GPGGA,185623.000,4144.3450,N,06959.5146,W,2,09,1.04,5.3,M,-34.3,M,0000,0000*57 
371.032         GPS_NMEA_FROM_GPS    iGPS            $GPRMC,185624.000,A,4144.3451,N,06959.5144,W,0.68,48.44,310321,,,D*44 
372.035         GPS_NMEA_FROM_GPS    iGPS            $GPGGA,185625.000,4144.3452,N,06959.5143,W,2,09,1.04,5.1,M,-34.3,M,0000,0000*54 
373.037         GPS_NMEA_FROM_GPS    iGPS            $GPGGA,185626.000,4144.3454,N,06959.5141,W,2,09,1.04,4.9,M,-34.3,M,0000,0000*5A 
374.040         GPS_NMEA_FROM_GPS    iGPS            $GPRMC,185627.000,A,4144.3456,N,06959.5139,W,0.71,47.15,310321,,,D*49 
375.042         GPS_NMEA_FROM_GPS    iGPS            $GPGGA,185628.000,4144.3458,N,06959.5137,W,2,09,1.01,4.7,M,-34.3,M,0000,0000*52 
376.045         GPS_NMEA_FROM_GPS    iGPS            $GPGGA,185629.000,4144.3460,N,06959.5136,W,2,09,1.04,4.8,M,-34.3,M,0000,0000*53 
377.048         GPS_NMEA_FROM_GPS    iGPS            $GPGGA,185630.000,4144.3461,N,06959.5134,W,2,09,1.01,4.8,M,-34.3,M,0000,0000*5D 
378.051         GPS_NMEA_FROM_GPS    iGPS            $GPGGA,185631.000,4144.3463,N,06959.5133,W,2,09,1.01,4.8,M,-34.3,M,0000,0000*59 
379.054         GPS_NMEA_FROM_GPS    iGPS            $GPRMC,185632.000,A,4144.3465,N,06959.5131,W,0.69,40.89,310321,,,D*4E 
380.056         GPS_NMEA_FROM_GPS    iGPS            $GPRMC,185633.000,A,4144.3467,N,06959.5129,W,0.75,40.76,310321,,,D*49 
381.059         GPS_NMEA_FROM_GPS    iGPS            $GPGGA,185634.000,4144.3468,N,06959.5127,W,2,09,1.01,4.6,M,-34.3,M,0000,0000*5C 
381.961         GPS_NMEA_FROM_GPS    iGPS            $GPGGA,185635.000,4144.3470,N,06959.5126,W,2,09,1.01,4.5,M,-34.3,M,0000,0000*56 
382.964         GPS_NMEA_FROM_GPS    iGPS            $GPGGA,185636.000,4144.3472,N,06959.5124,W,2,09,1.01,4.4,M,-34.3,M,0000,0000*54 
384.067         GPS_NMEA_FROM_GPS    iGPS            $GPRMC,185637.000,A,4144.3474,N,06959.5123,W,0.73,38.78,310321,,,D*42 
384.969         GPS_NMEA_FROM_GPS    iGPS            $GPGGA,185638.000,4144.3475,N,06959.5121,W,2,09,1.01,4.4,M,-34.3,M,0000,0000*58 
385.972         GPS_NMEA_FROM_GPS    iGPS            $GPGGA,185639.000,4144.3477,N,06959.5119,W,2,09,1.01,4.4,M,-34.3,M,0000,0000*50 
387.075         GPS_NMEA_FROM_GPS    iGPS            $GPRMC,185640.000,A,4144.3479,N,06959.5118,W,0.75,41.12,310321,,,D*43 
387.977         GPS_NMEA_FROM_GPS    iGPS            $GPGGA,185641.000,4144.3480,N,06959.5116,W,2,09,1.01,4.5,M,-34.3,M,0000,0000*59 
389.079         GPS_NMEA_FROM_GPS    iGPS            $GPGGA,185642.000,4144.3481,N,06959.5114,W,2,09,1.01,4.5,M,-34.3,M,0000,0000*59 
390.082         GPS_NMEA_FROM_GPS    iGPS            $GPGGA,185643.000,4144.3483,N,06959.5112,W,2,09,1.01,4.5,M,-34.3,M,0000,0000*5C 
391.084         GPS_NMEA_FROM_GPS    iGPS            $GPGGA,185644.000,4144.3485,N,06959.5111,W,2,09,1.01,4.5,M,-34.3,M,0000,0000*5E 
391.987         GPS_NMEA_FROM_GPS    iGPS            $GPGGA,185645.000,4144.3486,N,06959.5109,W,2,09,1.01,4.6,M,-34.3,M,0000,0000*56 
392.989         GPS_NMEA_FROM_GPS    iGPS            $GPGGA,185646.000,4144.3488,N,06959.5108,W,2,09,1.01,4.7,M,-34.3,M,0000,0000*5B 
393.992         GPS_NMEA_FROM_GPS    iGPS            $GPGGA,185647.000,4144.3489,N,06959.5106,W,2,09,1.01,4.7,M,-34.3,M,0000,0000*55 
394.995         GPS_NMEA_FROM_GPS    iGPS            $GPGGA,185648.000,4144.3491,N,06959.5104,W,2,09,1.01,4.8,M,-34.3,M,0000,0000*5E 
396.098         GPS_NMEA_FROM_GPS    iGPS            $GPRMC,185649.000,A,4144.3493,N,06959.5102,W,0.77,38.52,310321,,,D*4D 
397.000         GPS_NMEA_FROM_GPS    iGPS            $GPGGA,185650.000,4144.3494,N,06959.5101,W,2,09,1.01,4.8,M,-34.3,M,0000,0000*57 
398.103         GPS_NMEA_FROM_GPS    iGPS            $GPRMC,185651.000,A,4144.3496,N,06959.5099,W,0.76,36.95,310321,,,D*46 
399.105         GPS_NMEA_FROM_GPS    iGPS            $GPRMC,185652.000,A,4144.3498,N,06959.5097,W,0.76,36.13,310321,,,D*4B 
400.008         GPS_NMEA_FROM_GPS    iGPS            $GPGGA,185653.000,4144.3501,N,06959.5095,W,2,09,1.01,5.0,M,-34.3,M,0000,0000*5C 
401.010         GPS_NMEA_FROM_GPS    iGPS            $GPGGA,185654.000,4144.3503,N,06959.5093,W,2,09,1.01,5.0,M,-34.3,M,0000,0000*5F 
402.113         GPS_NMEA_FROM_GPS    iGPS            $GPRMC,185655.000,A,4144.3505,N,06959.5091,W,0.79,34.62,310321,,,D*44 
403.016         GPS_NMEA_FROM_GPS    iGPS            $GPGGA,185656.000,4144.3507,N,06959.5089,W,2,09,1.01,5.2,M,-34.3,M,0000,0000*50 
404.018         GPS_NMEA_FROM_GPS    iGPS            $GPGGA,185657.000,4144.3509,N,06959.5087,W,2,09,1.01,5.2,M,-34.3,M,0000,0000*51 
405.021         GPS_NMEA_FROM_GPS    iGPS            $GPGGA,185658.000,4144.3511,N,06959.5086,W,2,09,1.01,5.3,M,-34.3,M,0000,0000*57 
406.023         GPS_NMEA_FROM_GPS    iGPS            $GPGGA,185659.000,4144.3513,N,06959.5084,W,2,09,1.01,5.4,M,-34.3,M,0000,0000*51 
407.025         GPS_NMEA_FROM_GPS    iGPS            $GPRMC,185700.000,A,4144.3515,N,06959.5082,W,0.78,33.89,310321,,,D*45 
408.028         GPS_NMEA_FROM_GPS    iGPS            $GPGGA,185701.000,4144.3517,N,06959.5080,W,2,09,1.01,5.5,M,-34.3,M,0000,0000*5C 
409.030         GPS_NMEA_FROM_GPS    iGPS            $GPGGA,185702.000,4144.3519,N,06959.5078,W,2,09,1.01,5.5,M,-34.3,M,0000,0000*56 
410.033         GPS_NMEA_FROM_GPS    iGPS            $GPGGA,185703.000,4144.3521,N,06959.5077,W,2,09,1.01,5.6,M,-34.3,M,0000,0000*50 
411.035         GPS_NMEA_FROM_GPS    iGPS            $GPGGA,185704.000,4144.3523,N,06959.5075,W,2,09,1.01,5.7,M,-34.3,M,0000,0000*56 
412.038         GPS_NMEA_FROM_GPS    iGPS            $GPGGA,185705.000,4144.3525,N,06959.5073,W,2,09,1.01,5.7,M,-34.3,M,0000,0000*57 
413.040         GPS_NMEA_FROM_GPS    iGPS            $GPRMC,185706.000,A,4144.3527,N,06959.5072,W,0.75,33.42,310321,,,D*47 
414.043         GPS_NMEA_FROM_GPS    iGPS            $GPGGA,185707.000,4144.3529,N,06959.5070,W,2,09,1.01,5.8,M,-34.3,M,0000,0000*55 
415.045         GPS_NMEA_FROM_GPS    iGPS            $GPGGA,185708.000,4144.3531,N,06959.5068,W,2,09,1.01,5.9,M,-34.3,M,0000,0000*5B 
416.048         GPS_NMEA_FROM_GPS    iGPS            $GPRMC,185709.000,A,4144.3533,N,06959.5066,W,0.77,33.48,310321,,,D*40 
417.050         GPS_NMEA_FROM_GPS    iGPS            $GPGGA,185710.000,4144.3535,N,06959.5064,W,2,08,1.12,6.0,M,-34.3,M,0000,0000*53 
417.953         GPS_NMEA_FROM_GPS    iGPS            $GPGGA,185711.000,4144.3537,N,06959.5062,W,2,08,1.12,6.0,M,-34.3,M,0000,0000*56 
419.058         GPS_NMEA_FROM_GPS    iGPS            $GPGGA,185712.000,4144.3539,N,06959.5061,W,2,08,1.12,6.2,M,-34.3,M,0000,0000*5A 
420.062         GPS_NMEA_FROM_GPS    iGPS            $GPGGA,185713.000,4144.3542,N,06959.5059,W,2,08,1.12,6.3,M,-34.3,M,0000,0000*5D 
420.964         GPS_NMEA_FROM_GPS    iGPS            $GPGGA,185714.000,4144.3544,N,06959.5057,W,2,08,1.12,6.3,M,-34.3,M,0000,0000*52 
421.967         GPS_NMEA_FROM_GPS    iGPS            $GPGGA,185715.000,4144.3546,N,06959.5056,W,2,08,1.12,6.3,M,-34.3,M,0000,0000*50 
423.070         GPS_NMEA_FROM_GPS    iGPS            $GPGGA,185716.000,4144.3548,N,06959.5055,W,2,08,1.12,6.3,M,-34.3,M,0000,0000*5E 
423.972         GPS_NMEA_FROM_GPS    iGPS            $GPGGA,185717.000,4144.3550,N,06959.5054,W,2,09,1.01,6.4,M,-34.3,M,0000,0000*53 
424.975         GPS_NMEA_FROM_GPS    iGPS            $GPGGA,185718.000,4144.3551,N,06959.5053,W,2,09,1.01,6.5,M,-34.3,M,0000,0000*5B 
425.977         GPS_NMEA_FROM_GPS    iGPS            $GPGGA,185719.000,4144.3553,N,06959.5052,W,2,09,1.01,6.5,M,-34.3,M,0000,0000*59 
426.980         GPS_NMEA_FROM_GPS    iGPS            $GPGGA,185720.000,4144.3555,N,06959.5052,W,2,09,1.01,6.5,M,-34.3,M,0000,0000*55 
427.982         GPS_NMEA_FROM_GPS    iGPS            $GPGGA,185721.000,4144.3556,N,06959.5052,W,2,09,1.04,6.5,M,-34.3,M,0000,0000*52 
428.985         GPS_NMEA_FROM_GPS    iGPS            $GPGGA,185722.000,4144.3558,N,06959.5052,W,2,09,1.05,6.5,M,-34.3,M,0000,0000*5E 
430.088         GPS_NMEA_FROM_GPS    iGPS            $GPRMC,185723.000,A,4144.3560,N,06959.5053,W,0.70,5.61,310321,,,D*71 
431.090         GPS_NMEA_FROM_GPS    iGPS            $GPRMC,185724.000,A,4144.3563,N,06959.5054,W,0.70,0.10,310321,,,D*71 
432.092         GPS_NMEA_FROM_GPS    iGPS            $GPGGA,185725.000,4144.3565,N,06959.5055,W,2,09,1.05,6.6,M,-34.3,M,0000,0000*53 
433.095         GPS_NMEA_FROM_GPS    iGPS            $GPRMC,185726.000,A,4144.3567,N,06959.5056,W,0.66,352.18,310321,,,D*7E 
433.997         GPS_NMEA_FROM_GPS    iGPS            $GPGGA,185727.000,4144.3568,N,06959.5057,W,2,09,1.01,6.7,M,-34.3,M,0000,0000*5B 
435.000         GPS_NMEA_FROM_GPS    iGPS            $GPGGA,185728.000,4144.3570,N,06959.5057,W,2,09,1.01,6.7,M,-34.3,M,0000,0000*5D 
436.002         GPS_NMEA_FROM_GPS    iGPS            $GPGGA,185729.000,4144.3572,N,06959.5058,W,2,09,1.05,6.7,M,-34.3,M,0000,0000*55 
437.005         GPS_NMEA_FROM_GPS    iGPS            $GPGGA,185730.000,4144.3574,N,06959.5059,W,2,09,1.01,6.8,M,-34.3,M,0000,0000*51 
438.108         GPS_NMEA_FROM_GPS    iGPS            $GPRMC,185731.000,A,4144.3576,N,06959.5061,W,0.78,346.63,310321,,,D*7A 
439.010         GPS_NMEA_FROM_GPS    iGPS            $GPGGA,185732.000,4144.3579,N,06959.5061,W,2,09,1.05,6.8,M,-34.3,M,0000,0000*51 
440.012         GPS_NMEA_FROM_GPS    iGPS            $GPGGA,185733.000,4144.3581,N,06959.5062,W,2,09,1.05,6.8,M,-34.3,M,0000,0000*54 
441.014         GPS_NMEA_FROM_GPS    iGPS            $GPGGA,185734.000,4144.3583,N,06959.5063,W,2,09,1.05,6.8,M,-34.3,M,0000,0000*50 
442.017         GPS_NMEA_FROM_GPS    iGPS            $GPGGA,185735.000,4144.3585,N,06959.5064,W,2,09,1.05,6.8,M,-34.3,M,0000,0000*50 
443.020         GPS_NMEA_FROM_GPS    iGPS            $GPGGA,185736.000,4144.3587,N,06959.5065,W,2,09,1.05,6.9,M,-34.3,M,0000,0000*51 
444.022         GPS_NMEA_FROM_GPS    iGPS            $GPGGA,185737.000,4144.3589,N,06959.5066,W,2,08,1.12,6.8,M,-34.3,M,0000,0000*5B 
445.024         GPS_NMEA_FROM_GPS    iGPS            $GPGGA,185738.000,4144.3591,N,06959.5068,W,2,08,1.12,6.9,M,-34.3,M,0000,0000*52 
446.027         GPS_NMEA_FROM_GPS    iGPS            $GPGGA,185739.000,4144.3594,N,06959.5069,W,2,09,1.01,6.9,M,-34.3,M,0000,0000*54 
447.029         GPS_NMEA_FROM_GPS    iGPS            $GPGGA,185740.000,4144.3596,N,06959.5070,W,2,09,1.01,6.9,M,-34.3,M,0000,0000*50 
448.032         GPS_NMEA_FROM_GPS    iGPS            $GPGGA,185741.000,4144.3598,N,06959.5072,W,2,09,1.01,6.9,M,-34.3,M,0000,0000*5D 
449.034         GPS_NMEA_FROM_GPS    iGPS            $GPGGA,185742.000,4144.3600,N,06959.5073,W,2,09,1.01,6.8,M,-34.3,M,0000,0000*5C 
450.038         GPS_NMEA_FROM_GPS    iGPS            $GPRMC,185743.000,A,4144.3602,N,06959.5075,W,0.78,337.47,310321,,,D*7A 
451.039         GPS_NMEA_FROM_GPS    iGPS            $GPRMC,185744.000,A,4144.3604,N,06959.5076,W,0.76,336.56,310321,,,D*77 
452.041         GPS_NMEA_FROM_GPS    iGPS            $GPGGA,185745.000,4144.3606,N,06959.5078,W,2,09,1.01,6.8,M,-34.3,M,0000,0000*56 
453.044         GPS_NMEA_FROM_GPS    iGPS            $GPGGA,185746.000,4144.3608,N,06959.5079,W,2,09,1.01,6.8,M,-34.3,M,0000,0000*5A 
