2.173           GPS_NMEA_FROM_GPS    iGPS            $GPGGA,202252.000,4144.3555,N,06959.5665,W,2,11,1.04,5.7,M,-34.3,M,0000,0000*56 
3.175           GPS_NMEA_FROM_GPS    iGPS            $GPGGA,202253.000,4144.3555,N,06959.5666,W,2,11,1.04,5.7,M,-34.3,M,0000,0000*54 
3.175           GPS_NMEA_FROM_GPS    iGPS            $GPGGA,202253.000,4144.3555,N,06959.5666,W,2,11,1.04,5.7,M,-34.3,M,0000,0000*54 
4.178           GPS_NMEA_FROM_GPS    iGPS            $GPGGA,202254.000,4144.3554,N,06959.5666,W,2,11,1.04,5.7,M,-34.3,M,0000,0000*52 
5.280           GPS_NMEA_FROM_GPS    iGPS            $GPGGA,202255.000,4144.3554,N,06959.5666,W,2,11,1.04,5.6,M,-34.3,M,0000,0000*52 
6.283           GPS_NMEA_FROM_GPS    iGPS            $GPRMC,202256.000,A,4144.3554,N,06959.5665,W,0.13,172.22,300321,,,D*7C 
7.285           GPS_NMEA_FROM_GPS    iGPS            $GPRMC,202257.000,A,4144.3553,N,06959.5665,W,0.14,167.98,300321,,,D*78 
8.187           GPS_NMEA_FROM_GPS    iGPS            $GPGGA,202258.000,4144.3553,N,06959.5665,W,2,11,1.04,5.6,M,-34.3,M,0000,0000*5B 
9.189           GPS_NMEA_FROM_GPS    iGPS            $GPGGA,202259.000,4144.3552,N,06959.5665,W,2,11,1.04,5.6,M,-34.3,M,0000,0000*5B 
10.191          GPS_NMEA_FROM_GPS    iGPS            $GPGGA,202300.000,4144.3552,N,06959.5665,W,2,11,1.04,5.6,M,-34.3,M,0000,0000*56 
11.193          GPS_NMEA_FROM_GPS    iGPS            $GPGGA,202301.000,4144.3551,N,06959.5665,W,2,11,1.04,5.6,M,-34.3,M,0000,0000*54 
11.193          GPS_NMEA_FROM_GPS    iGPS            $GPGGA,202301.000,4144.3551,N,06959.5665,W,2,11,1.04,5.6,M,-34.3,M,0000,0000*54 
12.196          GPS_NMEA_FROM_GPS    iGPS            $GPGGA,202302.000,4144.3551,N,06959.5664,W,2,11,1.04,5.6,M,-34.3,M,0000,0000*56 
12.196          GPS_NMEA_FROM_GPS    iGPS            $GPGGA,202302.000,4144.3551,N,06959.5664,W,2,11,1.04,5.6,M,-34.3,M,0000,0000*56 
13.199          GPS_NMEA_FROM_GPS    iGPS            $GPGGA,202303.000,4144.3551,N,06959.5664,W,2,11,1.04,5.6,M,-34.3,M,0000,0000*57 
14.202          GPS_NMEA_FROM_GPS    iGPS            $GPGGA,202304.000,4144.3550,N,06959.5664,W,2,11,1.04,5.6,M,-34.3,M,0000,0000*51 
15.205          GPS_NMEA_FROM_GPS    iGPS            $GPRMC,202305.000,A,4144.3550,N,06959.5664,W,0.05,132.32,300321,,,D*7C 
16.207          GPS_NMEA_FROM_GPS    iGPS            $GPGGA,202306.000,4144.3550,N,06959.5664,W,2,11,1.04,5.6,M,-34.3,M,0000,0000*53 
17.210          GPS_NMEA_FROM_GPS    iGPS            $GPGGA,202307.000,4144.3550,N,06959.5664,W,2,11,1.04,5.6,M,-34.3,M,0000,0000*52 
18.212          GPS_NMEA_FROM_GPS    iGPS            $GPGGA,202308.000,4144.3550,N,06959.5664,W,2,11,1.04,5.7,M,-34.3,M,0000,0000*5C 
19.215          GPS_NMEA_FROM_GPS    iGPS            $GPRMC,202309.000,A,4144.3550,N,06959.5664,W,0.01,251.48,300321,,,D*7F 
20.216          GPS_NMEA_FROM_GPS    iGPS            $GPGGA,202310.000,4144.3550,N,06959.5664,W,2,11,1.04,5.7,M,-34.3,M,0000,0000*55 
21.219          GPS_NMEA_FROM_GPS    iGPS            $GPGGA,202311.000,4144.3550,N,06959.5664,W,2,11,1.04,5.7,M,-34.3,M,0000,0000*54 
21.219          GPS_NMEA_FROM_GPS    iGPS            $GPGGA,202311.000,4144.3550,N,06959.5664,W,2,11,1.04,5.7,M,-34.3,M,0000,0000*54 
22.222          GPS_NMEA_FROM_GPS    iGPS            $GPRMC,202312.000,A,4144.3550,N,06959.5664,W,0.05,286.91,300321,,,D*7F 
22.222          GPS_NMEA_FROM_GPS    iGPS            $GPRMC,202312.000,A,4144.3550,N,06959.5664,W,0.05,286.91,300321,,,D*7F 
23.224          GPS_NMEA_FROM_GPS    iGPS            $GPRMC,202313.000,A,4144.3550,N,06959.5664,W,0.06,282.22,300321,,,D*71 
24.126          GPS_NMEA_FROM_GPS    iGPS            $GPGGA,202314.000,4144.3550,N,06959.5664,W,2,11,1.04,5.7,M,-34.3,M,0000,0000*51 
25.229          GPS_NMEA_FROM_GPS    iGPS            $GPRMC,202315.000,A,4144.3550,N,06959.5664,W,0.08,302.73,300321,,,D*74 
26.232          GPS_NMEA_FROM_GPS    iGPS            $GPRMC,202316.000,A,4144.3550,N,06959.5664,W,0.02,292.54,300321,,,D*70 
27.234          GPS_NMEA_FROM_GPS    iGPS            $GPGGA,202317.000,4144.3550,N,06959.5664,W,2,11,1.04,5.7,M,-34.3,M,0000,0000*52 
28.237          GPS_NMEA_FROM_GPS    iGPS            $GPRMC,202318.000,A,4144.3550,N,06959.5664,W,0.03,323.56,300321,,,D*76 
28.237          GPS_NMEA_FROM_GPS    iGPS            $GPRMC,202318.000,A,4144.3550,N,06959.5664,W,0.03,323.56,300321,,,D*76 
29.239          GPS_NMEA_FROM_GPS    iGPS            $GPRMC,202319.000,A,4144.3550,N,06959.5664,W,0.02,275.11,300321,,,D*77 
30.141          GPS_NMEA_FROM_GPS    iGPS            $GPGGA,202320.000,4144.3550,N,06959.5664,W,2,11,1.04,5.7,M,-34.3,M,0000,0000*56 
31.144          GPS_NMEA_FROM_GPS    iGPS            $GPGGA,202321.000,4144.3550,N,06959.5664,W,2,11,1.04,5.7,M,-34.3,M,0000,0000*57 
32.146          GPS_NMEA_FROM_GPS    iGPS            $GPGGA,202322.000,4144.3550,N,06959.5664,W,2,11,1.04,5.7,M,-34.3,M,0000,0000*54 
33.249          GPS_NMEA_FROM_GPS    iGPS            $GPRMC,202323.000,A,4144.3550,N,06959.5664,W,0.10,128.74,300321,,,D*75 
34.251          GPS_NMEA_FROM_GPS    iGPS            $GPRMC,202324.000,A,4144.3550,N,06959.5664,W,0.04,151.72,300321,,,D*7F 
35.254          GPS_NMEA_FROM_GPS    iGPS            $GPRMC,202325.000,A,4144.3550,N,06959.5664,W,0.03,171.32,300321,,,D*7F 
36.156          GPS_NMEA_FROM_GPS    iGPS            $GPGGA,202326.000,4144.3550,N,06959.5664,W,2,11,1.04,5.7,M,-34.3,M,0000,0000*50 
37.158          GPS_NMEA_FROM_GPS    iGPS            $GPGGA,202327.000,4144.3550,N,06959.5664,W,2,11,1.04,5.7,M,-34.3,M,0000,0000*51 
38.262          GPS_NMEA_FROM_GPS    iGPS            $GPRMC,202328.000,A,4144.3550,N,06959.5664,W,0.12,166.01,300321,,,D*74 
39.164          GPS_NMEA_FROM_GPS    iGPS            $GPGGA,202329.000,4144.3550,N,06959.5664,W,2,11,1.04,5.7,M,-34.3,M,0000,0000*5F 
40.166          GPS_NMEA_FROM_GPS    iGPS            $GPGGA,202330.000,4144.3550,N,06959.5664,W,2,11,1.04,5.7,M,-34.3,M,0000,0000*57 
41.169          GPS_NMEA_FROM_GPS    iGPS            $GPGGA,202331.000,4144.3550,N,06959.5664,W,2,11,1.04,5.7,M,-34.3,M,0000,0000*56 
42.272          GPS_NMEA_FROM_GPS    iGPS            $GPRMC,202332.000,A,4144.3550,N,06959.5664,W,0.11,156.03,300321,,,D*7D 
43.174          GPS_NMEA_FROM_GPS    iGPS            $GPGGA,202333.000,4144.3550,N,06959.5664,W,2,11,1.04,5.7,M,-34.3,M,0000,0000*54 
44.177          GPS_NMEA_FROM_GPS    iGPS            $GPGGA,202334.000,4144.3550,N,06959.5664,W,2,11,1.04,5.7,M,-34.3,M,0000,0000*53 
45.180          GPS_NMEA_FROM_GPS    iGPS            $GPGGA,202335.000,4144.3550,N,06959.5664,W,2,11,1.04,5.7,M,-34.3,M,0000,0000*52 
46.283          GPS_NMEA_FROM_GPS    iGPS            $GPRMC,202336.000,A,4144.3550,N,06959.5664,W,0.02,191.88,300321,,,D*73 
47.186          GPS_NMEA_FROM_GPS    iGPS            $GPGGA,202337.000,4144.3550,N,06959.5664,W,2,10,1.12,5.7,M,-34.3,M,0000,0000*56 
48.190          GPS_NMEA_FROM_GPS    iGPS            $GPGGA,202338.000,4144.3550,N,06959.5664,W,2,11,1.04,5.7,M,-34.3,M,0000,0000*5F 
49.293          GPS_NMEA_FROM_GPS    iGPS            $GPRMC,202339.000,A,4144.3550,N,06959.5664,W,0.12,227.61,300321,,,D*74 
50.195          GPS_NMEA_FROM_GPS    iGPS            $GPGGA,202340.000,4144.3550,N,06959.5664,W,2,11,1.04,5.7,M,-34.3,M,0000,0000*50 
51.198          GPS_NMEA_FROM_GPS    iGPS            $GPGGA,202341.000,4144.3550,N,06959.5664,W,2,11,1.04,5.7,M,-34.3,M,0000,0000*51 
52.201          GPS_NMEA_FROM_GPS    iGPS            $GPGGA,202342.000,4144.3550,N,06959.5664,W,2,11,1.04,5.7,M,-34.3,M,0000,0000*52 
53.203          GPS_NMEA_FROM_GPS    iGPS            $GPGGA,202343.000,4144.3550,N,06959.5664,W,2,11,1.04,5.7,M,-34.3,M,0000,0000*53 
54.206          GPS_NMEA_FROM_GPS    iGPS            $GPGGA,202344.000,4144.3549,N,06959.5664,W,2,11,1.04,5.7,M,-34.3,M,0000,0000*5C 
55.208          GPS_NMEA_FROM_GPS    iGPS            $GPGGA,202345.000,4144.3549,N,06959.5665,W,2,11,1.04,5.7,M,-34.3,M,0000,0000*5C 
56.211          GPS_NMEA_FROM_GPS    iGPS            $GPGGA,202346.000,4144.3549,N,06959.5665,W,2,11,1.04,5.7,M,-34.3,M,0000,0000*5F 
57.113          GPS_NMEA_FROM_GPS    iGPS            $GPGGA,202347.000,4144.3549,N,06959.5665,W,2,11,1.04,5.7,M,-34.3,M,0000,0000*5E 
58.116          GPS_NMEA_FROM_GPS    iGPS            $GPGGA,202348.000,4144.3548,N,06959.5665,W,2,11,0.91,5.7,M,-34.3,M,0000,0000*5D 
59.219          GPS_NMEA_FROM_GPS    iGPS            $GPGGA,202349.000,4144.3546,N,06959.5666,W,2,11,0.91,5.7,M,-34.3,M,0000,0000*51 
60.221          GPS_NMEA_FROM_GPS    iGPS            $GPGGA,202350.000,4144.3543,N,06959.5667,W,2,11,0.91,5.7,M,-34.3,M,0000,0000*5D 
61.224          GPS_NMEA_FROM_GPS    iGPS            $GPGGA,202351.000,4144.3540,N,06959.5667,W,2,11,1.04,5.6,M,-34.3,M,0000,0000*53 
62.227          GPS_NMEA_FROM_GPS    iGPS            $GPRMC,202352.000,A,4144.3538,N,06959.5669,W,0.72,197.37,300321,,,D*77 
63.229          GPS_NMEA_FROM_GPS    iGPS            $GPGGA,202353.000,4144.3535,N,06959.5670,W,2,11,1.04,5.7,M,-34.3,M,0000,0000*54 
64.232          GPS_NMEA_FROM_GPS    iGPS            $GPGGA,202354.000,4144.3532,N,06959.5671,W,2,11,1.04,5.7,M,-34.3,M,0000,0000*55 
65.235          GPS_NMEA_FROM_GPS    iGPS            $GPGGA,202355.000,4144.3529,N,06959.5673,W,2,11,1.04,5.8,M,-34.3,M,0000,0000*53 
66.137          GPS_NMEA_FROM_GPS    iGPS            $GPGGA,202356.000,4144.3526,N,06959.5675,W,2,11,1.04,5.8,M,-34.3,M,0000,0000*59 
67.240          GPS_NMEA_FROM_GPS    iGPS            $GPGGA,202357.000,4144.3523,N,06959.5677,W,2,11,1.04,5.8,M,-34.3,M,0000,0000*5F 
68.242          GPS_NMEA_FROM_GPS    iGPS            $GPGGA,202358.000,4144.3521,N,06959.5679,W,2,11,1.04,5.8,M,-34.3,M,0000,0000*5C 
69.244          GPS_NMEA_FROM_GPS    iGPS            $GPGGA,202359.000,4144.3518,N,06959.5681,W,2,11,1.04,5.8,M,-34.3,M,0000,0000*50 
70.247          GPS_NMEA_FROM_GPS    iGPS            $GPGGA,202400.000,4144.3515,N,06959.5683,W,2,11,1.04,5.8,M,-34.3,M,0000,0000*54 
71.249          GPS_NMEA_FROM_GPS    iGPS            $GPGGA,202401.000,4144.3512,N,06959.5685,W,2,11,1.04,5.8,M,-34.3,M,0000,0000*54 
72.252          GPS_NMEA_FROM_GPS    iGPS            $GPRMC,202402.000,A,4144.3509,N,06959.5687,W,0.83,208.98,300321,,,D*79 
73.154          GPS_NMEA_FROM_GPS    iGPS            $GPGGA,202403.000,4144.3507,N,06959.5689,W,2,11,1.04,6.0,M,-34.3,M,0000,0000*55 
74.157          GPS_NMEA_FROM_GPS    iGPS            $GPGGA,202404.000,4144.3504,N,06959.5691,W,2,11,0.91,6.1,M,-34.3,M,0000,0000*54 
75.260          GPS_NMEA_FROM_GPS    iGPS            $GPGGA,202405.000,4144.3501,N,06959.5693,W,2,11,0.91,6.1,M,-34.3,M,0000,0000*52 
76.263          GPS_NMEA_FROM_GPS    iGPS            $GPRMC,202406.000,A,4144.3498,N,06959.5696,W,0.81,209.93,300321,,,D*7C 
77.265          GPS_NMEA_FROM_GPS    iGPS            $GPGGA,202407.000,4144.3496,N,06959.5698,W,2,11,1.04,6.3,M,-34.3,M,0000,0000*5B 
78.167          GPS_NMEA_FROM_GPS    iGPS            $GPGGA,202408.000,4144.3493,N,06959.5700,W,2,11,0.91,6.3,M,-34.3,M,0000,0000*5C 
79.170          GPS_NMEA_FROM_GPS    iGPS            $GPGGA,202409.000,4144.3491,N,06959.5701,W,2,11,0.91,6.3,M,-34.3,M,0000,0000*5E 
80.173          GPS_NMEA_FROM_GPS    iGPS            $GPGGA,202410.000,4144.3489,N,06959.5703,W,2,11,1.04,6.3,M,-34.3,M,0000,0000*50 
81.175          GPS_NMEA_FROM_GPS    iGPS            $GPGGA,202411.000,4144.3487,N,06959.5705,W,2,11,0.91,6.4,M,-34.3,M,0000,0000*53 
82.178          GPS_NMEA_FROM_GPS    iGPS            $GPGGA,202412.000,4144.3484,N,06959.5706,W,2,11,0.91,6.4,M,-34.3,M,0000,0000*50 
83.180          GPS_NMEA_FROM_GPS    iGPS            $GPGGA,202413.000,4144.3482,N,06959.5708,W,2,11,1.04,6.5,M,-34.3,M,0000,0000*55 
84.183          GPS_NMEA_FROM_GPS    iGPS            $GPGGA,202414.000,4144.3480,N,06959.5709,W,2,11,1.04,6.5,M,-34.3,M,0000,0000*51 
85.185          GPS_NMEA_FROM_GPS    iGPS            $GPGGA,202415.000,4144.3477,N,06959.5711,W,2,11,1.04,6.6,M,-34.3,M,0000,0000*52 
86.188          GPS_NMEA_FROM_GPS    iGPS            $GPGGA,202416.000,4144.3475,N,06959.5713,W,2,11,1.04,6.6,M,-34.3,M,0000,0000*51 
87.190          GPS_NMEA_FROM_GPS    iGPS            $GPGGA,202417.000,4144.3473,N,06959.5714,W,2,11,1.04,6.7,M,-34.3,M,0000,0000*50 
88.193          GPS_NMEA_FROM_GPS    iGPS            $GPGGA,202418.000,4144.3471,N,06959.5716,W,2,11,0.91,6.7,M,-34.3,M,0000,0000*52 
89.196          GPS_NMEA_FROM_GPS    iGPS            $GPGGA,202419.000,4144.3469,N,06959.5717,W,2,11,0.91,6.7,M,-34.3,M,0000,0000*5B 
90.198          GPS_NMEA_FROM_GPS    iGPS            $GPGGA,202420.000,4144.3466,N,06959.5719,W,2,11,0.91,6.8,M,-34.3,M,0000,0000*5F 
91.201          GPS_NMEA_FROM_GPS    iGPS            $GPGGA,202421.000,4144.3464,N,06959.5720,W,2,11,0.91,6.8,M,-34.3,M,0000,0000*56 
92.203          GPS_NMEA_FROM_GPS    iGPS            $GPGGA,202422.000,4144.3462,N,06959.5721,W,2,11,0.91,6.8,M,-34.3,M,0000,0000*52 
93.206          GPS_NMEA_FROM_GPS    iGPS            $GPGGA,202423.000,4144.3459,N,06959.5723,W,2,11,1.04,6.9,M,-34.3,M,0000,0000*55 
94.209          GPS_NMEA_FROM_GPS    iGPS            $GPRMC,202424.000,A,4144.3457,N,06959.5725,W,0.81,203.20,300321,,,D*74 
95.212          GPS_NMEA_FROM_GPS    iGPS            $GPGGA,202425.000,4144.3454,N,06959.5727,W,2,11,0.91,7.1,M,-34.3,M,0000,0000*5E 
96.215          GPS_NMEA_FROM_GPS    iGPS            $GPGGA,202426.000,4144.3452,N,06959.5728,W,2,11,1.04,7.1,M,-34.3,M,0000,0000*59 
97.117          GPS_NMEA_FROM_GPS    iGPS            $GPGGA,202427.000,4144.3450,N,06959.5729,W,2,11,1.04,7.1,M,-34.3,M,0000,0000*5B 
98.220          GPS_NMEA_FROM_GPS    iGPS            $GPGGA,202428.000,4144.3448,N,06959.5730,W,2,11,1.04,7.1,M,-34.3,M,0000,0000*55 
99.122          GPS_NMEA_FROM_GPS    iGPS            $GPGGA,202429.000,4144.3446,N,06959.5731,W,2,11,1.04,7.1,M,-34.3,M,0000,0000*5B 
100.225         GPS_NMEA_FROM_GPS    iGPS            $GPRMC,202430.000,A,4144.3444,N,06959.5732,W,0.71,197.48,300321,,,D*7A 
101.227         GPS_NMEA_FROM_GPS    iGPS            $GPGGA,202431.000,4144.3442,N,06959.5732,W,2,11,1.04,7.2,M,-34.3,M,0000,0000*56 
102.130         GPS_NMEA_FROM_GPS    iGPS            $GPGGA,202432.000,4144.3441,N,06959.5732,W,2,10,1.15,7.1,M,-34.3,M,0000,0000*54 
103.233         GPS_NMEA_FROM_GPS    iGPS            $GPGGA,202433.000,4144.3439,N,06959.5732,W,2,11,0.91,7.0,M,-34.3,M,0000,0000*57 
104.135         GPS_NMEA_FROM_GPS    iGPS            $GPGGA,202434.000,4144.3438,N,06959.5731,W,2,11,1.04,6.9,M,-34.3,M,0000,0000*57 
105.138         GPS_NMEA_FROM_GPS    iGPS            $GPGGA,202435.000,4144.3436,N,06959.5729,W,2,11,0.91,6.9,M,-34.3,M,0000,0000*5C 
106.241         GPS_NMEA_FROM_GPS    iGPS            $GPRMC,202436.000,A,4144.3435,N,06959.5727,W,0.60,162.12,300321,,,D*7B 
107.243         GPS_NMEA_FROM_GPS    iGPS            $GPGGA,202437.000,4144.3433,N,06959.5725,W,2,11,1.04,6.9,M,-34.3,M,0000,0000*5A 
108.246         GPS_NMEA_FROM_GPS    iGPS            $GPRMC,202438.000,A,4144.3432,N,06959.5722,W,0.59,144.02,300321,,,D*78 
109.248         GPS_NMEA_FROM_GPS    iGPS            $GPRMC,202439.000,A,4144.3431,N,06959.5719,W,0.60,137.45,300321,,,D*7F 
110.250         GPS_NMEA_FROM_GPS    iGPS            $GPGGA,202440.000,4144.3430,N,06959.5716,W,2,11,0.91,6.7,M,-34.3,M,0000,0000*5A 
111.253         GPS_NMEA_FROM_GPS    iGPS            $GPRMC,202441.000,A,4144.3430,N,06959.5714,W,0.60,125.27,300321,,,D*7B 
112.155         GPS_NMEA_FROM_GPS    iGPS            $GPGGA,202442.000,4144.3429,N,06959.5711,W,2,10,1.15,6.5,M,-34.3,M,0000,0000*59 
113.258         GPS_NMEA_FROM_GPS    iGPS            $GPRMC,202443.000,A,4144.3429,N,06959.5708,W,0.60,116.30,300321,,,D*7A 
114.160         GPS_NMEA_FROM_GPS    iGPS            $GPGGA,202444.000,4144.3429,N,06959.5705,W,2,10,1.15,6.3,M,-34.3,M,0000,0000*5C 
115.263         GPS_NMEA_FROM_GPS    iGPS            $GPRMC,202445.000,A,4144.3429,N,06959.5702,W,0.63,112.46,300321,,,D*70 
116.265         GPS_NMEA_FROM_GPS    iGPS            $GPRMC,202446.000,A,4144.3428,N,06959.5699,W,0.66,112.02,300321,,,D*74 
117.167         GPS_NMEA_FROM_GPS    iGPS            $GPGGA,202447.000,4144.3427,N,06959.5696,W,2,11,1.04,6.1,M,-34.3,M,0000,0000*59 
118.270         GPS_NMEA_FROM_GPS    iGPS            $GPRMC,202448.000,A,4144.3425,N,06959.5693,W,0.67,114.42,300321,,,D*7E 
119.272         GPS_NMEA_FROM_GPS    iGPS            $GPGGA,202449.000,4144.3423,N,06959.5691,W,2,11,1.04,6.0,M,-34.3,M,0000,0000*55 
120.175         GPS_NMEA_FROM_GPS    iGPS            $GPGGA,202450.000,4144.3422,N,06959.5688,W,2,11,1.04,6.0,M,-34.3,M,0000,0000*54 
121.177         GPS_NMEA_FROM_GPS    iGPS            $GPGGA,202451.000,4144.3419,N,06959.5686,W,2,10,1.15,5.9,M,-34.3,M,0000,0000*58 
122.180         GPS_NMEA_FROM_GPS    iGPS            $GPGGA,202452.000,4144.3417,N,06959.5684,W,2,11,0.91,5.8,M,-34.3,M,0000,0000*5A 
123.183         GPS_NMEA_FROM_GPS    iGPS            $GPGGA,202453.000,4144.3415,N,06959.5682,W,2,11,0.91,5.9,M,-34.3,M,0000,0000*5E 
124.185         GPS_NMEA_FROM_GPS    iGPS            $GPGGA,202454.000,4144.3413,N,06959.5680,W,2,11,0.91,5.9,M,-34.3,M,0000,0000*5D 
125.188         GPS_NMEA_FROM_GPS    iGPS            $GPGGA,202455.000,4144.3411,N,06959.5678,W,2,11,1.04,5.9,M,-34.3,M,0000,0000*54 
126.190         GPS_NMEA_FROM_GPS    iGPS            $GPGGA,202456.000,4144.3409,N,06959.5676,W,2,10,1.15,5.8,M,-34.3,M,0000,0000*50 
127.193         GPS_NMEA_FROM_GPS    iGPS            $GPGGA,202457.000,4144.3408,N,06959.5674,W,2,10,1.15,5.8,M,-34.3,M,0000,0000*52 
128.195         GPS_NMEA_FROM_GPS    iGPS            $GPGGA,202458.000,4144.3407,N,06959.5672,W,2,10,1.15,5.8,M,-34.3,M,0000,0000*54 
129.198         GPS_NMEA_FROM_GPS    iGPS            $GPRMC,202459.000,A,4144.3406,N,06959.5670,W,0.63,127.19,300321,,,D*78 
130.200         GPS_NMEA_FROM_GPS    iGPS            $GPRMC,202500.000,A,4144.3405,N,06959.5667,W,0.70,124.02,300321,,,D*7B 
131.202         GPS_NMEA_FROM_GPS    iGPS            $GPGGA,202501.000,4144.3404,N,06959.5665,W,2,10,1.07,5.7,M,-34.3,M,0000,0000*50 
132.205         GPS_NMEA_FROM_GPS    iGPS            $GPGGA,202502.000,4144.3403,N,06959.5662,W,2,10,1.07,5.7,M,-34.3,M,0000,0000*53 
133.207         GPS_NMEA_FROM_GPS    iGPS            $GPGGA,202503.000,4144.3403,N,06959.5659,W,2,10,1.07,5.7,M,-34.3,M,0000,0000*5A 
134.213         GPS_NMEA_FROM_GPS    iGPS            $GPGGA,202504.000,4144.3402,N,06959.5656,W,2,10,1.07,5.6,M,-34.3,M,0000,0000*52 
135.215         GPS_NMEA_FROM_GPS    iGPS            $GPGGA,202505.000,4144.3402,N,06959.5653,W,2,10,1.07,5.5,M,-34.3,M,0000,0000*55 
136.220         GPS_NMEA_FROM_GPS    iGPS            $GPGGA,202506.000,4144.3402,N,06959.5650,W,2,10,1.07,5.5,M,-34.3,M,0000,0000*55 
137.222         GPS_NMEA_FROM_GPS    iGPS            $GPGGA,202507.000,4144.3401,N,06959.5647,W,2,10,1.07,5.4,M,-34.3,M,0000,0000*50 
138.225         GPS_NMEA_FROM_GPS    iGPS            $GPGGA,202508.000,4144.3400,N,06959.5645,W,2,10,1.07,5.4,M,-34.3,M,0000,0000*5C 
139.227         GPS_NMEA_FROM_GPS    iGPS            $GPGGA,202509.000,4144.3399,N,06959.5642,W,2,10,1.07,5.3,M,-34.3,M,0000,0000*5A 
140.230         GPS_NMEA_FROM_GPS    iGPS            $GPRMC,202510.000,A,4144.3398,N,06959.5639,W,0.75,118.51,300321,,,D*7E 
141.233         GPS_NMEA_FROM_GPS    iGPS            $GPRMC,202511.000,A,4144.3396,N,06959.5637,W,0.74,120.36,300321,,,D*74 
142.135         GPS_NMEA_FROM_GPS    iGPS            $GPGGA,202512.000,4144.3395,N,06959.5634,W,2,11,0.91,5.4,M,-34.3,M,0000,0000*55 
143.138         GPS_NMEA_FROM_GPS    iGPS            $GPGGA,202513.000,4144.3393,N,06959.5632,W,2,10,1.07,5.5,M,-34.3,M,0000,0000*5A 
144.141         GPS_NMEA_FROM_GPS    iGPS            $GPGGA,202514.000,4144.3391,N,06959.5630,W,2,10,1.07,5.6,M,-34.3,M,0000,0000*5E 
145.244         GPS_NMEA_FROM_GPS    iGPS            $GPRMC,202515.000,A,4144.3390,N,06959.5627,W,0.73,125.38,300321,,,D*7B 
146.146         GPS_NMEA_FROM_GPS    iGPS            $GPGGA,202516.000,4144.3389,N,06959.5625,W,2,10,1.07,5.7,M,-34.3,M,0000,0000*50 
147.148         GPS_NMEA_FROM_GPS    iGPS            $GPGGA,202517.000,4144.3387,N,06959.5624,W,2,10,1.07,5.7,M,-34.3,M,0000,0000*5E 
148.151         GPS_NMEA_FROM_GPS    iGPS            $GPGGA,202518.000,4144.3386,N,06959.5622,W,2,10,1.07,5.8,M,-34.3,M,0000,0000*59 
149.254         GPS_NMEA_FROM_GPS    iGPS            $GPGGA,202519.000,4144.3385,N,06959.5620,W,2,10,1.07,5.7,M,-34.3,M,0000,0000*56 
150.156         GPS_NMEA_FROM_GPS    iGPS            $GPGGA,202520.000,4144.3385,N,06959.5617,W,2,11,0.91,5.7,M,-34.3,M,0000,0000*57 
151.158         GPS_NMEA_FROM_GPS    iGPS            $GPGGA,202521.000,4144.3384,N,06959.5615,W,2,10,1.07,5.8,M,-34.3,M,0000,0000*55 
152.161         GPS_NMEA_FROM_GPS    iGPS            $GPGGA,202522.000,4144.3384,N,06959.5613,W,2,10,1.07,5.8,M,-34.3,M,0000,0000*50 
153.163         GPS_NMEA_FROM_GPS    iGPS            $GPGGA,202523.000,4144.3383,N,06959.5610,W,2,10,1.07,5.8,M,-34.3,M,0000,0000*55 
154.166         GPS_NMEA_FROM_GPS    iGPS            $GPGGA,202524.000,4144.3383,N,06959.5608,W,2,10,1.07,5.8,M,-34.3,M,0000,0000*5B 
155.269         GPS_NMEA_FROM_GPS    iGPS            $GPRMC,202525.000,A,4144.3384,N,06959.5605,W,0.73,105.61,300321,,,D*73 
156.171         GPS_NMEA_FROM_GPS    iGPS            $GPGGA,202526.000,4144.3384,N,06959.5602,W,2,10,1.07,5.8,M,-34.3,M,0000,0000*54 
157.274         GPS_NMEA_FROM_GPS    iGPS            $GPRMC,202527.000,A,4144.3384,N,06959.5600,W,0.67,101.90,300321,,,D*7B 
158.176         GPS_NMEA_FROM_GPS    iGPS            $GPGGA,202528.000,4144.3384,N,06959.5597,W,2,10,1.07,5.9,M,-34.3,M,0000,0000*54 
159.179         GPS_NMEA_FROM_GPS    iGPS            $GPGGA,202529.000,4144.3383,N,06959.5594,W,2,10,1.07,5.9,M,-34.3,M,0000,0000*51 
160.181         GPS_NMEA_FROM_GPS    iGPS            $GPGGA,202530.000,4144.3383,N,06959.5591,W,2,10,1.07,5.9,M,-34.3,M,0000,0000*5C 
161.284         GPS_NMEA_FROM_GPS    iGPS            $GPRMC,202531.000,A,4144.3383,N,06959.5589,W,0.74,101.23,300321,,,D*73 
162.186         GPS_NMEA_FROM_GPS    iGPS            $GPGGA,202532.000,4144.3383,N,06959.5586,W,2,10,1.07,6.0,M,-34.3,M,0000,0000*52 
163.189         GPS_NMEA_FROM_GPS    iGPS            $GPGGA,202533.000,4144.3382,N,06959.5583,W,2,10,1.07,6.0,M,-34.3,M,0000,0000*57 
164.192         GPS_NMEA_FROM_GPS    iGPS            $GPGGA,202534.000,4144.3382,N,06959.5580,W,2,10,1.07,5.9,M,-34.3,M,0000,0000*59 
165.194         GPS_NMEA_FROM_GPS    iGPS            $GPGGA,202535.000,4144.3382,N,06959.5577,W,2,10,1.07,5.9,M,-34.3,M,0000,0000*50 
166.197         GPS_NMEA_FROM_GPS    iGPS            $GPGGA,202536.000,4144.3382,N,06959.5575,W,2,10,1.07,5.9,M,-34.3,M,0000,0000*51 
167.199         GPS_NMEA_FROM_GPS    iGPS            $GPGGA,202537.000,4144.3382,N,06959.5572,W,2,10,1.07,5.9,M,-34.3,M,0000,0000*57 
168.202         GPS_NMEA_FROM_GPS    iGPS            $GPRMC,202538.000,A,4144.3381,N,06959.5569,W,0.73,101.98,300321,,,D*71 
169.205         GPS_NMEA_FROM_GPS    iGPS            $GPRMC,202539.000,A,4144.3381,N,06959.5567,W,0.73,102.19,300321,,,D*74 
170.207         GPS_NMEA_FROM_GPS    iGPS            $GPGGA,202540.000,4144.3381,N,06959.5564,W,2,10,1.07,5.9,M,-34.3,M,0000,0000*53 
171.210         GPS_NMEA_FROM_GPS    iGPS            $GPRMC,202541.000,A,4144.3380,N,06959.5562,W,0.72,101.90,300321,,,D*7C 
172.112         GPS_NMEA_FROM_GPS    iGPS            $GPGGA,202542.000,4144.3380,N,06959.5559,W,2,10,1.07,5.9,M,-34.3,M,0000,0000*5E 
173.215         GPS_NMEA_FROM_GPS    iGPS            $GPGGA,202543.000,4144.3380,N,06959.5556,W,2,10,1.07,6.0,M,-34.3,M,0000,0000*5A 
174.217         GPS_NMEA_FROM_GPS    iGPS            $GPGGA,202544.000,4144.3379,N,06959.5554,W,2,10,1.07,6.0,M,-34.3,M,0000,0000*59 
175.220         GPS_NMEA_FROM_GPS    iGPS            $GPGGA,202545.000,4144.3379,N,06959.5551,W,2,10,1.07,6.0,M,-34.3,M,0000,0000*5D 
176.223         GPS_NMEA_FROM_GPS    iGPS            $GPGGA,202546.000,4144.3379,N,06959.5548,W,2,10,1.07,6.0,M,-34.3,M,0000,0000*56 
177.225         GPS_NMEA_FROM_GPS    iGPS            $GPGGA,202547.000,4144.3379,N,06959.5546,W,2,11,0.91,6.1,M,-34.3,M,0000,0000*57 
178.228         GPS_NMEA_FROM_GPS    iGPS            $GPGGA,202548.000,4144.3379,N,06959.5543,W,2,11,0.91,6.1,M,-34.3,M,0000,0000*5D 
179.231         GPS_NMEA_FROM_GPS    iGPS            $GPRMC,202549.000,A,4144.3379,N,06959.5540,W,0.75,97.82,300321,,,D*48 
180.133         GPS_NMEA_FROM_GPS    iGPS            $GPGGA,202550.000,4144.3379,N,06959.5538,W,2,11,0.91,6.1,M,-34.3,M,0000,0000*58 
181.235         GPS_NMEA_FROM_GPS    iGPS            $GPGGA,202551.000,4144.3379,N,06959.5535,W,2,11,0.91,6.1,M,-34.3,M,0000,0000*54 
182.238         GPS_NMEA_FROM_GPS    iGPS            $GPGGA,202552.000,4144.3379,N,06959.5532,W,2,10,1.07,6.1,M,-34.3,M,0000,0000*5F 
183.241         GPS_NMEA_FROM_GPS    iGPS            $GPRMC,202553.000,A,4144.3379,N,06959.5529,W,0.77,97.69,300321,,,D*4B 
184.243         GPS_NMEA_FROM_GPS    iGPS            $GPRMC,202554.000,A,4144.3378,N,06959.5526,W,0.77,97.92,300321,,,D*46 
185.247         GPS_NMEA_FROM_GPS    iGPS            $GPGGA,202555.000,4144.3378,N,06959.5524,W,2,10,1.07,6.1,M,-34.3,M,0000,0000*5E 
186.150         GPS_NMEA_FROM_GPS    iGPS            $GPGGA,202556.000,4144.3377,N,06959.5521,W,2,10,1.07,6.1,M,-34.3,M,0000,0000*57 
187.254         GPS_NMEA_FROM_GPS    iGPS            $GPRMC,202557.000,A,4144.3377,N,06959.5518,W,0.76,99.72,300321,,,D*46 
188.256         GPS_NMEA_FROM_GPS    iGPS            $GPRMC,202558.000,A,4144.3376,N,06959.5516,W,0.73,99.33,300321,,,D*46 
189.158         GPS_NMEA_FROM_GPS    iGPS            $GPGGA,202559.000,4144.3376,N,06959.5513,W,2,10,1.07,6.1,M,-34.3,M,0000,0000*58 
190.161         GPS_NMEA_FROM_GPS    iGPS            $GPGGA,202600.000,4144.3375,N,06959.5510,W,2,11,0.91,6.1,M,-34.3,M,0000,0000*58 
191.264         GPS_NMEA_FROM_GPS    iGPS            $GPRMC,202601.000,A,4144.3375,N,06959.5507,W,0.75,99.46,300321,,,D*4E 
192.166         GPS_NMEA_FROM_GPS    iGPS            $GPGGA,202602.000,4144.3374,N,06959.5504,W,2,10,1.07,6.0,M,-34.3,M,0000,0000*50 
193.168         GPS_NMEA_FROM_GPS    iGPS            $GPGGA,202603.000,4144.3374,N,06959.5501,W,2,10,1.07,6.0,M,-34.3,M,0000,0000*54 
194.271         GPS_NMEA_FROM_GPS    iGPS            $GPRMC,202604.000,A,4144.3374,N,06959.5499,W,0.75,97.55,300321,,,D*40 
195.173         GPS_NMEA_FROM_GPS    iGPS            $GPRMC,202605.000,A,4144.3374,N,06959.5496,W,0.75,96.10,300321,,,D*4E 
196.176         GPS_NMEA_FROM_GPS    iGPS            $GPGGA,202606.000,4144.3374,N,06959.5493,W,2,10,1.07,6.1,M,-34.3,M,0000,0000*5A 
197.178         GPS_NMEA_FROM_GPS    iGPS            $GPGGA,202607.000,4144.3374,N,06959.5490,W,2,10,1.07,6.1,M,-34.3,M,0000,0000*58 
198.181         GPS_NMEA_FROM_GPS    iGPS            $GPGGA,202608.000,4144.3374,N,06959.5487,W,2,10,1.07,6.1,M,-34.3,M,0000,0000*51 
199.184         GPS_NMEA_FROM_GPS    iGPS            $GPGGA,202609.000,4144.3374,N,06959.5484,W,2,10,1.07,6.1,M,-34.3,M,0000,0000*53 
200.187         GPS_NMEA_FROM_GPS    iGPS            $GPRMC,202610.000,A,4144.3374,N,06959.5481,W,0.80,92.24,300321,,,D*45 
201.189         GPS_NMEA_FROM_GPS    iGPS            $GPGGA,202611.000,4144.3374,N,06959.5478,W,2,10,1.07,6.0,M,-34.3,M,0000,0000*58 
202.192         GPS_NMEA_FROM_GPS    iGPS            $GPGGA,202612.000,4144.3374,N,06959.5475,W,2,10,1.07,5.9,M,-34.3,M,0000,0000*5C 
203.195         GPS_NMEA_FROM_GPS    iGPS            $GPRMC,202613.000,A,4144.3374,N,06959.5472,W,0.77,91.59,300321,,,D*4B 
204.197         GPS_NMEA_FROM_GPS    iGPS            $GPGGA,202614.000,4144.3374,N,06959.5469,W,2,10,1.07,5.9,M,-34.3,M,0000,0000*57 
205.200         GPS_NMEA_FROM_GPS    iGPS            $GPGGA,202615.000,4144.3374,N,06959.5467,W,2,10,1.07,5.9,M,-34.3,M,0000,0000*58 
206.202         GPS_NMEA_FROM_GPS    iGPS            $GPGGA,202616.000,4144.3374,N,06959.5464,W,2,10,1.07,5.8,M,-34.3,M,0000,0000*59 
207.205         GPS_NMEA_FROM_GPS    iGPS            $GPGGA,202617.000,4144.3374,N,06959.5461,W,2,10,1.07,5.8,M,-34.3,M,0000,0000*5D 
208.208         GPS_NMEA_FROM_GPS    iGPS            $GPRMC,202618.000,A,4144.3374,N,06959.5458,W,0.78,93.46,300321,,,D*4B 
209.210         GPS_NMEA_FROM_GPS    iGPS            $GPGGA,202619.000,4144.3374,N,06959.5455,W,2,10,1.07,5.8,M,-34.3,M,0000,0000*54 
210.212         GPS_NMEA_FROM_GPS    iGPS            $GPGGA,202620.000,4144.3373,N,06959.5452,W,2,10,1.07,5.8,M,-34.3,M,0000,0000*5E 
211.215         GPS_NMEA_FROM_GPS    iGPS            $GPRMC,202621.000,A,4144.3373,N,06959.5450,W,0.76,93.41,300321,,,D*47 
212.217         GPS_NMEA_FROM_GPS    iGPS            $GPRMC,202622.000,A,4144.3374,N,06959.5447,W,0.73,93.10,300321,,,D*44 
213.220         GPS_NMEA_FROM_GPS    iGPS            $GPGGA,202623.000,4144.3374,N,06959.5444,W,2,10,1.07,5.7,M,-34.3,M,0000,0000*52 
214.122         GPS_NMEA_FROM_GPS    iGPS            $GPGGA,202624.000,4144.3374,N,06959.5442,W,2,10,1.07,5.8,M,-34.3,M,0000,0000*5C 
215.225         GPS_NMEA_FROM_GPS    iGPS            $GPGGA,202625.000,4144.3374,N,06959.5439,W,2,10,1.07,5.7,M,-34.3,M,0000,0000*5E 
216.228         GPS_NMEA_FROM_GPS    iGPS            $GPRMC,202626.000,A,4144.3374,N,06959.5436,W,0.76,91.61,300321,,,D*47 
217.230         GPS_NMEA_FROM_GPS    iGPS            $GPRMC,202627.000,A,4144.3375,N,06959.5433,W,0.79,91.66,300321,,,D*4A 
218.232         GPS_NMEA_FROM_GPS    iGPS            $GPGGA,202628.000,4144.3375,N,06959.5430,W,2,10,1.07,5.7,M,-34.3,M,0000,0000*5B 
219.235         GPS_NMEA_FROM_GPS    iGPS            $GPRMC,202629.000,A,4144.3375,N,06959.5427,W,0.78,91.64,300321,,,D*42 
220.237         GPS_NMEA_FROM_GPS    iGPS            $GPRMC,202630.000,A,4144.3375,N,06959.5424,W,0.77,92.56,300321,,,D*44 
221.139         GPS_NMEA_FROM_GPS    iGPS            $GPGGA,202631.000,4144.3374,N,06959.5421,W,2,10,1.07,5.7,M,-34.3,M,0000,0000*52 
222.142         GPS_NMEA_FROM_GPS    iGPS            $GPGGA,202632.000,4144.3374,N,06959.5418,W,2,10,1.07,5.7,M,-34.3,M,0000,0000*5B 
223.145         GPS_NMEA_FROM_GPS    iGPS            $GPGGA,202633.000,4144.3374,N,06959.5415,W,2,10,1.07,5.7,M,-34.3,M,0000,0000*57 
224.248         GPS_NMEA_FROM_GPS    iGPS            $GPRMC,202634.000,A,4144.3374,N,06959.5412,W,0.73,94.16,300321,,,D*42 
225.250         GPS_NMEA_FROM_GPS    iGPS            $GPRMC,202635.000,A,4144.3373,N,06959.5409,W,0.74,94.40,300321,,,D*4A 
226.152         GPS_NMEA_FROM_GPS    iGPS            $GPGGA,202636.000,4144.3373,N,06959.5407,W,2,10,1.07,5.7,M,-34.3,M,0000,0000*56 
227.155         GPS_NMEA_FROM_GPS    iGPS            $GPGGA,202637.000,4144.3373,N,06959.5404,W,2,10,1.07,5.6,M,-34.3,M,0000,0000*55 
228.158         GPS_NMEA_FROM_GPS    iGPS            $GPGGA,202638.000,4144.3373,N,06959.5401,W,2,10,1.07,5.7,M,-34.3,M,0000,0000*5E 
229.261         GPS_NMEA_FROM_GPS    iGPS            $GPRMC,202639.000,A,4144.3373,N,06959.5398,W,0.74,92.72,300321,,,D*4E 
230.164         GPS_NMEA_FROM_GPS    iGPS            $GPRMC,202640.000,A,4144.3373,N,06959.5396,W,0.71,91.52,300321,,,D*4A 
231.166         GPS_NMEA_FROM_GPS    iGPS            $GPGGA,202641.000,4144.3373,N,06959.5393,W,2,10,1.07,5.7,M,-34.3,M,0000,0000*5C 
232.169         GPS_NMEA_FROM_GPS    iGPS            $GPGGA,202642.000,4144.3373,N,06959.5390,W,2,10,1.07,5.7,M,-34.3,M,0000,0000*5C 
233.171         GPS_NMEA_FROM_GPS    iGPS            $GPGGA,202643.000,4144.3373,N,06959.5388,W,2,10,1.07,5.7,M,-34.3,M,0000,0000*54 
234.173         GPS_NMEA_FROM_GPS    iGPS            $GPGGA,202644.000,4144.3373,N,06959.5385,W,2,10,1.07,5.7,M,-34.3,M,0000,0000*5E 
235.176         GPS_NMEA_FROM_GPS    iGPS            $GPGGA,202645.000,4144.3374,N,06959.5382,W,2,10,1.07,5.6,M,-34.3,M,0000,0000*5E 
236.178         GPS_NMEA_FROM_GPS    iGPS            $GPGGA,202646.000,4144.3374,N,06959.5379,W,2,10,1.07,5.6,M,-34.3,M,0000,0000*59 
237.180         GPS_NMEA_FROM_GPS    iGPS            $GPGGA,202647.000,4144.3374,N,06959.5377,W,2,10,1.07,5.6,M,-34.3,M,0000,0000*56 
238.182         GPS_NMEA_FROM_GPS    iGPS            $GPGGA,202648.000,4144.3374,N,06959.5374,W,2,10,1.07,5.6,M,-34.3,M,0000,0000*5A 
239.185         GPS_NMEA_FROM_GPS    iGPS            $GPGGA,202649.000,4144.3374,N,06959.5372,W,2,10,1.07,5.5,M,-34.3,M,0000,0000*5E 
240.187         GPS_NMEA_FROM_GPS    iGPS            $GPGGA,202650.000,4144.3374,N,06959.5369,W,2,10,1.07,5.5,M,-34.3,M,0000,0000*5C 
241.190         GPS_NMEA_FROM_GPS    iGPS            $GPGGA,202651.000,4144.3374,N,06959.5366,W,2,10,1.07,5.5,M,-34.3,M,0000,0000*52 
242.192         GPS_NMEA_FROM_GPS    iGPS            $GPGGA,202652.000,4144.3374,N,06959.5364,W,2,10,1.07,5.5,M,-34.3,M,0000,0000*53 
243.195         GPS_NMEA_FROM_GPS    iGPS            $GPRMC,202653.000,A,4144.3374,N,06959.5362,W,0.65,86.56,300321,,,D*43 
244.197         GPS_NMEA_FROM_GPS    iGPS            $GPRMC,202654.000,A,4144.3375,N,06959.5359,W,0.68,85.01,300321,,,D*41 
245.199         GPS_NMEA_FROM_GPS    iGPS            $GPGGA,202655.000,4144.3375,N,06959.5357,W,2,10,1.07,5.5,M,-34.3,M,0000,0000*55 
246.202         GPS_NMEA_FROM_GPS    iGPS            $GPGGA,202656.000,4144.3375,N,06959.5354,W,2,10,1.07,5.5,M,-34.3,M,0000,0000*55 
247.205         GPS_NMEA_FROM_GPS    iGPS            $GPGGA,202657.000,4144.3376,N,06959.5351,W,2,10,1.07,5.4,M,-34.3,M,0000,0000*53 
248.106         GPS_NMEA_FROM_GPS    iGPS            $GPGGA,202658.000,4144.3377,N,06959.5348,W,2,10,1.07,5.4,M,-34.3,M,0000,0000*55 
249.209         GPS_NMEA_FROM_GPS    iGPS            $GPRMC,202659.000,A,4144.3378,N,06959.5346,W,0.72,77.14,300321,,,D*4D 
250.211         GPS_NMEA_FROM_GPS    iGPS            $GPGGA,202700.000,4144.3379,N,06959.5343,W,2,10,1.07,5.3,M,-34.3,M,0000,0000*5B 
251.214         GPS_NMEA_FROM_GPS    iGPS            $GPRMC,202701.000,A,4144.3380,N,06959.5341,W,0.72,75.05,300321,,,D*43 
252.116         GPS_NMEA_FROM_GPS    iGPS            $GPGGA,202702.000,4144.3381,N,06959.5338,W,2,10,1.07,5.2,M,-34.3,M,0000,0000*53 
253.219         GPS_NMEA_FROM_GPS    iGPS            $GPGGA,202703.000,4144.3382,N,06959.5336,W,2,10,1.07,5.1,M,-34.3,M,0000,0000*5C 
254.222         GPS_NMEA_FROM_GPS    iGPS            $GPGGA,202704.000,4144.3383,N,06959.5333,W,2,10,1.07,5.1,M,-34.3,M,0000,0000*5F 
255.224         GPS_NMEA_FROM_GPS    iGPS            $GPRMC,202705.000,A,4144.3383,N,06959.5331,W,0.75,74.55,300321,,,D*40 
256.227         GPS_NMEA_FROM_GPS    iGPS            $GPGGA,202706.000,4144.3384,N,06959.5328,W,2,10,1.07,5.0,M,-34.3,M,0000,0000*51 
257.129         GPS_NMEA_FROM_GPS    iGPS            $GPGGA,202707.000,4144.3385,N,06959.5325,W,2,10,1.07,5.0,M,-34.3,M,0000,0000*5C 
258.232         GPS_NMEA_FROM_GPS    iGPS            $GPGGA,202708.000,4144.3386,N,06959.5323,W,2,10,1.07,5.0,M,-34.3,M,0000,0000*56 
259.134         GPS_NMEA_FROM_GPS    iGPS            $GPGGA,202709.000,4144.3387,N,06959.5320,W,2,10,1.07,5.0,M,-34.3,M,0000,0000*55 
260.237         GPS_NMEA_FROM_GPS    iGPS            $GPRMC,202710.000,A,4144.3387,N,06959.5317,W,0.75,75.58,300321,,,D*48 
261.239         GPS_NMEA_FROM_GPS    iGPS            $GPRMC,202711.000,A,4144.3388,N,06959.5314,W,0.75,76.50,300321,,,D*4E 
262.241         GPS_NMEA_FROM_GPS    iGPS            $GPRMC,202712.000,A,4144.3388,N,06959.5311,W,0.72,76.98,300321,,,D*4B 
263.243         GPS_NMEA_FROM_GPS    iGPS            $GPRMC,202713.000,A,4144.3389,N,06959.5309,W,0.73,76.71,300321,,,D*44 
264.145         GPS_NMEA_FROM_GPS    iGPS            $GPGGA,202714.000,4144.3389,N,06959.5306,W,2,10,1.07,4.9,M,-34.3,M,0000,0000*5B 
265.147         GPS_NMEA_FROM_GPS    iGPS            $GPGGA,202715.000,4144.3390,N,06959.5303,W,2,10,1.07,4.9,M,-34.3,M,0000,0000*57 
266.150         GPS_NMEA_FROM_GPS    iGPS            $GPGGA,202716.000,4144.3390,N,06959.5300,W,2,10,1.07,4.9,M,-34.3,M,0000,0000*57 
267.253         GPS_NMEA_FROM_GPS    iGPS            $GPRMC,202717.000,A,4144.3391,N,06959.5297,W,0.74,76.81,300321,,,D*47 
268.154         GPS_NMEA_FROM_GPS    iGPS            $GPGGA,202718.000,4144.3391,N,06959.5295,W,2,10,1.07,4.8,M,-34.3,M,0000,0000*54 
269.157         GPS_NMEA_FROM_GPS    iGPS            $GPGGA,202719.000,4144.3392,N,06959.5292,W,2,10,1.07,4.8,M,-34.3,M,0000,0000*51 
270.160         GPS_NMEA_FROM_GPS    iGPS            $GPGGA,202720.000,4144.3393,N,06959.5289,W,2,10,1.07,4.8,M,-34.3,M,0000,0000*50 
271.163         GPS_NMEA_FROM_GPS    iGPS            $GPGGA,202721.000,4144.3394,N,06959.5286,W,2,10,1.07,4.8,M,-34.3,M,0000,0000*59 
272.266         GPS_NMEA_FROM_GPS    iGPS            $GPRMC,202722.000,A,4144.3394,N,06959.5283,W,0.77,74.74,300321,,,D*4A 
273.167         GPS_NMEA_FROM_GPS    iGPS            $GPGGA,202723.000,4144.3395,N,06959.5280,W,2,10,1.07,4.7,M,-34.3,M,0000,0000*53 
274.169         GPS_NMEA_FROM_GPS    iGPS            $GPGGA,202724.000,4144.3396,N,06959.5278,W,2,10,1.07,4.7,M,-34.3,M,0000,0000*50 
275.174         GPS_NMEA_FROM_GPS    iGPS            $GPGGA,202725.000,4144.3397,N,06959.5275,W,2,10,1.07,4.6,M,-34.3,M,0000,0000*5C 
276.177         GPS_NMEA_FROM_GPS    iGPS            $GPGGA,202726.000,4144.3398,N,06959.5272,W,2,10,1.07,4.6,M,-34.3,M,0000,0000*57 
277.179         GPS_NMEA_FROM_GPS    iGPS            $GPGGA,202727.000,4144.3399,N,06959.5270,W,2,10,1.07,4.5,M,-34.3,M,0000,0000*56 
278.182         GPS_NMEA_FROM_GPS    iGPS            $GPRMC,202728.000,A,4144.3400,N,06959.5267,W,0.77,73.52,300321,,,D*43 
279.184         GPS_NMEA_FROM_GPS    iGPS            $GPGGA,202729.000,4144.3401,N,06959.5264,W,2,10,1.07,4.4,M,-34.3,M,0000,0000*5A 
280.186         GPS_NMEA_FROM_GPS    iGPS            $GPGGA,202730.000,4144.3402,N,06959.5262,W,2,10,1.07,4.4,M,-34.3,M,0000,0000*57 
281.188         GPS_NMEA_FROM_GPS    iGPS            $GPGGA,202731.000,4144.3403,N,06959.5259,W,2,10,1.07,4.3,M,-34.3,M,0000,0000*58 
282.191         GPS_NMEA_FROM_GPS    iGPS            $GPGGA,202732.000,4144.3404,N,06959.5256,W,2,10,1.07,4.3,M,-34.3,M,0000,0000*53 
283.194         GPS_NMEA_FROM_GPS    iGPS            $GPGGA,202733.000,4144.3404,N,06959.5253,W,2,10,1.07,4.2,M,-34.3,M,0000,0000*56 
284.196         GPS_NMEA_FROM_GPS    iGPS            $GPGGA,202734.000,4144.3405,N,06959.5250,W,2,11,0.91,4.2,M,-34.3,M,0000,0000*5C 
285.199         GPS_NMEA_FROM_GPS    iGPS            $GPRMC,202735.000,A,4144.3406,N,06959.5247,W,0.75,73.57,300321,,,D*4C 
286.202         GPS_NMEA_FROM_GPS    iGPS            $GPRMC,202736.000,A,4144.3407,N,06959.5245,W,0.76,73.04,300321,,,D*49 
287.204         GPS_NMEA_FROM_GPS    iGPS            $GPGGA,202737.000,4144.3408,N,06959.5242,W,2,10,1.07,4.1,M,-34.3,M,0000,0000*5D 
288.206         GPS_NMEA_FROM_GPS    iGPS            $GPGGA,202738.000,4144.3409,N,06959.5239,W,2,10,1.07,4.0,M,-34.3,M,0000,0000*5E 
289.208         GPS_NMEA_FROM_GPS    iGPS            $GPGGA,202739.000,4144.3409,N,06959.5237,W,2,10,1.07,4.0,M,-34.3,M,0000,0000*51 
290.211         GPS_NMEA_FROM_GPS    iGPS            $GPGGA,202740.000,4144.3410,N,06959.5234,W,2,10,1.07,4.0,M,-34.3,M,0000,0000*54 
291.113         GPS_NMEA_FROM_GPS    iGPS            $GPGGA,202741.000,4144.3411,N,06959.5232,W,2,10,1.07,4.0,M,-34.3,M,0000,0000*52 
292.215         GPS_NMEA_FROM_GPS    iGPS            $GPGGA,202742.000,4144.3411,N,06959.5229,W,2,10,1.07,3.9,M,-34.3,M,0000,0000*55 
293.118         GPS_NMEA_FROM_GPS    iGPS            $GPGGA,202743.000,4144.3412,N,06959.5226,W,2,10,1.07,3.9,M,-34.3,M,0000,0000*58 
294.221         GPS_NMEA_FROM_GPS    iGPS            $GPRMC,202744.000,A,4144.3413,N,06959.5223,W,0.74,74.83,300321,,,D*43 
295.123         GPS_NMEA_FROM_GPS    iGPS            $GPGGA,202745.000,4144.3413,N,06959.5221,W,2,10,1.07,3.8,M,-34.3,M,0000,0000*59 
296.225         GPS_NMEA_FROM_GPS    iGPS            $GPGGA,202746.000,4144.3414,N,06959.5218,W,2,10,1.07,3.7,M,-34.3,M,0000,0000*58 
297.228         GPS_NMEA_FROM_GPS    iGPS            $GPGGA,202747.000,4144.3415,N,06959.5216,W,2,10,1.07,3.7,M,-34.3,M,0000,0000*56 
298.131         GPS_NMEA_FROM_GPS    iGPS            $GPGGA,202748.000,4144.3416,N,06959.5213,W,2,10,1.07,3.6,M,-34.3,M,0000,0000*5E 
299.233         GPS_NMEA_FROM_GPS    iGPS            $GPGGA,202749.000,4144.3416,N,06959.5211,W,2,10,1.07,3.6,M,-34.3,M,0000,0000*5D 
300.236         GPS_NMEA_FROM_GPS    iGPS            $GPRMC,202750.000,A,4144.3417,N,06959.5208,W,0.75,74.49,300321,,,D*4C 
301.138         GPS_NMEA_FROM_GPS    iGPS            $GPGGA,202751.000,4144.3418,N,06959.5206,W,2,10,1.07,3.5,M,-34.3,M,0000,0000*5F 
302.241         GPS_NMEA_FROM_GPS    iGPS            $GPGGA,202752.000,4144.3419,N,06959.5204,W,2,10,1.07,3.5,M,-34.3,M,0000,0000*5F 
303.244         GPS_NMEA_FROM_GPS    iGPS            $GPRMC,202753.000,A,4144.3420,N,06959.5201,W,0.76,74.03,300321,,,D*4F 
304.246         GPS_NMEA_FROM_GPS    iGPS            $GPRMC,202754.000,A,4144.3421,N,06959.5199,W,0.74,73.92,300321,,,D*46 
305.249         GPS_NMEA_FROM_GPS    iGPS            $GPRMC,202755.000,A,4144.3421,N,06959.5196,W,0.74,74.11,300321,,,D*44 
306.151         GPS_NMEA_FROM_GPS    iGPS            $GPGGA,202756.000,4144.3422,N,06959.5194,W,2,10,1.07,3.4,M,-34.3,M,0000,0000*58 
307.155         GPS_NMEA_FROM_GPS    iGPS            $GPGGA,202757.000,4144.3423,N,06959.5191,W,2,10,1.07,3.4,M,-34.3,M,0000,0000*5D 
308.258         GPS_NMEA_FROM_GPS    iGPS            $GPRMC,202758.000,A,4144.3424,N,06959.5189,W,0.74,73.08,300321,,,D*4D 
309.159         GPS_NMEA_FROM_GPS    iGPS            $GPGGA,202759.000,4144.3424,N,06959.5186,W,2,10,1.07,3.3,M,-34.3,M,0000,0000*55 
310.262         GPS_NMEA_FROM_GPS    iGPS            $GPRMC,202800.000,A,4144.3425,N,06959.5184,W,0.74,73.00,300321,,,D*4B 
311.164         GPS_NMEA_FROM_GPS    iGPS            $GPGGA,202801.000,4144.3426,N,06959.5181,W,2,10,1.07,3.2,M,-34.3,M,0000,0000*53 
312.167         GPS_NMEA_FROM_GPS    iGPS            $GPGGA,202802.000,4144.3427,N,06959.5179,W,2,10,1.07,3.2,M,-34.3,M,0000,0000*56 
313.169         GPS_NMEA_FROM_GPS    iGPS            $GPGGA,202803.000,4144.3428,N,06959.5177,W,2,10,1.01,3.2,M,-34.3,M,0000,0000*50 
314.172         GPS_NMEA_FROM_GPS    iGPS            $GPGGA,202804.000,4144.3429,N,06959.5175,W,2,10,1.07,3.1,M,-34.3,M,0000,0000*51 
315.174         GPS_NMEA_FROM_GPS    iGPS            $GPGGA,202805.000,4144.3430,N,06959.5173,W,2,10,1.07,3.1,M,-34.3,M,0000,0000*5E 
316.177         GPS_NMEA_FROM_GPS    iGPS            $GPGGA,202806.000,4144.3431,N,06959.5171,W,2,10,1.07,3.1,M,-34.3,M,0000,0000*5E 
317.179         GPS_NMEA_FROM_GPS    iGPS            $GPGGA,202807.000,4144.3433,N,06959.5169,W,2,10,1.07,3.1,M,-34.3,M,0000,0000*54 
318.182         GPS_NMEA_FROM_GPS    iGPS            $GPGGA,202808.000,4144.3434,N,06959.5167,W,2,11,0.91,3.0,M,-34.3,M,0000,0000*5C 
319.184         GPS_NMEA_FROM_GPS    iGPS            $GPGGA,202809.000,4144.3436,N,06959.5165,W,2,11,0.91,3.0,M,-34.3,M,0000,0000*5D 
320.187         GPS_NMEA_FROM_GPS    iGPS            $GPGGA,202810.000,4144.3437,N,06959.5164,W,2,11,0.91,3.0,M,-34.3,M,0000,0000*55 
321.190         GPS_NMEA_FROM_GPS    iGPS            $GPGGA,202811.000,4144.3439,N,06959.5162,W,2,11,0.91,2.9,M,-34.3,M,0000,0000*54 
322.192         GPS_NMEA_FROM_GPS    iGPS            $GPGGA,202812.000,4144.3441,N,06959.5160,W,2,11,0.91,2.9,M,-34.3,M,0000,0000*5A 
323.195         GPS_NMEA_FROM_GPS    iGPS            $GPGGA,202813.000,4144.3442,N,06959.5158,W,2,10,1.07,2.9,M,-34.3,M,0000,0000*5C 
324.199         GPS_NMEA_FROM_GPS    iGPS            $GPGGA,202814.000,4144.3444,N,06959.5157,W,2,10,1.07,2.9,M,-34.3,M,0000,0000*52 
325.200         GPS_NMEA_FROM_GPS    iGPS            $GPGGA,202815.000,4144.3446,N,06959.5155,W,2,10,1.07,2.9,M,-34.3,M,0000,0000*53 
326.203         GPS_NMEA_FROM_GPS    iGPS            $GPGGA,202816.000,4144.3447,N,06959.5153,W,2,10,1.07,2.8,M,-34.3,M,0000,0000*56 
327.205         GPS_NMEA_FROM_GPS    iGPS            $GPGGA,202817.000,4144.3449,N,06959.5151,W,2,10,1.07,2.8,M,-34.3,M,0000,0000*5B 
328.209         GPS_NMEA_FROM_GPS    iGPS            $GPGGA,202818.000,4144.3450,N,06959.5149,W,2,10,1.07,2.8,M,-34.3,M,0000,0000*55 
329.211         GPS_NMEA_FROM_GPS    iGPS            $GPRMC,202819.000,A,4144.3452,N,06959.5146,W,0.69,43.47,300321,,,D*41 
330.214         GPS_NMEA_FROM_GPS    iGPS            $GPGGA,202820.000,4144.3453,N,06959.5144,W,2,11,0.91,2.8,M,-34.3,M,0000,0000*5F 
331.216         GPS_NMEA_FROM_GPS    iGPS            $GPGGA,202821.000,4144.3455,N,06959.5143,W,2,11,0.91,2.7,M,-34.3,M,0000,0000*50 
332.219         GPS_NMEA_FROM_GPS    iGPS            $GPGGA,202822.000,4144.3456,N,06959.5141,W,2,11,0.91,2.7,M,-34.3,M,0000,0000*52 
333.121         GPS_NMEA_FROM_GPS    iGPS            $GPGGA,202823.000,4144.3458,N,06959.5140,W,2,10,1.01,2.7,M,-34.3,M,0000,0000*55 
334.124         GPS_NMEA_FROM_GPS    iGPS            $GPGGA,202824.000,4144.3460,N,06959.5138,W,2,10,1.01,2.6,M,-34.3,M,0000,0000*57 
335.227         GPS_NMEA_FROM_GPS    iGPS            $GPGGA,202825.000,4144.3461,N,06959.5137,W,2,11,0.91,2.6,M,-34.3,M,0000,0000*51 
336.129         GPS_NMEA_FROM_GPS    iGPS            $GPGGA,202826.000,4144.3463,N,06959.5136,W,2,11,0.91,2.6,M,-34.3,M,0000,0000*51 
337.132         GPS_NMEA_FROM_GPS    iGPS            $GPGGA,202827.000,4144.3465,N,06959.5134,W,2,11,0.91,2.6,M,-34.3,M,0000,0000*54 
338.235         GPS_NMEA_FROM_GPS    iGPS            $GPRMC,202828.000,A,4144.3466,N,06959.5133,W,0.78,34.68,300321,,,D*4B 
339.237         GPS_NMEA_FROM_GPS    iGPS            $GPRMC,202829.000,A,4144.3467,N,06959.5132,W,0.75,33.87,300321,,,D*41 
340.240         GPS_NMEA_FROM_GPS    iGPS            $GPRMC,202830.000,A,4144.3469,N,06959.5131,W,0.72,33.37,300321,,,D*48 
341.142         GPS_NMEA_FROM_GPS    iGPS            $GPGGA,202831.000,4144.3471,N,06959.5130,W,2,10,1.01,2.6,M,-34.3,M,0000,0000*5B 
342.144         GPS_NMEA_FROM_GPS    iGPS            $GPGGA,202832.000,4144.3472,N,06959.5128,W,2,10,1.01,2.6,M,-34.3,M,0000,0000*52 
343.147         GPS_NMEA_FROM_GPS    iGPS            $GPGGA,202833.000,4144.3474,N,06959.5126,W,2,11,0.91,2.6,M,-34.3,M,0000,0000*52 
344.250         GPS_NMEA_FROM_GPS    iGPS            $GPRMC,202834.000,A,4144.3476,N,06959.5124,W,0.77,33.92,300321,,,D*4C 
345.253         GPS_NMEA_FROM_GPS    iGPS            $GPRMC,202835.000,A,4144.3478,N,06959.5123,W,0.74,34.67,300321,,,D*4A 
346.255         GPS_NMEA_FROM_GPS    iGPS            $GPRMC,202836.000,A,4144.3480,N,06959.5121,W,0.74,35.12,300321,,,D*4F 
347.257         GPS_NMEA_FROM_GPS    iGPS            $GPRMC,202837.000,A,4144.3482,N,06959.5119,W,0.73,35.43,300321,,,D*44 
348.159         GPS_NMEA_FROM_GPS    iGPS            $GPGGA,202838.000,4144.3483,N,06959.5117,W,2,11,0.91,2.4,M,-34.3,M,0000,0000*51 
349.262         GPS_NMEA_FROM_GPS    iGPS            $GPRMC,202839.000,A,4144.3485,N,06959.5116,W,0.72,36.64,300321,,,D*45 
350.164         GPS_NMEA_FROM_GPS    iGPS            $GPGGA,202840.000,4144.3487,N,06959.5114,W,2,11,0.92,2.4,M,-34.3,M,0000,0000*5A 
351.167         GPS_NMEA_FROM_GPS    iGPS            $GPGGA,202841.000,4144.3488,N,06959.5112,W,2,11,0.91,2.4,M,-34.3,M,0000,0000*51 
352.170         GPS_NMEA_FROM_GPS    iGPS            $GPGGA,202842.000,4144.3490,N,06959.5111,W,2,10,1.01,2.3,M,-34.3,M,0000,0000*56 
353.172         GPS_NMEA_FROM_GPS    iGPS            $GPGGA,202843.000,4144.3492,N,06959.5109,W,2,09,1.15,2.3,M,-34.3,M,0000,0000*51 
354.175         GPS_NMEA_FROM_GPS    iGPS            $GPRMC,202844.000,A,4144.3493,N,06959.5108,W,0.72,37.35,300321,,,D*42 
355.178         GPS_NMEA_FROM_GPS    iGPS            $GPRMC,202845.000,A,4144.3495,N,06959.5106,W,0.74,37.30,300321,,,D*48 
356.180         GPS_NMEA_FROM_GPS    iGPS            $GPGGA,202846.000,4144.3497,N,06959.5105,W,2,10,1.01,2.2,M,-34.3,M,0000,0000*51 
357.183         GPS_NMEA_FROM_GPS    iGPS            $GPGGA,202847.000,4144.3498,N,06959.5103,W,2,10,1.02,2.2,M,-34.3,M,0000,0000*5A 
358.186         GPS_NMEA_FROM_GPS    iGPS            $GPRMC,202848.000,A,4144.3500,N,06959.5102,W,0.73,37.37,300321,,,D*4C 
359.188         GPS_NMEA_FROM_GPS    iGPS            $GPGGA,202849.000,4144.3501,N,06959.5100,W,2,10,1.02,2.2,M,-34.3,M,0000,0000*56 
360.191         GPS_NMEA_FROM_GPS    iGPS            $GPGGA,202850.000,4144.3503,N,06959.5098,W,2,10,1.02,2.2,M,-34.3,M,0000,0000*5C 
361.193         GPS_NMEA_FROM_GPS    iGPS            $GPGGA,202851.000,4144.3504,N,06959.5097,W,2,10,1.02,2.1,M,-34.3,M,0000,0000*56 
362.096         GPS_NMEA_FROM_GPS    iGPS            $GPGGA,202852.000,4144.3505,N,06959.5095,W,2,10,1.02,2.1,M,-34.3,M,0000,0000*56 
363.099         GPS_NMEA_FROM_GPS    iGPS            $GPGGA,202853.000,4144.3507,N,06959.5094,W,2,11,0.92,2.1,M,-34.3,M,0000,0000*5D 
364.202         GPS_NMEA_FROM_GPS    iGPS            $GPRMC,202854.000,A,4144.3508,N,06959.5092,W,0.69,41.68,300321,,,D*41 
365.104         GPS_NMEA_FROM_GPS    iGPS            $GPGGA,202855.000,4144.3510,N,06959.5091,W,2,11,0.92,2.1,M,-34.3,M,0000,0000*58 
366.207         GPS_NMEA_FROM_GPS    iGPS            $GPGGA,202856.000,4144.3511,N,06959.5089,W,2,11,0.91,2.2,M,-34.3,M,0000,0000*53 
367.210         GPS_NMEA_FROM_GPS    iGPS            $GPRMC,202857.000,A,4144.3512,N,06959.5088,W,0.72,39.87,300321,,,D*46 
368.212         GPS_NMEA_FROM_GPS    iGPS            $GPRMC,202858.000,A,4144.3514,N,06959.5087,W,0.72,37.49,300321,,,D*4C 
369.214         GPS_NMEA_FROM_GPS    iGPS            $GPGGA,202859.000,4144.3515,N,06959.5086,W,2,10,1.02,2.2,M,-34.3,M,0000,0000*5D 
370.117         GPS_NMEA_FROM_GPS    iGPS            $GPGGA,202900.000,4144.3517,N,06959.5085,W,2,11,0.91,2.2,M,-34.3,M,0000,0000*5B 
371.120         GPS_NMEA_FROM_GPS    iGPS            $GPGGA,202901.000,4144.3518,N,06959.5084,W,2,11,0.91,2.3,M,-34.3,M,0000,0000*55 
372.223         GPS_NMEA_FROM_GPS    iGPS            $GPRMC,202902.000,A,4144.3520,N,06959.5083,W,0.70,30.24,300321,,,D*4F 
373.225         GPS_NMEA_FROM_GPS    iGPS            $GPRMC,202903.000,A,4144.3522,N,06959.5083,W,0.73,29.47,300321,,,D*42 
374.228         GPS_NMEA_FROM_GPS    iGPS            $GPRMC,202904.000,A,4144.3523,N,06959.5082,W,0.72,28.71,300321,,,D*40 
375.230         GPS_NMEA_FROM_GPS    iGPS            $GPRMC,202905.000,A,4144.3525,N,06959.5081,W,0.72,29.13,300321,,,D*41 
376.132         GPS_NMEA_FROM_GPS    iGPS            $GPGGA,202906.000,4144.3526,N,06959.5079,W,2,11,0.91,2.5,M,-34.3,M,0000,0000*5B 
377.235         GPS_NMEA_FROM_GPS    iGPS            $GPRMC,202907.000,A,4144.3528,N,06959.5078,W,0.76,29.94,300321,,,D*43 
378.238         GPS_NMEA_FROM_GPS    iGPS            $GPGGA,202908.000,4144.3530,N,06959.5076,W,2,10,1.02,2.5,M,-34.3,M,0000,0000*57 
379.140         GPS_NMEA_FROM_GPS    iGPS            $GPGGA,202909.000,4144.3532,N,06959.5074,W,2,10,1.02,2.5,M,-34.3,M,0000,0000*56 
380.143         GPS_NMEA_FROM_GPS    iGPS            $GPGGA,202910.000,4144.3534,N,06959.5073,W,2,10,1.07,2.5,M,-34.3,M,0000,0000*5A 
381.145         GPS_NMEA_FROM_GPS    iGPS            $GPGGA,202911.000,4144.3536,N,06959.5071,W,2,09,1.15,2.5,M,-34.3,M,0000,0000*50 
382.248         GPS_NMEA_FROM_GPS    iGPS            $GPRMC,202912.000,A,4144.3537,N,06959.5069,W,0.72,34.00,300321,,,D*4C 
383.151         GPS_NMEA_FROM_GPS    iGPS            $GPGGA,202913.000,4144.3539,N,06959.5068,W,2,10,1.02,2.5,M,-34.3,M,0000,0000*5B 
384.153         GPS_NMEA_FROM_GPS    iGPS            $GPGGA,202914.000,4144.3540,N,06959.5066,W,2,11,0.92,2.6,M,-34.3,M,0000,0000*56 
385.156         GPS_NMEA_FROM_GPS    iGPS            $GPRMC,202915.000,A,4144.3542,N,06959.5064,W,0.70,34.31,300321,,,D*44 
386.158         GPS_NMEA_FROM_GPS    iGPS            $GPGGA,202916.000,4144.3543,N,06959.5063,W,2,11,0.91,2.6,M,-34.3,M,0000,0000*51 
387.161         GPS_NMEA_FROM_GPS    iGPS            $GPGGA,202917.000,4144.3544,N,06959.5062,W,2,11,0.91,2.6,M,-34.3,M,0000,0000*56 
388.164         GPS_NMEA_FROM_GPS    iGPS            $GPGGA,202918.000,4144.3546,N,06959.5061,W,2,11,0.91,2.6,M,-34.3,M,0000,0000*58 
389.167         GPS_NMEA_FROM_GPS    iGPS            $GPGGA,202919.000,4144.3547,N,06959.5060,W,2,10,1.07,2.6,M,-34.3,M,0000,0000*56 
390.169         GPS_NMEA_FROM_GPS    iGPS            $GPGGA,202920.000,4144.3549,N,06959.5059,W,2,10,1.07,2.6,M,-34.3,M,0000,0000*58 
391.172         GPS_NMEA_FROM_GPS    iGPS            $GPGGA,202921.000,4144.3550,N,06959.5058,W,2,11,0.92,2.7,M,-34.3,M,0000,0000*5D 
392.174         GPS_NMEA_FROM_GPS    iGPS            $GPGGA,202922.000,4144.3552,N,06959.5057,W,2,11,0.92,2.7,M,-34.3,M,0000,0000*53 
393.177         GPS_NMEA_FROM_GPS    iGPS            $GPGGA,202923.000,4144.3553,N,06959.5056,W,2,11,0.91,2.8,M,-34.3,M,0000,0000*5E 
394.180         GPS_NMEA_FROM_GPS    iGPS            $GPGGA,202924.000,4144.3555,N,06959.5056,W,2,11,0.91,2.8,M,-34.3,M,0000,0000*5F 
395.182         GPS_NMEA_FROM_GPS    iGPS            $GPGGA,202925.000,4144.3556,N,06959.5055,W,2,11,1.04,2.9,M,-34.3,M,0000,0000*52 
396.185         GPS_NMEA_FROM_GPS    iGPS            $GPGGA,202926.000,4144.3558,N,06959.5055,W,2,11,1.04,2.9,M,-34.3,M,0000,0000*5F 
397.188         GPS_NMEA_FROM_GPS    iGPS            $GPGGA,202927.000,4144.3560,N,06959.5056,W,2,10,1.15,3.0,M,-34.3,M,0000,0000*5F 
398.190         GPS_NMEA_FROM_GPS    iGPS            $GPGGA,202928.000,4144.3561,N,06959.5056,W,2,10,1.15,3.1,M,-34.3,M,0000,0000*50 
399.193         GPS_NMEA_FROM_GPS    iGPS            $GPGGA,202929.000,4144.3563,N,06959.5056,W,2,10,1.15,3.1,M,-34.3,M,0000,0000*53 
400.096         GPS_NMEA_FROM_GPS    iGPS            $GPGGA,202930.000,4144.3566,N,06959.5056,W,2,10,1.15,3.1,M,-34.3,M,0000,0000*5E 
401.098         GPS_NMEA_FROM_GPS    iGPS            $GPGGA,202931.000,4144.3568,N,06959.5057,W,2,10,1.15,3.2,M,-34.3,M,0000,0000*53 
402.201         GPS_NMEA_FROM_GPS    iGPS            $GPRMC,202932.000,A,4144.3570,N,06959.5057,W,0.74,351.32,300321,,,D*77 
403.203         GPS_NMEA_FROM_GPS    iGPS            $GPGGA,202933.000,4144.3572,N,06959.5057,W,2,10,1.07,3.2,M,-34.3,M,0000,0000*59 
404.106         GPS_NMEA_FROM_GPS    iGPS            $GPGGA,202934.000,4144.3574,N,06959.5058,W,2,10,1.07,3.3,M,-34.3,M,0000,0000*56 
405.109         GPS_NMEA_FROM_GPS    iGPS            $GPGGA,202935.000,4144.3576,N,06959.5058,W,2,10,1.07,3.3,M,-34.3,M,0000,0000*55 
406.111         GPS_NMEA_FROM_GPS    iGPS            $GPGGA,202936.000,4144.3578,N,06959.5058,W,2,10,1.07,3.4,M,-34.3,M,0000,0000*5F 
407.114         GPS_NMEA_FROM_GPS    iGPS            $GPGGA,202937.000,4144.3580,N,06959.5059,W,2,10,1.07,3.4,M,-34.3,M,0000,0000*58 
408.217         GPS_NMEA_FROM_GPS    iGPS            $GPRMC,202938.000,A,4144.3582,N,06959.5060,W,0.71,341.24,300321,,,D*77 
409.119         GPS_NMEA_FROM_GPS    iGPS            $GPGGA,202939.000,4144.3584,N,06959.5061,W,2,10,1.07,3.5,M,-34.3,M,0000,0000*58 
410.222         GPS_NMEA_FROM_GPS    iGPS            $GPRMC,202940.000,A,4144.3586,N,06959.5062,W,0.70,336.58,300321,,,D*74 
411.124         GPS_NMEA_FROM_GPS    iGPS            $GPGGA,202941.000,4144.3588,N,06959.5063,W,2,10,1.07,3.5,M,-34.3,M,0000,0000*59 
412.126         GPS_NMEA_FROM_GPS    iGPS            $GPGGA,202942.000,4144.3590,N,06959.5064,W,2,10,1.07,3.6,M,-34.3,M,0000,0000*57 
413.129         GPS_NMEA_FROM_GPS    iGPS            $GPGGA,202943.000,4144.3592,N,06959.5065,W,2,11,0.92,3.6,M,-34.3,M,0000,0000*59 
414.232         GPS_NMEA_FROM_GPS    iGPS            $GPGGA,202944.000,4144.3593,N,06959.5066,W,2,11,0.92,3.6,M,-34.3,M,0000,0000*5C 
415.135         GPS_NMEA_FROM_GPS    iGPS            $GPGGA,202945.000,4144.3595,N,06959.5068,W,2,10,1.07,3.7,M,-34.3,M,0000,0000*58 
416.139         GPS_NMEA_FROM_GPS    iGPS            $GPGGA,202946.000,4144.3597,N,06959.5069,W,2,11,0.91,3.7,M,-34.3,M,0000,0000*57 
417.242         GPS_NMEA_FROM_GPS    iGPS            $GPRMC,202947.000,A,4144.3598,N,06959.5070,W,0.71,329.93,300321,,,D*77 
418.144         GPS_NMEA_FROM_GPS    iGPS            $GPGGA,202948.000,4144.3600,N,06959.5071,W,2,11,0.92,3.7,M,-34.3,M,0000,0000*5E 
419.147         GPS_NMEA_FROM_GPS    iGPS            $GPGGA,202949.000,4144.3602,N,06959.5072,W,2,11,0.92,3.7,M,-34.3,M,0000,0000*5E 
420.149         GPS_NMEA_FROM_GPS    iGPS            $GPGGA,202950.000,4144.3604,N,06959.5073,W,2,11,0.91,3.8,M,-34.3,M,0000,0000*5D 
421.253         GPS_NMEA_FROM_GPS    iGPS            $GPRMC,202951.000,A,4144.3606,N,06959.5074,W,0.74,333.21,300321,,,D*77 
422.155         GPS_NMEA_FROM_GPS    iGPS            $GPGGA,202952.000,4144.3608,N,06959.5075,W,2,11,0.92,3.8,M,-34.3,M,0000,0000*56 
423.258         GPS_NMEA_FROM_GPS    iGPS            $GPRMC,202953.000,A,4144.3609,N,06959.5076,W,0.70,330.68,300321,,,D*72 
424.160         GPS_NMEA_FROM_GPS    iGPS            $GPGGA,202954.000,4144.3611,N,06959.5077,W,2,10,1.07,3.9,M,-34.3,M,0000,0000*57 
425.162         GPS_NMEA_FROM_GPS    iGPS            $GPGGA,202955.000,4144.3612,N,06959.5079,W,2,10,1.07,3.9,M,-34.3,M,0000,0000*5B 
426.165         GPS_NMEA_FROM_GPS    iGPS            $GPRMC,202956.000,A,4144.3613,N,06959.5081,W,0.72,326.99,300321,,,D*7F 
427.167         GPS_NMEA_FROM_GPS    iGPS            $GPGGA,202957.000,4144.3615,N,06959.5083,W,2,11,0.92,3.9,M,-34.3,M,0000,0000*57 
428.170         GPS_NMEA_FROM_GPS    iGPS            $GPGGA,202958.000,4144.3616,N,06959.5085,W,2,11,0.92,4.0,M,-34.3,M,0000,0000*53 
429.274         GPS_NMEA_FROM_GPS    iGPS            $GPRMC,202959.000,A,4144.3618,N,06959.5086,W,0.74,324.88,300321,,,D*78 
430.177         GPS_NMEA_FROM_GPS    iGPS            $GPGGA,203000.000,4144.3620,N,06959.5088,W,2,11,0.92,3.9,M,-34.3,M,0000,0000*50 
431.179         GPS_NMEA_FROM_GPS    iGPS            $GPGGA,203001.000,4144.3621,N,06959.5089,W,2,10,0.96,4.0,M,-34.3,M,0000,0000*5A 
432.182         GPS_NMEA_FROM_GPS    iGPS            $GPGGA,203002.000,4144.3623,N,06959.5091,W,2,10,0.96,4.0,M,-34.3,M,0000,0000*52 
433.185         GPS_NMEA_FROM_GPS    iGPS            $GPRMC,203003.000,A,4144.3625,N,06959.5093,W,0.75,323.27,300321,,,D*76 
434.187         GPS_NMEA_FROM_GPS    iGPS            $GPRMC,203004.000,A,4144.3626,N,06959.5094,W,0.75,322.89,300321,,,D*70 
435.190         GPS_NMEA_FROM_GPS    iGPS            $GPGGA,203005.000,4144.3628,N,06959.5096,W,2,11,0.92,4.0,M,-34.3,M,0000,0000*5C 
436.192         GPS_NMEA_FROM_GPS    iGPS            $GPGGA,203006.000,4144.3629,N,06959.5098,W,2,11,0.91,4.0,M,-34.3,M,0000,0000*53 
437.195         GPS_NMEA_FROM_GPS    iGPS            $GPGGA,203007.000,4144.3631,N,06959.5099,W,2,11,0.92,4.0,M,-34.3,M,0000,0000*59 
438.197         GPS_NMEA_FROM_GPS    iGPS            $GPGGA,203008.000,4144.3633,N,06959.5100,W,2,10,1.07,4.1,M,-34.3,M,0000,0000*58 
439.100         GPS_NMEA_FROM_GPS    iGPS            $GPGGA,203009.000,4144.3635,N,06959.5102,W,2,10,1.07,4.1,M,-34.3,M,0000,0000*5D 
440.203         GPS_NMEA_FROM_GPS    iGPS            $GPRMC,203010.000,A,4144.3636,N,06959.5103,W,0.66,323.54,300321,,,D*78 
441.205         GPS_NMEA_FROM_GPS    iGPS            $GPGGA,203011.000,4144.3637,N,06959.5105,W,2,11,0.92,4.2,M,-34.3,M,0000,0000*5E 
442.208         GPS_NMEA_FROM_GPS    iGPS            $GPGGA,203012.000,4144.3638,N,06959.5107,W,2,11,0.92,4.3,M,-34.3,M,0000,0000*51 
443.211         GPS_NMEA_FROM_GPS    iGPS            $GPGGA,203013.000,4144.3640,N,06959.5108,W,2,11,0.92,4.3,M,-34.3,M,0000,0000*50 
444.213         GPS_NMEA_FROM_GPS    iGPS            $GPGGA,203014.000,4144.3641,N,06959.5110,W,2,10,1.07,4.4,M,-34.3,M,0000,0000*54 
445.116         GPS_NMEA_FROM_GPS    iGPS            $GPGGA,203015.000,4144.3642,N,06959.5112,W,2,10,1.07,4.4,M,-34.3,M,0000,0000*54 
446.218         GPS_NMEA_FROM_GPS    iGPS            $GPGGA,203016.000,4144.3643,N,06959.5114,W,2,10,1.07,4.4,M,-34.3,M,0000,0000*50 
447.121         GPS_NMEA_FROM_GPS    iGPS            $GPGGA,203017.000,4144.3644,N,06959.5117,W,2,10,1.07,4.5,M,-34.3,M,0000,0000*54 
448.123         GPS_NMEA_FROM_GPS    iGPS            $GPGGA,203018.000,4144.3645,N,06959.5119,W,2,10,1.07,4.5,M,-34.3,M,0000,0000*54 
449.126         GPS_NMEA_FROM_GPS    iGPS            $GPGGA,203019.000,4144.3646,N,06959.5122,W,2,10,1.07,4.6,M,-34.3,M,0000,0000*5D 
450.128         GPS_NMEA_FROM_GPS    iGPS            $GPGGA,203020.000,4144.3647,N,06959.5125,W,2,10,1.07,4.6,M,-34.3,M,0000,0000*51 
451.131         GPS_NMEA_FROM_GPS    iGPS            $GPGGA,203021.000,4144.3647,N,06959.5127,W,2,10,1.07,4.6,M,-34.3,M,0000,0000*52 
