2.165           GPS_NMEA_FROM_GPS    iGPS            $GPGGA,202651.000,4144.3438,N,06959.5174,W,2,11,1.04,5.5,M,-34.3,M,0000,0000*5E 
3.168           GPS_NMEA_FROM_GPS    iGPS            $GPGGA,202652.000,4144.3438,N,06959.5174,W,2,11,1.04,5.5,M,-34.3,M,0000,0000*5D 
3.168           GPS_NMEA_FROM_GPS    iGPS            $GPGGA,202652.000,4144.3438,N,06959.5174,W,2,11,1.04,5.5,M,-34.3,M,0000,0000*5D 
4.270           GPS_NMEA_FROM_GPS    iGPS            $GPGGA,202653.000,4144.3438,N,06959.5174,W,2,11,1.04,5.5,M,-34.3,M,0000,0000*5C 
5.173           GPS_NMEA_FROM_GPS    iGPS            $GPGGA,202654.000,4144.3438,N,06959.5174,W,2,11,1.04,5.5,M,-34.3,M,0000,0000*5B 
6.275           GPS_NMEA_FROM_GPS    iGPS            $GPGGA,202655.000,4144.3438,N,06959.5174,W,2,11,1.04,5.5,M,-34.3,M,0000,0000*5A 
7.178           GPS_NMEA_FROM_GPS    iGPS            $GPGGA,202656.000,4144.3438,N,06959.5174,W,2,10,1.15,5.5,M,-34.3,M,0000,0000*58 
8.180           GPS_NMEA_FROM_GPS    iGPS            $GPGGA,202657.000,4144.3438,N,06959.5174,W,2,10,1.15,5.5,M,-34.3,M,0000,0000*59 
9.283           GPS_NMEA_FROM_GPS    iGPS            $GPRMC,202658.000,A,4144.3438,N,06959.5174,W,0.02,97.26,310321,,,D*45 
10.285          GPS_NMEA_FROM_GPS    iGPS            $GPRMC,202659.000,A,4144.3438,N,06959.5174,W,0.01,174.80,310321,,,D*77 
11.187          GPS_NMEA_FROM_GPS    iGPS            $GPGGA,202700.000,4144.3438,N,06959.5174,W,2,10,1.15,5.5,M,-34.3,M,0000,0000*5A 
12.190          GPS_NMEA_FROM_GPS    iGPS            $GPGGA,202701.000,4144.3438,N,06959.5174,W,2,10,1.15,5.5,M,-34.3,M,0000,0000*5B 
12.190          GPS_NMEA_FROM_GPS    iGPS            $GPGGA,202701.000,4144.3438,N,06959.5174,W,2,10,1.15,5.5,M,-34.3,M,0000,0000*5B 
13.192          GPS_NMEA_FROM_GPS    iGPS            $GPGGA,202702.000,4144.3438,N,06959.5174,W,2,10,1.15,5.5,M,-34.3,M,0000,0000*58 
14.195          GPS_NMEA_FROM_GPS    iGPS            $GPGGA,202703.000,4144.3438,N,06959.5174,W,2,10,1.15,5.5,M,-34.3,M,0000,0000*59 
15.198          GPS_NMEA_FROM_GPS    iGPS            $GPGGA,202704.000,4144.3438,N,06959.5174,W,2,10,1.15,5.5,M,-34.3,M,0000,0000*5E 
16.201          GPS_NMEA_FROM_GPS    iGPS            $GPGGA,202705.000,4144.3438,N,06959.5174,W,2,10,1.15,5.5,M,-34.3,M,0000,0000*5F 
17.204          GPS_NMEA_FROM_GPS    iGPS            $GPGGA,202706.000,4144.3438,N,06959.5174,W,2,10,1.15,5.5,M,-34.3,M,0000,0000*5C 
18.207          GPS_NMEA_FROM_GPS    iGPS            $GPGGA,202707.000,4144.3438,N,06959.5174,W,2,10,1.15,5.5,M,-34.3,M,0000,0000*5D 
19.209          GPS_NMEA_FROM_GPS    iGPS            $GPGGA,202708.000,4144.3438,N,06959.5174,W,2,10,1.15,5.5,M,-34.3,M,0000,0000*52 
20.212          GPS_NMEA_FROM_GPS    iGPS            $GPGGA,202709.000,4144.3438,N,06959.5174,W,2,10,1.15,5.5,M,-34.3,M,0000,0000*53 
21.215          GPS_NMEA_FROM_GPS    iGPS            $GPGGA,202710.000,4144.3438,N,06959.5174,W,2,10,1.15,5.5,M,-34.3,M,0000,0000*5B 
22.217          GPS_NMEA_FROM_GPS    iGPS            $GPGGA,202711.000,4144.3438,N,06959.5174,W,2,10,1.15,5.5,M,-34.3,M,0000,0000*5A 
23.220          GPS_NMEA_FROM_GPS    iGPS            $GPGGA,202712.000,4144.3438,N,06959.5174,W,2,10,1.15,5.5,M,-34.3,M,0000,0000*59 
24.223          GPS_NMEA_FROM_GPS    iGPS            $GPGGA,202713.000,4144.3438,N,06959.5174,W,2,10,1.15,5.5,M,-34.3,M,0000,0000*58 
25.225          GPS_NMEA_FROM_GPS    iGPS            $GPGGA,202714.000,4144.3438,N,06959.5174,W,2,10,1.15,5.5,M,-34.3,M,0000,0000*5F 
26.128          GPS_NMEA_FROM_GPS    iGPS            $GPGGA,202715.000,4144.3438,N,06959.5174,W,2,10,1.15,5.5,M,-34.3,M,0000,0000*5E 
27.230          GPS_NMEA_FROM_GPS    iGPS            $GPRMC,202716.000,A,4144.3438,N,06959.5174,W,0.05,7.88,310321,,,D*74 
28.233          GPS_NMEA_FROM_GPS    iGPS            $GPGGA,202717.000,4144.3438,N,06959.5174,W,2,10,1.15,5.5,M,-34.3,M,0000,0000*5C 
28.233          GPS_NMEA_FROM_GPS    iGPS            $GPGGA,202717.000,4144.3438,N,06959.5174,W,2,10,1.15,5.5,M,-34.3,M,0000,0000*5C 
29.235          GPS_NMEA_FROM_GPS    iGPS            $GPGGA,202718.000,4144.3438,N,06959.5174,W,2,10,1.15,5.5,M,-34.3,M,0000,0000*53 
30.238          GPS_NMEA_FROM_GPS    iGPS            $GPRMC,202719.000,A,4144.3438,N,06959.5174,W,0.02,45.92,310321,,,D*41 
31.240          GPS_NMEA_FROM_GPS    iGPS            $GPGGA,202720.000,4144.3438,N,06959.5174,W,2,10,1.15,5.5,M,-34.3,M,0000,0000*58 
32.243          GPS_NMEA_FROM_GPS    iGPS            $GPGGA,202721.000,4144.3438,N,06959.5174,W,2,10,1.15,5.5,M,-34.3,M,0000,0000*59 
33.245          GPS_NMEA_FROM_GPS    iGPS            $GPGGA,202722.000,4144.3438,N,06959.5174,W,2,10,1.14,5.5,M,-34.3,M,0000,0000*5B 
34.248          GPS_NMEA_FROM_GPS    iGPS            $GPGGA,202723.000,4144.3438,N,06959.5174,W,2,11,1.04,5.5,M,-34.3,M,0000,0000*5A 
34.248          GPS_NMEA_FROM_GPS    iGPS            $GPGGA,202723.000,4144.3438,N,06959.5174,W,2,11,1.04,5.5,M,-34.3,M,0000,0000*5A 
35.251          GPS_NMEA_FROM_GPS    iGPS            $GPRMC,202724.000,A,4144.3438,N,06959.5174,W,0.08,84.80,310321,,,D*4B 
36.153          GPS_NMEA_FROM_GPS    iGPS            $GPGGA,202725.000,4144.3438,N,06959.5174,W,2,11,1.04,5.5,M,-34.3,M,0000,0000*5C 
37.256          GPS_NMEA_FROM_GPS    iGPS            $GPRMC,202726.000,A,4144.3438,N,06959.5174,W,0.09,73.00,310321,,,D*48 
38.259          GPS_NMEA_FROM_GPS    iGPS            $GPGGA,202727.000,4144.3438,N,06959.5174,W,2,11,1.04,5.5,M,-34.3,M,0000,0000*5E 
39.161          GPS_NMEA_FROM_GPS    iGPS            $GPGGA,202728.000,4144.3438,N,06959.5174,W,2,10,1.14,5.5,M,-34.3,M,0000,0000*51 
40.164          GPS_NMEA_FROM_GPS    iGPS            $GPGGA,202729.000,4144.3438,N,06959.5174,W,2,10,1.14,5.5,M,-34.3,M,0000,0000*50 
41.267          GPS_NMEA_FROM_GPS    iGPS            $GPRMC,202730.000,A,4144.3438,N,06959.5174,W,0.14,64.51,310321,,,D*41 
42.269          GPS_NMEA_FROM_GPS    iGPS            $GPGGA,202731.000,4144.3438,N,06959.5174,W,2,11,1.04,5.5,M,-34.3,M,0000,0000*59 
43.272          GPS_NMEA_FROM_GPS    iGPS            $GPRMC,202732.000,A,4144.3438,N,06959.5173,W,0.12,53.82,310321,,,D*48 
44.274          GPS_NMEA_FROM_GPS    iGPS            $GPRMC,202733.000,A,4144.3438,N,06959.5173,W,0.12,62.79,310321,,,D*4F 
45.276          GPS_NMEA_FROM_GPS    iGPS            $GPGGA,202734.000,4144.3438,N,06959.5173,W,2,11,1.04,5.5,M,-34.3,M,0000,0000*5B 
46.279          GPS_NMEA_FROM_GPS    iGPS            $GPRMC,202735.000,A,4144.3438,N,06959.5173,W,0.16,62.37,310321,,,D*47 
47.181          GPS_NMEA_FROM_GPS    iGPS            $GPRMC,202736.000,A,4144.3438,N,06959.5173,W,0.17,66.87,310321,,,D*4A 
48.184          GPS_NMEA_FROM_GPS    iGPS            $GPGGA,202737.000,4144.3438,N,06959.5173,W,2,11,1.04,5.5,M,-34.3,M,0000,0000*58 
49.186          GPS_NMEA_FROM_GPS    iGPS            $GPGGA,202738.000,4144.3438,N,06959.5173,W,2,11,1.04,5.5,M,-34.3,M,0000,0000*57 
50.189          GPS_NMEA_FROM_GPS    iGPS            $GPGGA,202739.000,4144.3438,N,06959.5173,W,2,10,1.18,5.5,M,-34.3,M,0000,0000*5A 
51.292          GPS_NMEA_FROM_GPS    iGPS            $GPRMC,202740.000,A,4144.3438,N,06959.5173,W,0.18,51.76,310321,,,D*4E 
52.195          GPS_NMEA_FROM_GPS    iGPS            $GPGGA,202741.000,4144.3439,N,06959.5172,W,2,11,1.04,5.5,M,-34.3,M,0000,0000*59 
53.297          GPS_NMEA_FROM_GPS    iGPS            $GPRMC,202742.000,A,4144.3439,N,06959.5172,W,0.38,52.35,310321,,,D*4A 
54.199          GPS_NMEA_FROM_GPS    iGPS            $GPGGA,202743.000,4144.3440,N,06959.5170,W,2,10,0.96,5.5,M,-34.3,M,0000,0000*5C 
55.202          GPS_NMEA_FROM_GPS    iGPS            $GPGGA,202744.000,4144.3441,N,06959.5169,W,2,10,0.96,5.5,M,-34.3,M,0000,0000*52 
56.204          GPS_NMEA_FROM_GPS    iGPS            $GPGGA,202745.000,4144.3443,N,06959.5167,W,2,11,0.92,5.4,M,-34.3,M,0000,0000*5B 
57.207          GPS_NMEA_FROM_GPS    iGPS            $GPGGA,202746.000,4144.3444,N,06959.5165,W,2,11,0.92,5.4,M,-34.3,M,0000,0000*5D 
58.210          GPS_NMEA_FROM_GPS    iGPS            $GPGGA,202747.000,4144.3446,N,06959.5163,W,2,11,1.04,5.4,M,-34.3,M,0000,0000*56 
59.212          GPS_NMEA_FROM_GPS    iGPS            $GPGGA,202748.000,4144.3448,N,06959.5161,W,2,11,0.92,5.3,M,-34.3,M,0000,0000*5C 
60.215          GPS_NMEA_FROM_GPS    iGPS            $GPGGA,202749.000,4144.3450,N,06959.5159,W,2,11,0.92,5.3,M,-34.3,M,0000,0000*5F 
61.217          GPS_NMEA_FROM_GPS    iGPS            $GPGGA,202750.000,4144.3452,N,06959.5157,W,2,11,0.92,5.2,M,-34.3,M,0000,0000*5A 
62.220          GPS_NMEA_FROM_GPS    iGPS            $GPGGA,202751.000,4144.3454,N,06959.5155,W,2,11,0.92,5.1,M,-34.3,M,0000,0000*5C 
63.222          GPS_NMEA_FROM_GPS    iGPS            $GPGGA,202752.000,4144.3456,N,06959.5153,W,2,11,0.92,5.0,M,-34.3,M,0000,0000*5A 
64.225          GPS_NMEA_FROM_GPS    iGPS            $GPGGA,202753.000,4144.3459,N,06959.5151,W,2,11,0.92,5.0,M,-34.3,M,0000,0000*56 
65.227          GPS_NMEA_FROM_GPS    iGPS            $GPGGA,202754.000,4144.3461,N,06959.5149,W,2,11,0.92,4.9,M,-34.3,M,0000,0000*5B 
66.230          GPS_NMEA_FROM_GPS    iGPS            $GPGGA,202755.000,4144.3463,N,06959.5147,W,2,11,0.92,4.8,M,-34.3,M,0000,0000*57 
67.233          GPS_NMEA_FROM_GPS    iGPS            $GPGGA,202756.000,4144.3465,N,06959.5145,W,2,11,0.92,4.8,M,-34.3,M,0000,0000*50 
68.236          GPS_NMEA_FROM_GPS    iGPS            $GPRMC,202757.000,A,4144.3468,N,06959.5143,W,0.79,33.38,310321,,,D*47 
69.238          GPS_NMEA_FROM_GPS    iGPS            $GPRMC,202758.000,A,4144.3470,N,06959.5141,W,0.77,33.28,310321,,,D*4C 
70.240          GPS_NMEA_FROM_GPS    iGPS            $GPRMC,202759.000,A,4144.3472,N,06959.5139,W,0.76,33.41,310321,,,D*4E 
71.243          GPS_NMEA_FROM_GPS    iGPS            $GPRMC,202800.000,A,4144.3475,N,06959.5138,W,0.77,32.75,310321,,,D*4C 
72.245          GPS_NMEA_FROM_GPS    iGPS            $GPRMC,202801.000,A,4144.3477,N,06959.5136,W,0.74,32.10,310321,,,D*41 
73.148          GPS_NMEA_FROM_GPS    iGPS            $GPGGA,202802.000,4144.3478,N,06959.5134,W,2,11,0.92,4.6,M,-34.3,M,0000,0000*5A 
74.251          GPS_NMEA_FROM_GPS    iGPS            $GPGGA,202803.000,4144.3481,N,06959.5132,W,2,11,0.92,4.7,M,-34.3,M,0000,0000*5A 
75.254          GPS_NMEA_FROM_GPS    iGPS            $GPGGA,202804.000,4144.3483,N,06959.5130,W,2,11,0.92,4.7,M,-34.3,M,0000,0000*5D 
76.257          GPS_NMEA_FROM_GPS    iGPS            $GPRMC,202805.000,A,4144.3485,N,06959.5128,W,0.76,30.91,310321,,,D*4E 
77.159          GPS_NMEA_FROM_GPS    iGPS            $GPGGA,202806.000,4144.3487,N,06959.5126,W,2,11,0.92,4.8,M,-34.3,M,0000,0000*53 
78.262          GPS_NMEA_FROM_GPS    iGPS            $GPRMC,202807.000,A,4144.3489,N,06959.5124,W,0.77,30.68,310321,,,D*4B 
79.265          GPS_NMEA_FROM_GPS    iGPS            $GPRMC,202808.000,A,4144.3491,N,06959.5123,W,0.76,30.33,310321,,,D*45 
80.267          GPS_NMEA_FROM_GPS    iGPS            $GPGGA,202809.000,4144.3493,N,06959.5121,W,2,11,0.92,4.9,M,-34.3,M,0000,0000*5F 
81.170          GPS_NMEA_FROM_GPS    iGPS            $GPGGA,202810.000,4144.3495,N,06959.5120,W,2,11,0.92,4.9,M,-34.3,M,0000,0000*50 
82.172          GPS_NMEA_FROM_GPS    iGPS            $GPGGA,202811.000,4144.3497,N,06959.5118,W,2,11,0.92,5.0,M,-34.3,M,0000,0000*50 
83.275          GPS_NMEA_FROM_GPS    iGPS            $GPRMC,202812.000,A,4144.3499,N,06959.5117,W,0.76,28.97,310321,,,D*46 
84.278          GPS_NMEA_FROM_GPS    iGPS            $GPRMC,202813.000,A,4144.3500,N,06959.5116,W,0.71,28.96,310321,,,D*41 
85.180          GPS_NMEA_FROM_GPS    iGPS            $GPGGA,202814.000,4144.3502,N,06959.5114,W,2,11,0.92,5.1,M,-34.3,M,0000,0000*55 
86.182          GPS_NMEA_FROM_GPS    iGPS            $GPGGA,202815.000,4144.3504,N,06959.5113,W,2,10,1.07,5.1,M,-34.3,M,0000,0000*59 
87.286          GPS_NMEA_FROM_GPS    iGPS            $GPRMC,202816.000,A,4144.3505,N,06959.5112,W,0.73,27.72,310321,,,D*42 
88.188          GPS_NMEA_FROM_GPS    iGPS            $GPRMC,202817.000,A,4144.3507,N,06959.5110,W,0.70,27.26,310321,,,D*41 
89.190          GPS_NMEA_FROM_GPS    iGPS            $GPGGA,202818.000,4144.3508,N,06959.5109,W,2,10,1.07,5.2,M,-34.3,M,0000,0000*50 
90.193          GPS_NMEA_FROM_GPS    iGPS            $GPGGA,202819.000,4144.3510,N,06959.5108,W,2,10,1.07,5.3,M,-34.3,M,0000,0000*58 
91.196          GPS_NMEA_FROM_GPS    iGPS            $GPRMC,202820.000,A,4144.3512,N,06959.5106,W,0.75,25.55,310321,,,D*45 
92.198          GPS_NMEA_FROM_GPS    iGPS            $GPRMC,202821.000,A,4144.3513,N,06959.5105,W,0.75,24.63,310321,,,D*42 
93.100          GPS_NMEA_FROM_GPS    iGPS            $GPGGA,202822.000,4144.3515,N,06959.5104,W,2,09,1.35,5.5,M,-34.3,M,0000,0000*56 
94.103          GPS_NMEA_FROM_GPS    iGPS            $GPGGA,202823.000,4144.3517,N,06959.5103,W,2,09,1.35,5.5,M,-34.3,M,0000,0000*52 
95.206          GPS_NMEA_FROM_GPS    iGPS            $GPGGA,202824.000,4144.3518,N,06959.5102,W,2,10,1.07,5.6,M,-34.3,M,0000,0000*51 
96.208          GPS_NMEA_FROM_GPS    iGPS            $GPGGA,202825.000,4144.3520,N,06959.5101,W,2,10,1.07,5.7,M,-34.3,M,0000,0000*59 
97.211          GPS_NMEA_FROM_GPS    iGPS            $GPGGA,202826.000,4144.3522,N,06959.5100,W,2,10,1.07,5.7,M,-34.3,M,0000,0000*59 
98.113          GPS_NMEA_FROM_GPS    iGPS            $GPGGA,202827.000,4144.3524,N,06959.5099,W,2,10,1.07,5.8,M,-34.3,M,0000,0000*50 
99.116          GPS_NMEA_FROM_GPS    iGPS            $GPGGA,202828.000,4144.3525,N,06959.5098,W,2,09,1.35,5.8,M,-34.3,M,0000,0000*56 
100.219         GPS_NMEA_FROM_GPS    iGPS            $GPGGA,202829.000,4144.3527,N,06959.5097,W,2,10,1.07,5.9,M,-34.3,M,0000,0000*52 
101.222         GPS_NMEA_FROM_GPS    iGPS            $GPGGA,202830.000,4144.3529,N,06959.5096,W,2,10,1.07,5.9,M,-34.3,M,0000,0000*55 
102.225         GPS_NMEA_FROM_GPS    iGPS            $GPGGA,202831.000,4144.3530,N,06959.5096,W,2,10,1.07,6.0,M,-34.3,M,0000,0000*56 
103.127         GPS_NMEA_FROM_GPS    iGPS            $GPGGA,202832.000,4144.3532,N,06959.5095,W,2,09,1.35,6.0,M,-34.3,M,0000,0000*5D 
104.231         GPS_NMEA_FROM_GPS    iGPS            $GPRMC,202833.000,A,4144.3534,N,06959.5094,W,0.72,18.11,310321,,,D*40 
105.234         GPS_NMEA_FROM_GPS    iGPS            $GPGGA,202834.000,4144.3536,N,06959.5094,W,2,10,1.07,6.0,M,-34.3,M,0000,0000*57 
106.236         GPS_NMEA_FROM_GPS    iGPS            $GPGGA,202835.000,4144.3537,N,06959.5093,W,2,10,1.07,6.0,M,-34.3,M,0000,0000*50 
107.239         GPS_NMEA_FROM_GPS    iGPS            $GPGGA,202836.000,4144.3539,N,06959.5093,W,2,10,1.07,6.0,M,-34.3,M,0000,0000*5D 
108.242         GPS_NMEA_FROM_GPS    iGPS            $GPGGA,202837.000,4144.3541,N,06959.5092,W,2,10,1.07,6.0,M,-34.3,M,0000,0000*52 
109.244         GPS_NMEA_FROM_GPS    iGPS            $GPRMC,202838.000,A,4144.3543,N,06959.5091,W,0.73,18.15,310321,,,D*4B 
110.247         GPS_NMEA_FROM_GPS    iGPS            $GPGGA,202839.000,4144.3545,N,06959.5090,W,2,10,1.07,6.0,M,-34.3,M,0000,0000*5A 
111.250         GPS_NMEA_FROM_GPS    iGPS            $GPRMC,202840.000,A,4144.3546,N,06959.5090,W,0.75,18.00,310321,,,D*42 
112.152         GPS_NMEA_FROM_GPS    iGPS            $GPGGA,202841.000,4144.3548,N,06959.5089,W,2,10,1.07,6.0,M,-34.3,M,0000,0000*50 
113.155         GPS_NMEA_FROM_GPS    iGPS            $GPGGA,202842.000,4144.3549,N,06959.5088,W,2,10,1.14,6.1,M,-34.3,M,0000,0000*50 
114.157         GPS_NMEA_FROM_GPS    iGPS            $GPGGA,202843.000,4144.3551,N,06959.5087,W,2,10,1.14,6.1,M,-34.3,M,0000,0000*57 
115.160         GPS_NMEA_FROM_GPS    iGPS            $GPGGA,202844.000,4144.3553,N,06959.5087,W,2,10,1.14,6.2,M,-34.3,M,0000,0000*51 
116.162         GPS_NMEA_FROM_GPS    iGPS            $GPGGA,202845.000,4144.3555,N,06959.5086,W,2,10,1.14,6.2,M,-34.3,M,0000,0000*57 
117.265         GPS_NMEA_FROM_GPS    iGPS            $GPGGA,202846.000,4144.3557,N,06959.5086,W,2,10,1.14,6.3,M,-34.3,M,0000,0000*57 
118.268         GPS_NMEA_FROM_GPS    iGPS            $GPRMC,202847.000,A,4144.3559,N,06959.5086,W,0.63,0.41,310321,,,D*77 
119.170         GPS_NMEA_FROM_GPS    iGPS            $GPGGA,202848.000,4144.3561,N,06959.5086,W,2,10,1.07,6.3,M,-34.3,M,0000,0000*5E 
120.172         GPS_NMEA_FROM_GPS    iGPS            $GPGGA,202849.000,4144.3563,N,06959.5087,W,2,10,1.14,6.3,M,-34.3,M,0000,0000*5E 
121.275         GPS_NMEA_FROM_GPS    iGPS            $GPRMC,202850.000,A,4144.3565,N,06959.5088,W,0.61,342.00,310321,,,D*72 
122.278         GPS_NMEA_FROM_GPS    iGPS            $GPRMC,202851.000,A,4144.3566,N,06959.5089,W,0.64,335.44,310321,,,D*74 
123.280         GPS_NMEA_FROM_GPS    iGPS            $GPRMC,202852.000,A,4144.3568,N,06959.5090,W,0.61,329.91,310321,,,D*71 
124.183         GPS_NMEA_FROM_GPS    iGPS            $GPGGA,202853.000,4144.3569,N,06959.5092,W,2,10,1.07,6.3,M,-34.3,M,0000,0000*59 
125.185         GPS_NMEA_FROM_GPS    iGPS            $GPGGA,202854.000,4144.3571,N,06959.5093,W,2,10,1.07,6.3,M,-34.3,M,0000,0000*56 
126.288         GPS_NMEA_FROM_GPS    iGPS            $GPRMC,202855.000,A,4144.3572,N,06959.5095,W,0.65,316.90,310321,,,D*71 
127.190         GPS_NMEA_FROM_GPS    iGPS            $GPGGA,202856.000,4144.3574,N,06959.5096,W,2,10,1.07,6.4,M,-34.3,M,0000,0000*53 
128.293         GPS_NMEA_FROM_GPS    iGPS            $GPRMC,202857.000,A,4144.3575,N,06959.5098,W,0.63,311.47,310321,,,D*72 
129.195         GPS_NMEA_FROM_GPS    iGPS            $GPGGA,202858.000,4144.3576,N,06959.5100,W,2,10,1.07,6.3,M,-34.3,M,0000,0000*56 
130.198         GPS_NMEA_FROM_GPS    iGPS            $GPGGA,202859.000,4144.3578,N,06959.5101,W,2,10,1.07,6.3,M,-34.3,M,0000,0000*58 
131.200         GPS_NMEA_FROM_GPS    iGPS            $GPGGA,202900.000,4144.3579,N,06959.5103,W,2,10,1.07,6.3,M,-34.3,M,0000,0000*56 
132.304         GPS_NMEA_FROM_GPS    iGPS            $GPRMC,202901.000,A,4144.3581,N,06959.5105,W,0.72,307.68,310321,,,D*74 
133.206         GPS_NMEA_FROM_GPS    iGPS            $GPGGA,202902.000,4144.3582,N,06959.5107,W,2,10,1.07,6.3,M,-34.3,M,0000,0000*54 
134.209         GPS_NMEA_FROM_GPS    iGPS            $GPGGA,202903.000,4144.3584,N,06959.5109,W,2,10,1.07,6.3,M,-34.3,M,0000,0000*5D 
135.212         GPS_NMEA_FROM_GPS    iGPS            $GPRMC,202904.000,A,4144.3585,N,06959.5111,W,0.71,307.42,310321,,,D*7B 
136.214         GPS_NMEA_FROM_GPS    iGPS            $GPRMC,202905.000,A,4144.3587,N,06959.5112,W,0.72,307.32,310321,,,D*7F 
137.216         GPS_NMEA_FROM_GPS    iGPS            $GPGGA,202906.000,4144.3589,N,06959.5114,W,2,10,1.07,6.2,M,-34.3,M,0000,0000*58 
138.219         GPS_NMEA_FROM_GPS    iGPS            $GPGGA,202907.000,4144.3590,N,06959.5116,W,2,10,1.07,6.2,M,-34.3,M,0000,0000*53 
139.221         GPS_NMEA_FROM_GPS    iGPS            $GPGGA,202908.000,4144.3591,N,06959.5119,W,2,10,1.07,6.2,M,-34.3,M,0000,0000*52 
140.224         GPS_NMEA_FROM_GPS    iGPS            $GPRMC,202909.000,A,4144.3592,N,06959.5121,W,0.71,302.24,310321,,,D*76 
141.126         GPS_NMEA_FROM_GPS    iGPS            $GPGGA,202910.000,4144.3593,N,06959.5123,W,2,10,1.07,6.3,M,-34.3,M,0000,0000*51 
142.229         GPS_NMEA_FROM_GPS    iGPS            $GPGGA,202911.000,4144.3594,N,06959.5126,W,2,10,1.07,6.3,M,-34.3,M,0000,0000*52 
143.232         GPS_NMEA_FROM_GPS    iGPS            $GPGGA,202912.000,4144.3594,N,06959.5128,W,2,10,1.07,6.4,M,-34.3,M,0000,0000*58 
144.235         GPS_NMEA_FROM_GPS    iGPS            $GPRMC,202913.000,A,4144.3595,N,06959.5131,W,0.70,295.54,310321,,,D*72 
145.237         GPS_NMEA_FROM_GPS    iGPS            $GPRMC,202914.000,A,4144.3596,N,06959.5133,W,0.74,294.69,310321,,,D*7F 
146.139         GPS_NMEA_FROM_GPS    iGPS            $GPGGA,202915.000,4144.3596,N,06959.5135,W,2,10,1.07,6.5,M,-34.3,M,0000,0000*50 
147.242         GPS_NMEA_FROM_GPS    iGPS            $GPRMC,202916.000,A,4144.3597,N,06959.5138,W,0.73,293.60,310321,,,D*7E 
148.245         GPS_NMEA_FROM_GPS    iGPS            $GPRMC,202917.000,A,4144.3598,N,06959.5140,W,0.72,293.72,310321,,,D*7D 
149.247         GPS_NMEA_FROM_GPS    iGPS            $GPGGA,202918.000,4144.3599,N,06959.5143,W,2,10,1.07,6.6,M,-34.3,M,0000,0000*50 
150.250         GPS_NMEA_FROM_GPS    iGPS            $GPGGA,202919.000,4144.3600,N,06959.5146,W,2,10,1.07,6.7,M,-34.3,M,0000,0000*56 
151.252         GPS_NMEA_FROM_GPS    iGPS            $GPGGA,202920.000,4144.3601,N,06959.5148,W,2,10,1.07,6.7,M,-34.3,M,0000,0000*53 
152.255         GPS_NMEA_FROM_GPS    iGPS            $GPGGA,202921.000,4144.3602,N,06959.5150,W,2,10,1.07,6.7,M,-34.3,M,0000,0000*58 
153.258         GPS_NMEA_FROM_GPS    iGPS            $GPGGA,202922.000,4144.3603,N,06959.5153,W,2,10,1.07,6.7,M,-34.3,M,0000,0000*59 
154.260         GPS_NMEA_FROM_GPS    iGPS            $GPGGA,202923.000,4144.3604,N,06959.5155,W,2,10,1.07,6.7,M,-34.3,M,0000,0000*59 
155.263         GPS_NMEA_FROM_GPS    iGPS            $GPRMC,202924.000,A,4144.3605,N,06959.5158,W,0.72,297.30,310321,,,D*71 
156.265         GPS_NMEA_FROM_GPS    iGPS            $GPGGA,202925.000,4144.3606,N,06959.5160,W,2,10,1.07,6.7,M,-34.3,M,0000,0000*5B 
157.268         GPS_NMEA_FROM_GPS    iGPS            $GPGGA,202926.000,4144.3607,N,06959.5163,W,2,10,1.07,6.7,M,-34.3,M,0000,0000*5A 
158.270         GPS_NMEA_FROM_GPS    iGPS            $GPGGA,202927.000,4144.3608,N,06959.5166,W,2,10,1.07,6.7,M,-34.3,M,0000,0000*51 
159.273         GPS_NMEA_FROM_GPS    iGPS            $GPGGA,202928.000,4144.3608,N,06959.5168,W,2,10,1.07,6.7,M,-34.3,M,0000,0000*50 
160.276         GPS_NMEA_FROM_GPS    iGPS            $GPRMC,202929.000,A,4144.3609,N,06959.5171,W,0.73,295.55,310321,,,D*7B 
161.178         GPS_NMEA_FROM_GPS    iGPS            $GPGGA,202930.000,4144.3610,N,06959.5173,W,2,10,1.07,6.8,M,-34.3,M,0000,0000*55 
162.181         GPS_NMEA_FROM_GPS    iGPS            $GPGGA,202931.000,4144.3611,N,06959.5176,W,2,10,1.07,6.8,M,-34.3,M,0000,0000*50 
163.284         GPS_NMEA_FROM_GPS    iGPS            $GPRMC,202932.000,A,4144.3611,N,06959.5179,W,0.76,294.43,310321,,,D*73 
164.286         GPS_NMEA_FROM_GPS    iGPS            $GPRMC,202933.000,A,4144.3612,N,06959.5181,W,0.73,294.13,310321,,,D*76 
165.188         GPS_NMEA_FROM_GPS    iGPS            $GPGGA,202934.000,4144.3613,N,06959.5184,W,2,10,1.07,6.9,M,-34.3,M,0000,0000*5B 
166.292         GPS_NMEA_FROM_GPS    iGPS            $GPRMC,202935.000,A,4144.3614,N,06959.5187,W,0.72,294.43,310321,,,D*74 
167.195         GPS_NMEA_FROM_GPS    iGPS            $GPGGA,202936.000,4144.3614,N,06959.5189,W,2,10,1.07,6.9,M,-34.3,M,0000,0000*53 
168.299         GPS_NMEA_FROM_GPS    iGPS            $GPRMC,202937.000,A,4144.3615,N,06959.5191,W,0.75,296.11,310321,,,D*72 
169.201         GPS_NMEA_FROM_GPS    iGPS            $GPGGA,202938.000,4144.3616,N,06959.5194,W,2,10,1.07,6.9,M,-34.3,M,0000,0000*53 
170.203         GPS_NMEA_FROM_GPS    iGPS            $GPGGA,202939.000,4144.3617,N,06959.5196,W,2,10,1.07,6.9,M,-34.3,M,0000,0000*51 
171.206         GPS_NMEA_FROM_GPS    iGPS            $GPGGA,202940.000,4144.3618,N,06959.5198,W,2,10,1.14,6.9,M,-34.3,M,0000,0000*5C 
172.208         GPS_NMEA_FROM_GPS    iGPS            $GPGGA,202941.000,4144.3620,N,06959.5200,W,2,10,1.07,6.9,M,-34.3,M,0000,0000*56 
173.211         GPS_NMEA_FROM_GPS    iGPS            $GPGGA,202942.000,4144.3621,N,06959.5203,W,2,10,1.07,6.9,M,-34.3,M,0000,0000*57 
174.213         GPS_NMEA_FROM_GPS    iGPS            $GPGGA,202943.000,4144.3622,N,06959.5205,W,2,10,1.07,6.8,M,-34.3,M,0000,0000*52 
175.216         GPS_NMEA_FROM_GPS    iGPS            $GPGGA,202944.000,4144.3623,N,06959.5208,W,2,10,1.07,6.8,M,-34.3,M,0000,0000*59 
176.219         GPS_NMEA_FROM_GPS    iGPS            $GPGGA,202945.000,4144.3624,N,06959.5210,W,2,10,1.07,6.8,M,-34.3,M,0000,0000*56 
177.221         GPS_NMEA_FROM_GPS    iGPS            $GPGGA,202946.000,4144.3625,N,06959.5213,W,2,10,1.07,6.8,M,-34.3,M,0000,0000*57 
178.224         GPS_NMEA_FROM_GPS    iGPS            $GPRMC,202947.000,A,4144.3626,N,06959.5215,W,0.68,298.18,310321,,,D*71 
179.226         GPS_NMEA_FROM_GPS    iGPS            $GPGGA,202948.000,4144.3627,N,06959.5217,W,2,10,1.07,6.8,M,-34.3,M,0000,0000*5F 
180.229         GPS_NMEA_FROM_GPS    iGPS            $GPGGA,202949.000,4144.3627,N,06959.5220,W,2,10,1.07,6.8,M,-34.3,M,0000,0000*5A 
181.232         GPS_NMEA_FROM_GPS    iGPS            $GPGGA,202950.000,4144.3628,N,06959.5222,W,2,10,1.07,6.8,M,-34.3,M,0000,0000*5F 
182.235         GPS_NMEA_FROM_GPS    iGPS            $GPGGA,202951.000,4144.3629,N,06959.5224,W,2,10,1.14,6.9,M,-34.3,M,0000,0000*5A 
183.238         GPS_NMEA_FROM_GPS    iGPS            $GPGGA,202952.000,4144.3629,N,06959.5227,W,2,10,1.07,6.9,M,-34.3,M,0000,0000*58 
184.240         GPS_NMEA_FROM_GPS    iGPS            $GPGGA,202953.000,4144.3630,N,06959.5229,W,2,10,1.07,6.8,M,-34.3,M,0000,0000*5E 
185.243         GPS_NMEA_FROM_GPS    iGPS            $GPGGA,202954.000,4144.3631,N,06959.5232,W,2,10,1.07,6.8,M,-34.3,M,0000,0000*52 
186.246         GPS_NMEA_FROM_GPS    iGPS            $GPRMC,202955.000,A,4144.3631,N,06959.5235,W,0.77,292.79,310321,,,D*75 
187.248         GPS_NMEA_FROM_GPS    iGPS            $GPGGA,202956.000,4144.3632,N,06959.5237,W,2,10,1.07,6.8,M,-34.3,M,0000,0000*56 
188.150         GPS_NMEA_FROM_GPS    iGPS            $GPGGA,202957.000,4144.3633,N,06959.5240,W,2,10,1.07,6.8,M,-34.3,M,0000,0000*56 
189.253         GPS_NMEA_FROM_GPS    iGPS            $GPGGA,202958.000,4144.3634,N,06959.5242,W,2,10,1.07,6.8,M,-34.3,M,0000,0000*5C 
190.255         GPS_NMEA_FROM_GPS    iGPS            $GPGGA,202959.000,4144.3635,N,06959.5245,W,2,10,1.07,6.8,M,-34.3,M,0000,0000*5B 
191.257         GPS_NMEA_FROM_GPS    iGPS            $GPGGA,203000.000,4144.3637,N,06959.5247,W,2,10,1.07,6.8,M,-34.3,M,0000,0000*5F 
192.260         GPS_NMEA_FROM_GPS    iGPS            $GPGGA,203001.000,4144.3638,N,06959.5249,W,2,10,1.07,6.8,M,-34.3,M,0000,0000*5F 
193.163         GPS_NMEA_FROM_GPS    iGPS            $GPGGA,203002.000,4144.3639,N,06959.5251,W,2,10,1.07,6.9,M,-34.3,M,0000,0000*55 
194.165         GPS_NMEA_FROM_GPS    iGPS            $GPGGA,203003.000,4144.3640,N,06959.5253,W,2,10,1.14,6.9,M,-34.3,M,0000,0000*5A 
195.268         GPS_NMEA_FROM_GPS    iGPS            $GPRMC,203004.000,A,4144.3641,N,06959.5256,W,0.63,296.25,310321,,,D*73 
196.170         GPS_NMEA_FROM_GPS    iGPS            $GPGGA,203005.000,4144.3641,N,06959.5258,W,2,10,1.07,6.9,M,-34.3,M,0000,0000*54 
197.273         GPS_NMEA_FROM_GPS    iGPS            $GPRMC,203006.000,A,4144.3642,N,06959.5260,W,0.75,294.83,310321,,,D*7E 
198.276         GPS_NMEA_FROM_GPS    iGPS            $GPGGA,203007.000,4144.3643,N,06959.5263,W,2,10,1.07,6.8,M,-34.3,M,0000,0000*5D 
199.178         GPS_NMEA_FROM_GPS    iGPS            $GPGGA,203008.000,4144.3644,N,06959.5265,W,2,10,1.07,6.8,M,-34.3,M,0000,0000*53 
200.181         GPS_NMEA_FROM_GPS    iGPS            $GPGGA,203009.000,4144.3644,N,06959.5268,W,2,10,1.07,6.8,M,-34.3,M,0000,0000*5F 
201.283         GPS_NMEA_FROM_GPS    iGPS            $GPGGA,203010.000,4144.3645,N,06959.5271,W,2,10,1.07,6.7,M,-34.3,M,0000,0000*51 
202.186         GPS_NMEA_FROM_GPS    iGPS            $GPGGA,203011.000,4144.3646,N,06959.5273,W,2,10,1.07,6.7,M,-34.3,M,0000,0000*51 
203.188         GPS_NMEA_FROM_GPS    iGPS            $GPGGA,203012.000,4144.3647,N,06959.5275,W,2,10,1.07,6.7,M,-34.3,M,0000,0000*55 
204.191         GPS_NMEA_FROM_GPS    iGPS            $GPGGA,203013.000,4144.3648,N,06959.5278,W,2,10,1.14,6.7,M,-34.3,M,0000,0000*54 
205.194         GPS_NMEA_FROM_GPS    iGPS            $GPGGA,203014.000,4144.3648,N,06959.5280,W,2,10,1.14,6.7,M,-34.3,M,0000,0000*54 
206.297         GPS_NMEA_FROM_GPS    iGPS            $GPRMC,203015.000,A,4144.3649,N,06959.5282,W,0.55,286.88,310321,,,D*71 
207.199         GPS_NMEA_FROM_GPS    iGPS            $GPGGA,203016.000,4144.3649,N,06959.5284,W,2,10,1.14,6.7,M,-34.3,M,0000,0000*53 
208.201         GPS_NMEA_FROM_GPS    iGPS            $GPGGA,203017.000,4144.3649,N,06959.5286,W,2,10,1.14,6.7,M,-34.3,M,0000,0000*50 
209.204         GPS_NMEA_FROM_GPS    iGPS            $GPGGA,203018.000,4144.3649,N,06959.5288,W,2,10,1.14,6.8,M,-34.3,M,0000,0000*5E 
210.207         GPS_NMEA_FROM_GPS    iGPS            $GPGGA,203019.000,4144.3649,N,06959.5289,W,2,10,1.14,6.8,M,-34.3,M,0000,0000*5E 
211.209         GPS_NMEA_FROM_GPS    iGPS            $GPGGA,203020.000,4144.3648,N,06959.5291,W,2,10,1.14,6.8,M,-34.3,M,0000,0000*5C 
212.212         GPS_NMEA_FROM_GPS    iGPS            $GPGGA,203021.000,4144.3648,N,06959.5292,W,2,10,1.14,6.8,M,-34.3,M,0000,0000*5E 
213.214         GPS_NMEA_FROM_GPS    iGPS            $GPGGA,203022.000,4144.3647,N,06959.5294,W,2,10,1.14,6.9,M,-34.3,M,0000,0000*55 
214.218         GPS_NMEA_FROM_GPS    iGPS            $GPRMC,203023.000,A,4144.3646,N,06959.5295,W,0.42,237.40,310321,,,D*75 
215.219         GPS_NMEA_FROM_GPS    iGPS            $GPGGA,203024.000,4144.3645,N,06959.5295,W,2,10,1.14,6.9,M,-34.3,M,0000,0000*50 
216.222         GPS_NMEA_FROM_GPS    iGPS            $GPGGA,203025.000,4144.3644,N,06959.5296,W,2,10,1.14,6.9,M,-34.3,M,0000,0000*53 
217.224         GPS_NMEA_FROM_GPS    iGPS            $GPRMC,203026.000,A,4144.3642,N,06959.5297,W,0.56,212.77,310321,,,D*70 
218.227         GPS_NMEA_FROM_GPS    iGPS            $GPGGA,203027.000,4144.3641,N,06959.5297,W,2,10,1.14,6.9,M,-34.3,M,0000,0000*55 
219.229         GPS_NMEA_FROM_GPS    iGPS            $GPGGA,203028.000,4144.3639,N,06959.5299,W,2,10,1.14,6.8,M,-34.3,M,0000,0000*5A 
220.232         GPS_NMEA_FROM_GPS    iGPS            $GPRMC,203029.000,A,4144.3637,N,06959.5301,W,0.62,204.67,310321,,,D*72 
221.134         GPS_NMEA_FROM_GPS    iGPS            $GPGGA,203030.000,4144.3635,N,06959.5303,W,2,10,1.07,6.8,M,-34.3,M,0000,0000*5F 
222.237         GPS_NMEA_FROM_GPS    iGPS            $GPGGA,203031.000,4144.3633,N,06959.5305,W,2,10,1.07,6.8,M,-34.3,M,0000,0000*5E 
223.138         GPS_NMEA_FROM_GPS    iGPS            $GPGGA,203032.000,4144.3632,N,06959.5307,W,2,10,1.07,6.8,M,-34.3,M,0000,0000*5E 
224.141         GPS_NMEA_FROM_GPS    iGPS            $GPGGA,203033.000,4144.3630,N,06959.5309,W,2,10,1.07,6.8,M,-34.3,M,0000,0000*53 
225.243         GPS_NMEA_FROM_GPS    iGPS            $GPGGA,203034.000,4144.3628,N,06959.5312,W,2,10,1.07,6.8,M,-34.3,M,0000,0000*57 
226.245         GPS_NMEA_FROM_GPS    iGPS            $GPGGA,203035.000,4144.3627,N,06959.5314,W,2,10,1.07,6.7,M,-34.3,M,0000,0000*50 
227.247         GPS_NMEA_FROM_GPS    iGPS            $GPGGA,203036.000,4144.3626,N,06959.5317,W,2,10,1.07,6.7,M,-34.3,M,0000,0000*51 
228.249         GPS_NMEA_FROM_GPS    iGPS            $GPRMC,203037.000,A,4144.3624,N,06959.5319,W,0.59,224.52,310321,,,D*7A 
229.151         GPS_NMEA_FROM_GPS    iGPS            $GPGGA,203038.000,4144.3623,N,06959.5321,W,2,10,1.07,6.8,M,-34.3,M,0000,0000*50 
230.254         GPS_NMEA_FROM_GPS    iGPS            $GPGGA,203039.000,4144.3621,N,06959.5324,W,2,10,1.07,6.8,M,-34.3,M,0000,0000*56 
231.257         GPS_NMEA_FROM_GPS    iGPS            $GPRMC,203040.000,A,4144.3620,N,06959.5326,W,0.65,220.20,310321,,,D*7C 
232.259         GPS_NMEA_FROM_GPS    iGPS            $GPGGA,203041.000,4144.3618,N,06959.5328,W,2,10,1.07,6.9,M,-34.3,M,0000,0000*5E 
233.162         GPS_NMEA_FROM_GPS    iGPS            $GPGGA,203042.000,4144.3616,N,06959.5329,W,2,10,1.07,6.9,M,-34.3,M,0000,0000*52 
234.264         GPS_NMEA_FROM_GPS    iGPS            $GPGGA,203043.000,4144.3614,N,06959.5331,W,2,10,1.07,6.9,M,-34.3,M,0000,0000*58 
235.268         GPS_NMEA_FROM_GPS    iGPS            $GPRMC,203044.000,A,4144.3612,N,06959.5332,W,0.70,209.01,310321,,,D*70 
236.271         GPS_NMEA_FROM_GPS    iGPS            $GPRMC,203045.000,A,4144.3610,N,06959.5334,W,0.69,207.12,310321,,,D*71 
237.273         GPS_NMEA_FROM_GPS    iGPS            $GPRMC,203046.000,A,4144.3608,N,06959.5335,W,0.65,206.97,310321,,,D*7A 
238.175         GPS_NMEA_FROM_GPS    iGPS            $GPGGA,203047.000,4144.3606,N,06959.5336,W,2,10,1.07,7.0,M,-34.3,M,0000,0000*50 
239.178         GPS_NMEA_FROM_GPS    iGPS            $GPGGA,203048.000,4144.3605,N,06959.5338,W,2,10,1.14,7.0,M,-34.3,M,0000,0000*50 
240.180         GPS_NMEA_FROM_GPS    iGPS            $GPGGA,203049.000,4144.3603,N,06959.5339,W,2,10,1.07,7.1,M,-34.3,M,0000,0000*55 
241.284         GPS_NMEA_FROM_GPS    iGPS            $GPRMC,203050.000,A,4144.3601,N,06959.5341,W,0.70,208.11,310321,,,D*73 
242.186         GPS_NMEA_FROM_GPS    iGPS            $GPGGA,203051.000,4144.3600,N,06959.5342,W,2,10,1.07,7.1,M,-34.3,M,0000,0000*53 
243.188         GPS_NMEA_FROM_GPS    iGPS            $GPGGA,203052.000,4144.3598,N,06959.5344,W,2,10,1.07,7.1,M,-34.3,M,0000,0000*54 
244.191         GPS_NMEA_FROM_GPS    iGPS            $GPRMC,203053.000,A,4144.3596,N,06959.5346,W,0.71,211.41,310321,,,D*76 
245.193         GPS_NMEA_FROM_GPS    iGPS            $GPGGA,203054.000,4144.3595,N,06959.5347,W,2,10,1.07,7.2,M,-34.3,M,0000,0000*5F 
246.297         GPS_NMEA_FROM_GPS    iGPS            $GPRMC,203055.000,A,4144.3594,N,06959.5349,W,0.67,212.85,310321,,,D*71 
247.199         GPS_NMEA_FROM_GPS    iGPS            $GPGGA,203056.000,4144.3592,N,06959.5351,W,2,09,1.18,7.2,M,-34.3,M,0000,0000*5B 
248.201         GPS_NMEA_FROM_GPS    iGPS            $GPGGA,203057.000,4144.3591,N,06959.5352,W,2,10,1.07,7.2,M,-34.3,M,0000,0000*5C 
249.205         GPS_NMEA_FROM_GPS    iGPS            $GPGGA,203058.000,4144.3589,N,06959.5354,W,2,10,1.07,7.2,M,-34.3,M,0000,0000*5C 
250.107         GPS_NMEA_FROM_GPS    iGPS            $GPGGA,203059.000,4144.3587,N,06959.5355,W,2,10,1.07,7.3,M,-34.3,M,0000,0000*53 
251.210         GPS_NMEA_FROM_GPS    iGPS            $GPGGA,203100.000,4144.3585,N,06959.5357,W,2,10,1.07,7.3,M,-34.3,M,0000,0000*5E 
252.213         GPS_NMEA_FROM_GPS    iGPS            $GPRMC,203101.000,A,4144.3583,N,06959.5358,W,0.71,209.24,310321,,,D*71 
253.215         GPS_NMEA_FROM_GPS    iGPS            $GPGGA,203102.000,4144.3581,N,06959.5360,W,2,10,1.07,7.3,M,-34.3,M,0000,0000*5C 
254.217         GPS_NMEA_FROM_GPS    iGPS            $GPGGA,203103.000,4144.3579,N,06959.5361,W,2,10,1.07,7.3,M,-34.3,M,0000,0000*5B 
255.220         GPS_NMEA_FROM_GPS    iGPS            $GPGGA,203104.000,4144.3577,N,06959.5363,W,2,10,1.07,7.3,M,-34.3,M,0000,0000*50 
256.223         GPS_NMEA_FROM_GPS    iGPS            $GPGGA,203105.000,4144.3575,N,06959.5364,W,2,10,1.07,7.4,M,-34.3,M,0000,0000*53 
257.226         GPS_NMEA_FROM_GPS    iGPS            $GPGGA,203106.000,4144.3573,N,06959.5365,W,2,10,1.07,7.4,M,-34.3,M,0000,0000*57 
258.228         GPS_NMEA_FROM_GPS    iGPS            $GPGGA,203107.000,4144.3571,N,06959.5367,W,2,10,1.07,7.3,M,-34.3,M,0000,0000*51 
259.232         GPS_NMEA_FROM_GPS    iGPS            $GPGGA,203108.000,4144.3569,N,06959.5369,W,2,10,1.07,7.3,M,-34.3,M,0000,0000*59 
260.235         GPS_NMEA_FROM_GPS    iGPS            $GPGGA,203109.000,4144.3567,N,06959.5370,W,2,10,1.07,7.3,M,-34.3,M,0000,0000*5E 
261.238         GPS_NMEA_FROM_GPS    iGPS            $GPGGA,203110.000,4144.3566,N,06959.5371,W,2,10,1.07,7.3,M,-34.3,M,0000,0000*56 
262.240         GPS_NMEA_FROM_GPS    iGPS            $GPGGA,203111.000,4144.3564,N,06959.5373,W,2,10,1.07,7.3,M,-34.3,M,0000,0000*57 
263.243         GPS_NMEA_FROM_GPS    iGPS            $GPGGA,203112.000,4144.3562,N,06959.5374,W,2,10,1.07,7.3,M,-34.3,M,0000,0000*55 
264.246         GPS_NMEA_FROM_GPS    iGPS            $GPGGA,203113.000,4144.3560,N,06959.5375,W,2,10,1.07,7.3,M,-34.3,M,0000,0000*57 
265.148         GPS_NMEA_FROM_GPS    iGPS            $GPGGA,203114.000,4144.3558,N,06959.5377,W,2,10,1.07,7.3,M,-34.3,M,0000,0000*59 
266.251         GPS_NMEA_FROM_GPS    iGPS            $GPGGA,203115.000,4144.3556,N,06959.5378,W,2,10,1.07,7.3,M,-34.3,M,0000,0000*59 
267.254         GPS_NMEA_FROM_GPS    iGPS            $GPGGA,203116.000,4144.3554,N,06959.5379,W,2,10,1.07,7.4,M,-34.3,M,0000,0000*5E 
268.256         GPS_NMEA_FROM_GPS    iGPS            $GPRMC,203117.000,A,4144.3552,N,06959.5381,W,0.73,206.48,310321,,,D*79 
269.259         GPS_NMEA_FROM_GPS    iGPS            $GPGGA,203118.000,4144.3550,N,06959.5382,W,2,10,1.07,7.4,M,-34.3,M,0000,0000*50 
270.161         GPS_NMEA_FROM_GPS    iGPS            $GPGGA,203119.000,4144.3548,N,06959.5384,W,2,10,1.07,7.4,M,-34.3,M,0000,0000*5E 
271.164         GPS_NMEA_FROM_GPS    iGPS            $GPGGA,203120.000,4144.3547,N,06959.5385,W,2,10,1.07,7.4,M,-34.3,M,0000,0000*5A 
272.267         GPS_NMEA_FROM_GPS    iGPS            $GPRMC,203121.000,A,4144.3545,N,06959.5387,W,0.75,205.92,310321,,,D*7E 
273.169         GPS_NMEA_FROM_GPS    iGPS            $GPGGA,203122.000,4144.3543,N,06959.5388,W,2,10,1.07,7.5,M,-34.3,M,0000,0000*50 
274.171         GPS_NMEA_FROM_GPS    iGPS            $GPGGA,203123.000,4144.3541,N,06959.5389,W,2,10,1.07,7.5,M,-34.3,M,0000,0000*52 
275.174         GPS_NMEA_FROM_GPS    iGPS            $GPGGA,203124.000,4144.3540,N,06959.5391,W,2,10,1.07,7.5,M,-34.3,M,0000,0000*5D 
276.176         GPS_NMEA_FROM_GPS    iGPS            $GPGGA,203125.000,4144.3538,N,06959.5392,W,2,10,1.07,7.6,M,-34.3,M,0000,0000*53 
277.179         GPS_NMEA_FROM_GPS    iGPS            $GPGGA,203126.000,4144.3536,N,06959.5393,W,2,10,1.07,7.6,M,-34.3,M,0000,0000*5F 
278.182         GPS_NMEA_FROM_GPS    iGPS            $GPRMC,203127.000,A,4144.3534,N,06959.5395,W,0.68,207.93,310321,,,D*72 
279.184         GPS_NMEA_FROM_GPS    iGPS            $GPGGA,203128.000,4144.3532,N,06959.5396,W,2,10,1.07,7.7,M,-34.3,M,0000,0000*51 
280.287         GPS_NMEA_FROM_GPS    iGPS            $GPRMC,203129.000,A,4144.3530,N,06959.5398,W,0.69,207.96,310321,,,D*71 
281.189         GPS_NMEA_FROM_GPS    iGPS            $GPGGA,203130.000,4144.3528,N,06959.5399,W,2,10,1.07,7.7,M,-34.3,M,0000,0000*5C 
282.192         GPS_NMEA_FROM_GPS    iGPS            $GPGGA,203131.000,4144.3526,N,06959.5401,W,2,10,1.07,7.8,M,-34.3,M,0000,0000*5A 
283.194         GPS_NMEA_FROM_GPS    iGPS            $GPGGA,203132.000,4144.3524,N,06959.5402,W,2,11,0.92,7.8,M,-34.3,M,0000,0000*54 
284.197         GPS_NMEA_FROM_GPS    iGPS            $GPGGA,203133.000,4144.3522,N,06959.5403,W,2,10,1.07,7.8,M,-34.3,M,0000,0000*5E 
285.200         GPS_NMEA_FROM_GPS    iGPS            $GPGGA,203134.000,4144.3520,N,06959.5404,W,2,10,1.07,7.8,M,-34.3,M,0000,0000*5C 
286.202         GPS_NMEA_FROM_GPS    iGPS            $GPGGA,203135.000,4144.3518,N,06959.5405,W,2,10,1.07,7.8,M,-34.3,M,0000,0000*57 
287.205         GPS_NMEA_FROM_GPS    iGPS            $GPGGA,203136.000,4144.3516,N,06959.5407,W,2,10,1.07,7.8,M,-34.3,M,0000,0000*58 
288.207         GPS_NMEA_FROM_GPS    iGPS            $GPGGA,203137.000,4144.3514,N,06959.5408,W,2,10,1.07,7.9,M,-34.3,M,0000,0000*55 
289.210         GPS_NMEA_FROM_GPS    iGPS            $GPGGA,203138.000,4144.3512,N,06959.5409,W,2,11,0.92,7.9,M,-34.3,M,0000,0000*51 
290.213         GPS_NMEA_FROM_GPS    iGPS            $GPGGA,203139.000,4144.3510,N,06959.5411,W,2,10,1.07,7.9,M,-34.3,M,0000,0000*57 
291.216         GPS_NMEA_FROM_GPS    iGPS            $GPRMC,203140.000,A,4144.3508,N,06959.5412,W,0.73,203.65,310321,,,D*73 
292.218         GPS_NMEA_FROM_GPS    iGPS            $GPGGA,203141.000,4144.3506,N,06959.5413,W,2,10,1.07,7.9,M,-34.3,M,0000,0000*5D 
293.220         GPS_NMEA_FROM_GPS    iGPS            $GPGGA,203142.000,4144.3504,N,06959.5415,W,2,10,1.07,7.9,M,-34.3,M,0000,0000*5A 
294.223         GPS_NMEA_FROM_GPS    iGPS            $GPRMC,203143.000,A,4144.3502,N,06959.5416,W,0.70,204.28,310321,,,D*73 
295.225         GPS_NMEA_FROM_GPS    iGPS            $GPGGA,203144.000,4144.3500,N,06959.5417,W,2,10,1.07,7.9,M,-34.3,M,0000,0000*5A 
296.228         GPS_NMEA_FROM_GPS    iGPS            $GPGGA,203145.000,4144.3498,N,06959.5418,W,2,10,1.07,7.9,M,-34.3,M,0000,0000*54 
297.230         GPS_NMEA_FROM_GPS    iGPS            $GPGGA,203146.000,4144.3496,N,06959.5419,W,2,10,1.07,7.9,M,-34.3,M,0000,0000*58 
298.232         GPS_NMEA_FROM_GPS    iGPS            $GPGGA,203147.000,4144.3495,N,06959.5420,W,2,10,1.07,7.9,M,-34.3,M,0000,0000*50 
299.135         GPS_NMEA_FROM_GPS    iGPS            $GPGGA,203148.000,4144.3493,N,06959.5422,W,2,10,1.07,7.9,M,-34.3,M,0000,0000*5B 
300.239         GPS_NMEA_FROM_GPS    iGPS            $GPRMC,203149.000,A,4144.3491,N,06959.5423,W,0.70,208.52,310321,,,D*75 
301.241         GPS_NMEA_FROM_GPS    iGPS            $GPGGA,203150.000,4144.3490,N,06959.5424,W,2,10,1.07,8.0,M,-34.3,M,0000,0000*51 
302.144         GPS_NMEA_FROM_GPS    iGPS            $GPGGA,203151.000,4144.3488,N,06959.5426,W,2,10,1.07,8.0,M,-34.3,M,0000,0000*5B 
303.247         GPS_NMEA_FROM_GPS    iGPS            $GPRMC,203152.000,A,4144.3486,N,06959.5427,W,0.69,210.08,310321,,,D*73 
304.149         GPS_NMEA_FROM_GPS    iGPS            $GPGGA,203153.000,4144.3485,N,06959.5428,W,2,10,1.07,8.0,M,-34.3,M,0000,0000*5A 
305.151         GPS_NMEA_FROM_GPS    iGPS            $GPGGA,203154.000,4144.3483,N,06959.5429,W,2,10,1.07,8.0,M,-34.3,M,0000,0000*5A 
306.254         GPS_NMEA_FROM_GPS    iGPS            $GPGGA,203155.000,4144.3482,N,06959.5431,W,2,10,1.07,8.0,M,-34.3,M,0000,0000*53 
307.157         GPS_NMEA_FROM_GPS    iGPS            $GPGGA,203156.000,4144.3480,N,06959.5432,W,2,10,1.14,8.0,M,-34.3,M,0000,0000*53 
308.260         GPS_NMEA_FROM_GPS    iGPS            $GPRMC,203157.000,A,4144.3479,N,06959.5433,W,0.61,209.97,310321,,,D*75 
309.263         GPS_NMEA_FROM_GPS    iGPS            $GPRMC,203158.000,A,4144.3477,N,06959.5434,W,0.72,208.43,310321,,,D*79 
310.265         GPS_NMEA_FROM_GPS    iGPS            $GPRMC,203159.000,A,4144.3474,N,06959.5435,W,0.74,206.84,310321,,,D*79 
311.267         GPS_NMEA_FROM_GPS    iGPS            $GPRMC,203200.000,A,4144.3472,N,06959.5435,W,0.81,204.93,310321,,,D*7E 
312.169         GPS_NMEA_FROM_GPS    iGPS            $GPGGA,203201.000,4144.3470,N,06959.5436,W,2,10,1.07,8.1,M,-34.3,M,0000,0000*5A 
313.172         GPS_NMEA_FROM_GPS    iGPS            $GPGGA,203202.000,4144.3468,N,06959.5437,W,2,10,1.07,8.1,M,-34.3,M,0000,0000*51 
314.175         GPS_NMEA_FROM_GPS    iGPS            $GPGGA,203203.000,4144.3466,N,06959.5438,W,2,10,1.07,8.2,M,-34.3,M,0000,0000*52 
315.177         GPS_NMEA_FROM_GPS    iGPS            $GPRMC,203204.000,A,4144.3464,N,06959.5440,W,0.72,205.72,310321,,,D*7D 
316.180         GPS_NMEA_FROM_GPS    iGPS            $GPRMC,203205.000,A,4144.3463,N,06959.5441,W,0.73,207.09,310321,,,D*75 
317.183         GPS_NMEA_FROM_GPS    iGPS            $GPGGA,203206.000,4144.3461,N,06959.5442,W,2,10,1.07,8.3,M,-34.3,M,0000,0000*5C 
318.185         GPS_NMEA_FROM_GPS    iGPS            $GPGGA,203207.000,4144.3459,N,06959.5444,W,2,10,1.07,8.4,M,-34.3,M,0000,0000*57 
319.188         GPS_NMEA_FROM_GPS    iGPS            $GPGGA,203208.000,4144.3458,N,06959.5445,W,2,10,1.07,8.4,M,-34.3,M,0000,0000*58 
320.190         GPS_NMEA_FROM_GPS    iGPS            $GPGGA,203209.000,4144.3456,N,06959.5446,W,2,10,1.07,8.5,M,-34.3,M,0000,0000*55 
321.193         GPS_NMEA_FROM_GPS    iGPS            $GPGGA,203210.000,4144.3454,N,06959.5448,W,2,10,1.14,8.6,M,-34.3,M,0000,0000*50 
322.196         GPS_NMEA_FROM_GPS    iGPS            $GPGGA,203211.000,4144.3453,N,06959.5449,W,2,09,1.18,8.6,M,-34.3,M,0000,0000*53 
323.199         GPS_NMEA_FROM_GPS    iGPS            $GPRMC,203212.000,A,4144.3451,N,06959.5451,W,0.68,215.21,310321,,,D*70 
324.201         GPS_NMEA_FROM_GPS    iGPS            $GPGGA,203213.000,4144.3450,N,06959.5452,W,2,10,1.07,8.7,M,-34.3,M,0000,0000*5F 
325.204         GPS_NMEA_FROM_GPS    iGPS            $GPGGA,203214.000,4144.3448,N,06959.5453,W,2,10,1.07,8.7,M,-34.3,M,0000,0000*50 
326.207         GPS_NMEA_FROM_GPS    iGPS            $GPGGA,203215.000,4144.3447,N,06959.5455,W,2,10,1.07,8.7,M,-34.3,M,0000,0000*58 
327.209         GPS_NMEA_FROM_GPS    iGPS            $GPGGA,203216.000,4144.3445,N,06959.5456,W,2,10,1.07,8.8,M,-34.3,M,0000,0000*55 
328.212         GPS_NMEA_FROM_GPS    iGPS            $GPGGA,203217.000,4144.3443,N,06959.5458,W,2,10,1.07,8.8,M,-34.3,M,0000,0000*5C 
329.215         GPS_NMEA_FROM_GPS    iGPS            $GPGGA,203218.000,4144.3441,N,06959.5459,W,2,10,1.14,8.8,M,-34.3,M,0000,0000*52 
330.218         GPS_NMEA_FROM_GPS    iGPS            $GPGGA,203219.000,4144.3439,N,06959.5460,W,2,10,1.14,8.8,M,-34.3,M,0000,0000*56 
331.220         GPS_NMEA_FROM_GPS    iGPS            $GPGGA,203220.000,4144.3436,N,06959.5461,W,2,10,1.14,8.9,M,-34.3,M,0000,0000*53 
332.223         GPS_NMEA_FROM_GPS    iGPS            $GPRMC,203221.000,A,4144.3434,N,06959.5463,W,0.83,205.51,310321,,,D*71 
333.225         GPS_NMEA_FROM_GPS    iGPS            $GPGGA,203222.000,4144.3431,N,06959.5464,W,2,10,1.14,8.9,M,-34.3,M,0000,0000*53 
334.228         GPS_NMEA_FROM_GPS    iGPS            $GPGGA,203223.000,4144.3430,N,06959.5465,W,2,10,1.14,8.9,M,-34.3,M,0000,0000*52 
335.231         GPS_NMEA_FROM_GPS    iGPS            $GPGGA,203224.000,4144.3428,N,06959.5466,W,2,10,1.07,8.9,M,-34.3,M,0000,0000*5D 
336.234         GPS_NMEA_FROM_GPS    iGPS            $GPGGA,203225.000,4144.3426,N,06959.5467,W,2,10,1.07,8.9,M,-34.3,M,0000,0000*53 
337.237         GPS_NMEA_FROM_GPS    iGPS            $GPRMC,203226.000,A,4144.3424,N,06959.5468,W,0.73,203.41,310321,,,D*74 
338.239         GPS_NMEA_FROM_GPS    iGPS            $GPRMC,203227.000,A,4144.3422,N,06959.5470,W,0.73,205.48,310321,,,D*75 
339.242         GPS_NMEA_FROM_GPS    iGPS            $GPGGA,203228.000,4144.3421,N,06959.5471,W,2,10,1.07,9.0,M,-34.3,M,0000,0000*56 
340.244         GPS_NMEA_FROM_GPS    iGPS            $GPGGA,203229.000,4144.3419,N,06959.5473,W,2,10,1.14,9.0,M,-34.3,M,0000,0000*5C 
341.147         GPS_NMEA_FROM_GPS    iGPS            $GPGGA,203230.000,4144.3418,N,06959.5475,W,2,10,1.07,9.0,M,-34.3,M,0000,0000*51 
342.250         GPS_NMEA_FROM_GPS    iGPS            $GPGGA,203231.000,4144.3417,N,06959.5476,W,2,10,1.07,9.1,M,-34.3,M,0000,0000*5D 
343.253         GPS_NMEA_FROM_GPS    iGPS            $GPRMC,203232.000,A,4144.3415,N,06959.5478,W,0.58,218.12,310321,,,D*77 
344.155         GPS_NMEA_FROM_GPS    iGPS            $GPGGA,203233.000,4144.3414,N,06959.5479,W,2,10,1.14,9.1,M,-34.3,M,0000,0000*51 
345.157         GPS_NMEA_FROM_GPS    iGPS            $GPGGA,203234.000,4144.3413,N,06959.5481,W,2,10,1.07,9.1,M,-34.3,M,0000,0000*54 
346.260         GPS_NMEA_FROM_GPS    iGPS            $GPGGA,203235.000,4144.3412,N,06959.5483,W,2,10,1.07,9.1,M,-34.3,M,0000,0000*56 
347.162         GPS_NMEA_FROM_GPS    iGPS            $GPGGA,203236.000,4144.3410,N,06959.5484,W,2,10,1.14,9.1,M,-34.3,M,0000,0000*52 
348.265         GPS_NMEA_FROM_GPS    iGPS            $GPGGA,203237.000,4144.3408,N,06959.5485,W,2,10,1.14,9.1,M,-34.3,M,0000,0000*5B 
349.168         GPS_NMEA_FROM_GPS    iGPS            $GPGGA,203238.000,4144.3406,N,06959.5486,W,2,10,1.14,9.1,M,-34.3,M,0000,0000*59 
350.171         GPS_NMEA_FROM_GPS    iGPS            $GPRMC,203239.000,A,4144.3404,N,06959.5487,W,0.71,209.85,310321,,,D*79 
351.173         GPS_NMEA_FROM_GPS    iGPS            $GPGGA,203240.000,4144.3401,N,06959.5488,W,2,10,1.14,9.2,M,-34.3,M,0000,0000*5C 
352.176         GPS_NMEA_FROM_GPS    iGPS            $GPGGA,203241.000,4144.3399,N,06959.5489,W,2,10,1.14,9.2,M,-34.3,M,0000,0000*5A 
353.179         GPS_NMEA_FROM_GPS    iGPS            $GPGGA,203242.000,4144.3397,N,06959.5490,W,2,10,1.07,9.2,M,-34.3,M,0000,0000*5D 
354.181         GPS_NMEA_FROM_GPS    iGPS            $GPGGA,203243.000,4144.3395,N,06959.5490,W,2,10,1.07,9.2,M,-34.3,M,0000,0000*5E 
355.184         GPS_NMEA_FROM_GPS    iGPS            $GPGGA,203244.000,4144.3393,N,06959.5491,W,2,10,1.14,9.2,M,-34.3,M,0000,0000*5C 
356.287         GPS_NMEA_FROM_GPS    iGPS            $GPRMC,203245.000,A,4144.3391,N,06959.5492,W,0.65,199.88,310321,,,D*7F 
357.289         GPS_NMEA_FROM_GPS    iGPS            $GPRMC,203246.000,A,4144.3390,N,06959.5493,W,0.65,200.59,310321,,,D*73 
358.191         GPS_NMEA_FROM_GPS    iGPS            $GPGGA,203247.000,4144.3388,N,06959.5494,W,2,10,1.14,9.2,M,-34.3,M,0000,0000*50 
359.194         GPS_NMEA_FROM_GPS    iGPS            $GPGGA,203248.000,4144.3386,N,06959.5495,W,2,10,1.07,9.2,M,-34.3,M,0000,0000*52 
360.196         GPS_NMEA_FROM_GPS    iGPS            $GPGGA,203249.000,4144.3385,N,06959.5496,W,2,10,1.07,9.2,M,-34.3,M,0000,0000*53 
361.199         GPS_NMEA_FROM_GPS    iGPS            $GPGGA,203250.000,4144.3383,N,06959.5497,W,2,10,1.07,9.2,M,-34.3,M,0000,0000*5C 
362.202         GPS_NMEA_FROM_GPS    iGPS            $GPGGA,203251.000,4144.3381,N,06959.5499,W,2,10,1.07,9.3,M,-34.3,M,0000,0000*50 
363.204         GPS_NMEA_FROM_GPS    iGPS            $GPGGA,203252.000,4144.3379,N,06959.5500,W,2,10,1.07,9.3,M,-34.3,M,0000,0000*55 
364.207         GPS_NMEA_FROM_GPS    iGPS            $GPGGA,203253.000,4144.3378,N,06959.5501,W,2,10,1.07,9.4,M,-34.3,M,0000,0000*53 
365.209         GPS_NMEA_FROM_GPS    iGPS            $GPGGA,203254.000,4144.3376,N,06959.5503,W,2,09,1.26,9.4,M,-34.3,M,0000,0000*53 
366.212         GPS_NMEA_FROM_GPS    iGPS            $GPGGA,203255.000,4144.3375,N,06959.5504,W,2,10,1.07,9.5,M,-34.3,M,0000,0000*5C 
367.215         GPS_NMEA_FROM_GPS    iGPS            $GPGGA,203256.000,4144.3374,N,06959.5505,W,2,10,1.07,9.5,M,-34.3,M,0000,0000*5F 
368.217         GPS_NMEA_FROM_GPS    iGPS            $GPGGA,203257.000,4144.3372,N,06959.5507,W,2,10,1.14,9.6,M,-34.3,M,0000,0000*5B 
369.220         GPS_NMEA_FROM_GPS    iGPS            $GPGGA,203258.000,4144.3371,N,06959.5508,W,2,10,1.07,9.6,M,-34.3,M,0000,0000*5A 
370.222         GPS_NMEA_FROM_GPS    iGPS            $GPGGA,203259.000,4144.3370,N,06959.5509,W,2,10,1.07,9.6,M,-34.3,M,0000,0000*5B 
371.225         GPS_NMEA_FROM_GPS    iGPS            $GPGGA,203300.000,4144.3370,N,06959.5511,W,2,10,1.14,9.7,M,-34.3,M,0000,0000*5C 
372.228         GPS_NMEA_FROM_GPS    iGPS            $GPRMC,203301.000,A,4144.3370,N,06959.5513,W,0.60,226.12,310321,,,D*78 
373.230         GPS_NMEA_FROM_GPS    iGPS            $GPGGA,203302.000,4144.3370,N,06959.5515,W,2,10,1.14,9.7,M,-34.3,M,0000,0000*5A 
374.132         GPS_NMEA_FROM_GPS    iGPS            $GPGGA,203303.000,4144.3370,N,06959.5517,W,2,10,1.14,9.7,M,-34.3,M,0000,0000*59 
375.135         GPS_NMEA_FROM_GPS    iGPS            $GPGGA,203304.000,4144.3370,N,06959.5518,W,2,10,1.14,9.6,M,-34.3,M,0000,0000*50 
376.238         GPS_NMEA_FROM_GPS    iGPS            $GPGGA,203305.000,4144.3371,N,06959.5520,W,2,10,1.14,9.6,M,-34.3,M,0000,0000*5B 
377.241         GPS_NMEA_FROM_GPS    iGPS            $GPGGA,203306.000,4144.3372,N,06959.5522,W,2,10,1.07,9.6,M,-34.3,M,0000,0000*5B 
378.243         GPS_NMEA_FROM_GPS    iGPS            $GPGGA,203307.000,4144.3373,N,06959.5524,W,2,10,1.07,9.6,M,-34.3,M,0000,0000*5D 
379.146         GPS_NMEA_FROM_GPS    iGPS            $GPGGA,203308.000,4144.3374,N,06959.5526,W,2,10,1.14,9.6,M,-34.3,M,0000,0000*55 
380.149         GPS_NMEA_FROM_GPS    iGPS            $GPGGA,203309.000,4144.3375,N,06959.5528,W,2,10,1.07,9.6,M,-34.3,M,0000,0000*59 
381.251         GPS_NMEA_FROM_GPS    iGPS            $GPGGA,203310.000,4144.3376,N,06959.5530,W,2,10,1.07,9.5,M,-34.3,M,0000,0000*58 
382.254         GPS_NMEA_FROM_GPS    iGPS            $GPGGA,203311.000,4144.3377,N,06959.5532,W,2,10,1.07,9.5,M,-34.3,M,0000,0000*5A 
383.257         GPS_NMEA_FROM_GPS    iGPS            $GPRMC,203312.000,A,4144.3377,N,06959.5534,W,0.61,269.90,310321,,,D*78 
384.159         GPS_NMEA_FROM_GPS    iGPS            $GPGGA,203313.000,4144.3378,N,06959.5536,W,2,10,1.14,9.4,M,-34.3,M,0000,0000*50 
385.263         GPS_NMEA_FROM_GPS    iGPS            $GPRMC,203314.000,A,4144.3379,N,06959.5538,W,0.68,269.24,310321,,,D*7A 
386.265         GPS_NMEA_FROM_GPS    iGPS            $GPRMC,203315.000,A,4144.3379,N,06959.5540,W,0.71,268.86,310321,,,D*75 
387.167         GPS_NMEA_FROM_GPS    iGPS            $GPGGA,203316.000,4144.3379,N,06959.5542,W,2,10,1.07,9.2,M,-34.3,M,0000,0000*53 
388.270         GPS_NMEA_FROM_GPS    iGPS            $GPRMC,203317.000,A,4144.3380,N,06959.5545,W,0.77,270.25,310321,,,D*72 
389.172         GPS_NMEA_FROM_GPS    iGPS            $GPGGA,203318.000,4144.3380,N,06959.5548,W,2,10,1.14,9.3,M,-34.3,M,0000,0000*52 
390.175         GPS_NMEA_FROM_GPS    iGPS            $GPGGA,203319.000,4144.3381,N,06959.5550,W,2,10,1.07,9.4,M,-34.3,M,0000,0000*5E 
391.278         GPS_NMEA_FROM_GPS    iGPS            $GPRMC,203320.000,A,4144.3381,N,06959.5553,W,0.78,273.28,310321,,,D*71 
392.281         GPS_NMEA_FROM_GPS    iGPS            $GPRMC,203321.000,A,4144.3382,N,06959.5555,W,0.77,274.18,310321,,,D*7E 
393.183         GPS_NMEA_FROM_GPS    iGPS            $GPGGA,203322.000,4144.3383,N,06959.5557,W,2,10,1.07,9.6,M,-34.3,M,0000,0000*51 
394.286         GPS_NMEA_FROM_GPS    iGPS            $GPRMC,203323.000,A,4144.3383,N,06959.5560,W,0.72,273.04,310321,,,D*74 
395.188         GPS_NMEA_FROM_GPS    iGPS            $GPGGA,203324.000,4144.3384,N,06959.5562,W,2,10,1.07,9.5,M,-34.3,M,0000,0000*55 
396.190         GPS_NMEA_FROM_GPS    iGPS            $GPGGA,203325.000,4144.3385,N,06959.5564,W,2,10,1.07,9.4,M,-34.3,M,0000,0000*52 
397.293         GPS_NMEA_FROM_GPS    iGPS            $GPRMC,203326.000,A,4144.3385,N,06959.5566,W,0.72,276.53,310321,,,D*76 
398.196         GPS_NMEA_FROM_GPS    iGPS            $GPGGA,203327.000,4144.3386,N,06959.5568,W,2,10,1.07,9.2,M,-34.3,M,0000,0000*59 
399.198         GPS_NMEA_FROM_GPS    iGPS            $GPGGA,203328.000,4144.3387,N,06959.5570,W,2,10,1.07,9.1,M,-34.3,M,0000,0000*5D 
400.201         GPS_NMEA_FROM_GPS    iGPS            $GPGGA,203329.000,4144.3387,N,06959.5572,W,2,10,1.07,9.1,M,-34.3,M,0000,0000*5E 
401.203         GPS_NMEA_FROM_GPS    iGPS            $GPGGA,203330.000,4144.3388,N,06959.5574,W,2,10,1.07,9.0,M,-34.3,M,0000,0000*5E 
402.306         GPS_NMEA_FROM_GPS    iGPS            $GPRMC,203331.000,A,4144.3388,N,06959.5575,W,0.68,286.55,310321,,,D*7D 
403.208         GPS_NMEA_FROM_GPS    iGPS            $GPGGA,203332.000,4144.3389,N,06959.5577,W,2,10,1.07,9.1,M,-34.3,M,0000,0000*5F 
404.211         GPS_NMEA_FROM_GPS    iGPS            $GPGGA,203333.000,4144.3390,N,06959.5578,W,2,10,1.07,9.1,M,-34.3,M,0000,0000*59 
405.214         GPS_NMEA_FROM_GPS    iGPS            $GPGGA,203334.000,4144.3390,N,06959.5580,W,2,10,1.14,9.1,M,-34.3,M,0000,0000*5B 
406.216         GPS_NMEA_FROM_GPS    iGPS            $GPGGA,203335.000,4144.3391,N,06959.5582,W,2,10,1.07,9.1,M,-34.3,M,0000,0000*5B 
407.219         GPS_NMEA_FROM_GPS    iGPS            $GPGGA,203336.000,4144.3392,N,06959.5584,W,2,10,1.07,9.1,M,-34.3,M,0000,0000*5D 
408.221         GPS_NMEA_FROM_GPS    iGPS            $GPGGA,203337.000,4144.3393,N,06959.5587,W,2,10,1.07,9.1,M,-34.3,M,0000,0000*5E 
409.224         GPS_NMEA_FROM_GPS    iGPS            $GPGGA,203338.000,4144.3395,N,06959.5589,W,2,10,1.07,9.0,M,-34.3,M,0000,0000*58 
410.227         GPS_NMEA_FROM_GPS    iGPS            $GPRMC,203339.000,A,4144.3396,N,06959.5591,W,0.71,287.66,310321,,,D*79 
411.229         GPS_NMEA_FROM_GPS    iGPS            $GPRMC,203340.000,A,4144.3397,N,06959.5594,W,0.76,287.57,310321,,,D*76 
412.231         GPS_NMEA_FROM_GPS    iGPS            $GPGGA,203341.000,4144.3398,N,06959.5596,W,2,10,1.07,8.9,M,-34.3,M,0000,0000*5D 
413.234         GPS_NMEA_FROM_GPS    iGPS            $GPGGA,203342.000,4144.3399,N,06959.5598,W,2,10,1.07,8.9,M,-34.3,M,0000,0000*51 
414.237         GPS_NMEA_FROM_GPS    iGPS            $GPRMC,203343.000,A,4144.3400,N,06959.5601,W,0.73,285.91,310321,,,D*7E 
415.239         GPS_NMEA_FROM_GPS    iGPS            $GPGGA,203344.000,4144.3401,N,06959.5603,W,2,10,1.07,9.0,M,-34.3,M,0000,0000*58 
416.242         GPS_NMEA_FROM_GPS    iGPS            $GPRMC,203345.000,A,4144.3401,N,06959.5606,W,0.72,283.58,310321,,,D*7C 
417.144         GPS_NMEA_FROM_GPS    iGPS            $GPGGA,203346.000,4144.3402,N,06959.5609,W,2,10,1.07,9.1,M,-34.3,M,0000,0000*52 
418.247         GPS_NMEA_FROM_GPS    iGPS            $GPGGA,203347.000,4144.3402,N,06959.5611,W,2,10,1.07,9.1,M,-34.3,M,0000,0000*5A 
419.249         GPS_NMEA_FROM_GPS    iGPS            $GPGGA,203348.000,4144.3403,N,06959.5614,W,2,10,1.07,9.1,M,-34.3,M,0000,0000*51 
420.252         GPS_NMEA_FROM_GPS    iGPS            $GPGGA,203349.000,4144.3404,N,06959.5617,W,2,10,1.07,9.0,M,-34.3,M,0000,0000*55 
421.155         GPS_NMEA_FROM_GPS    iGPS            $GPGGA,203350.000,4144.3404,N,06959.5619,W,2,10,1.07,9.0,M,-34.3,M,0000,0000*53 
422.157         GPS_NMEA_FROM_GPS    iGPS            $GPGGA,203351.000,4144.3405,N,06959.5622,W,2,10,1.07,8.9,M,-34.3,M,0000,0000*53 
423.260         GPS_NMEA_FROM_GPS    iGPS            $GPGGA,203352.000,4144.3406,N,06959.5625,W,2,10,1.07,8.9,M,-34.3,M,0000,0000*54 
424.263         GPS_NMEA_FROM_GPS    iGPS            $GPGGA,203353.000,4144.3407,N,06959.5628,W,2,10,1.07,8.9,M,-34.3,M,0000,0000*59 
425.266         GPS_NMEA_FROM_GPS    iGPS            $GPGGA,203354.000,4144.3408,N,06959.5631,W,2,10,1.07,8.9,M,-34.3,M,0000,0000*59 
426.168         GPS_NMEA_FROM_GPS    iGPS            $GPGGA,203355.000,4144.3408,N,06959.5633,W,2,10,1.14,8.9,M,-34.3,M,0000,0000*58 
427.271         GPS_NMEA_FROM_GPS    iGPS            $GPGGA,203356.000,4144.3409,N,06959.5635,W,2,10,1.07,9.0,M,-34.3,M,0000,0000*56 
428.274         GPS_NMEA_FROM_GPS    iGPS            $GPRMC,203357.000,A,4144.3410,N,06959.5637,W,0.58,285.10,310321,,,D*7F 
429.176         GPS_NMEA_FROM_GPS    iGPS            $GPGGA,203358.000,4144.3411,N,06959.5639,W,2,10,1.14,9.0,M,-34.3,M,0000,0000*5F 
430.278         GPS_NMEA_FROM_GPS    iGPS            $GPRMC,203359.000,A,4144.3412,N,06959.5641,W,0.50,288.06,310321,,,D*70 
431.180         GPS_NMEA_FROM_GPS    iGPS            $GPGGA,203400.000,4144.3413,N,06959.5643,W,2,10,1.14,8.9,M,-34.3,M,0000,0000*52 
432.182         GPS_NMEA_FROM_GPS    iGPS            $GPGGA,203401.000,4144.3414,N,06959.5644,W,2,10,1.14,8.7,M,-34.3,M,0000,0000*5D 
433.185         GPS_NMEA_FROM_GPS    iGPS            $GPGGA,203402.000,4144.3415,N,06959.5645,W,2,10,1.07,8.8,M,-34.3,M,0000,0000*53 
434.290         GPS_NMEA_FROM_GPS    iGPS            $GPRMC,203403.000,A,4144.3416,N,06959.5646,W,0.62,318.27,310321,,,D*71 
435.194         GPS_NMEA_FROM_GPS    iGPS            $GPGGA,203404.000,4144.3418,N,06959.5645,W,2,10,1.14,8.6,M,-34.3,M,0000,0000*54 
436.299         GPS_NMEA_FROM_GPS    iGPS            $GPRMC,203405.000,A,4144.3419,N,06959.5645,W,0.57,335.48,310321,,,D*7B 
437.202         GPS_NMEA_FROM_GPS    iGPS            $GPGGA,203406.000,4144.3420,N,06959.5645,W,2,10,1.14,8.6,M,-34.3,M,0000,0000*5D 
438.206         GPS_NMEA_FROM_GPS    iGPS            $GPGGA,203407.000,4144.3421,N,06959.5644,W,2,10,1.14,8.6,M,-34.3,M,0000,0000*5C 
439.208         GPS_NMEA_FROM_GPS    iGPS            $GPGGA,203408.000,4144.3422,N,06959.5644,W,2,10,1.14,8.6,M,-34.3,M,0000,0000*50 
440.210         GPS_NMEA_FROM_GPS    iGPS            $GPGGA,203409.000,4144.3423,N,06959.5643,W,2,10,1.14,8.7,M,-34.3,M,0000,0000*56 
441.213         GPS_NMEA_FROM_GPS    iGPS            $GPGGA,203410.000,4144.3425,N,06959.5642,W,2,10,1.14,8.6,M,-34.3,M,0000,0000*58 
442.216         GPS_NMEA_FROM_GPS    iGPS            $GPRMC,203411.000,A,4144.3426,N,06959.5641,W,0.60,10.28,310321,,,D*40 
443.219         GPS_NMEA_FROM_GPS    iGPS            $GPGGA,203412.000,4144.3427,N,06959.5641,W,2,10,1.07,8.7,M,-34.3,M,0000,0000*58 
444.221         GPS_NMEA_FROM_GPS    iGPS            $GPGGA,203413.000,4144.3428,N,06959.5640,W,2,10,1.14,8.8,M,-34.3,M,0000,0000*5A 
445.224         GPS_NMEA_FROM_GPS    iGPS            $GPGGA,203414.000,4144.3429,N,06959.5639,W,2,10,1.14,8.8,M,-34.3,M,0000,0000*52 
446.227         GPS_NMEA_FROM_GPS    iGPS            $GPGGA,203415.000,4144.3431,N,06959.5638,W,2,10,1.14,8.8,M,-34.3,M,0000,0000*5B 
447.230         GPS_NMEA_FROM_GPS    iGPS            $GPRMC,203416.000,A,4144.3432,N,06959.5637,W,0.62,11.22,310321,,,D*4A 
448.232         GPS_NMEA_FROM_GPS    iGPS            $GPGGA,203417.000,4144.3434,N,06959.5637,W,2,10,1.14,8.9,M,-34.3,M,0000,0000*52 
449.235         GPS_NMEA_FROM_GPS    iGPS            $GPGGA,203418.000,4144.3436,N,06959.5636,W,2,10,1.14,9.0,M,-34.3,M,0000,0000*56 
450.238         GPS_NMEA_FROM_GPS    iGPS            $GPRMC,203419.000,A,4144.3438,N,06959.5635,W,0.65,5.38,310321,,,D*74 
451.241         GPS_NMEA_FROM_GPS    iGPS            $GPRMC,203420.000,A,4144.3440,N,06959.5635,W,0.70,4.07,310321,,,D*78 
452.244         GPS_NMEA_FROM_GPS    iGPS            $GPRMC,203421.000,A,4144.3442,N,06959.5634,W,0.69,2.99,310321,,,D*73 
