1.662           GPS_NMEA_FROM_GPS    iGPS            $GPRMC,210126.000,A,4144.3504,N,06959.5937,W,0.02,271.28,210321,,,D*7C 
2.363           GPS_NMEA_FROM_GPS    iGPS            $GPGGA,210127.000,4144.3504,N,06959.5937,W,2,11,1.04,5.0,M,-34.3,M,0000,0000*5F 
2.363           GPS_NMEA_FROM_GPS    iGPS            $GPGGA,210127.000,4144.3504,N,06959.5937,W,2,11,1.04,5.0,M,-34.3,M,0000,0000*5F 
3.365           GPS_NMEA_FROM_GPS    iGPS            $GPGGA,210128.000,4144.3504,N,06959.5937,W,2,11,1.03,5.0,M,-34.3,M,0000,0000*57 
3.365           GPS_NMEA_FROM_GPS    iGPS            $GPGGA,210128.000,4144.3504,N,06959.5937,W,2,11,1.03,5.0,M,-34.3,M,0000,0000*57 
4.368           GPS_NMEA_FROM_GPS    iGPS            $GPGGA,210129.000,4144.3504,N,06959.5937,W,2,11,1.04,5.0,M,-34.3,M,0000,0000*51 
5.370           GPS_NMEA_FROM_GPS    iGPS            $GPGGA,210130.000,4144.3504,N,06959.5937,W,2,11,1.04,5.0,M,-34.3,M,0000,0000*59 
6.373           GPS_NMEA_FROM_GPS    iGPS            $GPRMC,210131.000,A,4144.3504,N,06959.5937,W,0.02,347.01,210321,,,D*75 
7.375           GPS_NMEA_FROM_GPS    iGPS            $GPGGA,210132.000,4144.3504,N,06959.5937,W,2,11,1.04,5.0,M,-34.3,M,0000,0000*5B 
8.377           GPS_NMEA_FROM_GPS    iGPS            $GPGGA,210133.000,4144.3504,N,06959.5937,W,2,11,1.04,5.0,M,-34.3,M,0000,0000*5A 
9.380           GPS_NMEA_FROM_GPS    iGPS            $GPGGA,210134.000,4144.3504,N,06959.5937,W,2,11,1.04,5.0,M,-34.3,M,0000,0000*5D 
10.382          GPS_NMEA_FROM_GPS    iGPS            $GPGGA,210135.000,4144.3504,N,06959.5937,W,2,11,1.04,5.0,M,-34.3,M,0000,0000*5C 
11.385          GPS_NMEA_FROM_GPS    iGPS            $GPGGA,210136.000,4144.3504,N,06959.5937,W,2,11,1.04,5.0,M,-34.3,M,0000,0000*5F 
11.385          GPS_NMEA_FROM_GPS    iGPS            $GPGGA,210136.000,4144.3504,N,06959.5937,W,2,11,1.04,5.0,M,-34.3,M,0000,0000*5F 
12.388          GPS_NMEA_FROM_GPS    iGPS            $GPGGA,210137.000,4144.3504,N,06959.5937,W,2,11,1.04,5.0,M,-34.3,M,0000,0000*5E 
12.388          GPS_NMEA_FROM_GPS    iGPS            $GPGGA,210137.000,4144.3504,N,06959.5937,W,2,11,1.04,5.0,M,-34.3,M,0000,0000*5E 
13.290          GPS_NMEA_FROM_GPS    iGPS            $GPGGA,210138.000,4144.3504,N,06959.5937,W,2,11,1.04,5.0,M,-34.3,M,0000,0000*51 
14.393          GPS_NMEA_FROM_GPS    iGPS            $GPRMC,210139.000,A,4144.3504,N,06959.5937,W,0.02,118.08,210321,,,D*7C 
15.396          GPS_NMEA_FROM_GPS    iGPS            $GPGGA,210140.000,4144.3504,N,06959.5937,W,2,11,1.04,5.0,M,-34.3,M,0000,0000*5E 
16.399          GPS_NMEA_FROM_GPS    iGPS            $GPGGA,210141.000,4144.3504,N,06959.5937,W,2,10,1.15,5.0,M,-34.3,M,0000,0000*5E 
17.301          GPS_NMEA_FROM_GPS    iGPS            $GPGGA,210142.000,4144.3504,N,06959.5937,W,2,10,1.15,5.0,M,-34.3,M,0000,0000*5D 
18.304          GPS_NMEA_FROM_GPS    iGPS            $GPGGA,210143.000,4144.3504,N,06959.5937,W,2,10,1.15,5.0,M,-34.3,M,0000,0000*5C 
19.307          GPS_NMEA_FROM_GPS    iGPS            $GPGGA,210144.000,4144.3504,N,06959.5937,W,2,10,1.15,5.0,M,-34.3,M,0000,0000*5B 
20.409          GPS_NMEA_FROM_GPS    iGPS            $GPGGA,210145.000,4144.3504,N,06959.5937,W,2,10,1.15,5.0,M,-34.3,M,0000,0000*5A 
21.412          GPS_NMEA_FROM_GPS    iGPS            $GPRMC,210146.000,A,4144.3504,N,06959.5937,W,0.02,195.68,210321,,,D*77 
22.415          GPS_NMEA_FROM_GPS    iGPS            $GPRMC,210147.000,A,4144.3504,N,06959.5937,W,0.01,199.54,210321,,,D*76 
23.317          GPS_NMEA_FROM_GPS    iGPS            $GPGGA,210148.000,4144.3504,N,06959.5937,W,2,10,1.15,5.0,M,-34.3,M,0000,0000*57 
24.420          GPS_NMEA_FROM_GPS    iGPS            $GPRMC,210149.000,A,4144.3504,N,06959.5937,W,0.02,212.10,210321,,,D*7B 
25.321          GPS_NMEA_FROM_GPS    iGPS            $GPGGA,210150.000,4144.3504,N,06959.5937,W,2,10,1.15,5.0,M,-34.3,M,0000,0000*5E 
25.321          GPS_NMEA_FROM_GPS    iGPS            $GPGGA,210150.000,4144.3504,N,06959.5937,W,2,10,1.15,5.0,M,-34.3,M,0000,0000*5E 
26.324          GPS_NMEA_FROM_GPS    iGPS            $GPGGA,210151.000,4144.3504,N,06959.5937,W,2,10,1.15,5.0,M,-34.3,M,0000,0000*5F 
27.326          GPS_NMEA_FROM_GPS    iGPS            $GPGGA,210152.000,4144.3504,N,06959.5937,W,2,10,1.15,5.0,M,-34.3,M,0000,0000*5C 
28.329          GPS_NMEA_FROM_GPS    iGPS            $GPGGA,210153.000,4144.3504,N,06959.5937,W,2,10,1.15,5.0,M,-34.3,M,0000,0000*5D 
29.432          GPS_NMEA_FROM_GPS    iGPS            $GPRMC,210154.000,A,4144.3504,N,06959.5937,W,0.01,133.57,210321,,,D*77 
30.435          GPS_NMEA_FROM_GPS    iGPS            $GPRMC,210155.000,A,4144.3504,N,06959.5937,W,0.03,218.04,210321,,,D*78 
31.337          GPS_NMEA_FROM_GPS    iGPS            $GPGGA,210156.000,4144.3504,N,06959.5937,W,2,10,1.15,5.0,M,-34.3,M,0000,0000*58 
32.340          GPS_NMEA_FROM_GPS    iGPS            $GPGGA,210157.000,4144.3504,N,06959.5938,W,2,10,1.15,5.0,M,-34.3,M,0000,0000*56 
33.342          GPS_NMEA_FROM_GPS    iGPS            $GPGGA,210158.000,4144.3504,N,06959.5938,W,2,10,1.15,5.0,M,-34.3,M,0000,0000*59 
34.345          GPS_NMEA_FROM_GPS    iGPS            $GPGGA,210159.000,4144.3504,N,06959.5938,W,2,10,1.15,5.0,M,-34.3,M,0000,0000*58 
35.348          GPS_NMEA_FROM_GPS    iGPS            $GPGGA,210200.000,4144.3504,N,06959.5938,W,2,10,1.15,5.0,M,-34.3,M,0000,0000*57 
35.348          GPS_NMEA_FROM_GPS    iGPS            $GPGGA,210200.000,4144.3504,N,06959.5938,W,2,10,1.15,5.0,M,-34.3,M,0000,0000*57 
36.351          GPS_NMEA_FROM_GPS    iGPS            $GPGGA,210201.000,4144.3504,N,06959.5938,W,2,10,1.15,5.0,M,-34.3,M,0000,0000*56 
37.353          GPS_NMEA_FROM_GPS    iGPS            $GPGGA,210202.000,4144.3504,N,06959.5938,W,2,10,1.15,5.0,M,-34.3,M,0000,0000*55 
38.356          GPS_NMEA_FROM_GPS    iGPS            $GPRMC,210203.000,A,4144.3504,N,06959.5938,W,0.03,202.55,210321,,,D*78 
39.359          GPS_NMEA_FROM_GPS    iGPS            $GPRMC,210204.000,A,4144.3504,N,06959.5938,W,0.02,272.62,210321,,,D*7D 
40.361          GPS_NMEA_FROM_GPS    iGPS            $GPGGA,210205.000,4144.3504,N,06959.5938,W,2,10,1.15,5.0,M,-34.3,M,0000,0000*52 
41.364          GPS_NMEA_FROM_GPS    iGPS            $GPGGA,210206.000,4144.3504,N,06959.5938,W,2,10,1.15,5.0,M,-34.3,M,0000,0000*51 
42.366          GPS_NMEA_FROM_GPS    iGPS            $GPGGA,210207.000,4144.3504,N,06959.5938,W,2,10,1.15,5.0,M,-34.3,M,0000,0000*50 
43.369          GPS_NMEA_FROM_GPS    iGPS            $GPGGA,210208.000,4144.3504,N,06959.5938,W,2,10,1.15,5.0,M,-34.3,M,0000,0000*5F 
44.271          GPS_NMEA_FROM_GPS    iGPS            $GPGGA,210209.000,4144.3504,N,06959.5938,W,2,10,1.15,5.0,M,-34.3,M,0000,0000*5E 
45.374          GPS_NMEA_FROM_GPS    iGPS            $GPGGA,210210.000,4144.3504,N,06959.5938,W,2,10,1.15,5.0,M,-34.3,M,0000,0000*56 
46.277          GPS_NMEA_FROM_GPS    iGPS            $GPGGA,210211.000,4144.3504,N,06959.5938,W,2,10,1.15,5.0,M,-34.3,M,0000,0000*57 
47.379          GPS_NMEA_FROM_GPS    iGPS            $GPGGA,210212.000,4144.3504,N,06959.5938,W,2,10,1.15,5.0,M,-34.3,M,0000,0000*54 
48.282          GPS_NMEA_FROM_GPS    iGPS            $GPGGA,210213.000,4144.3504,N,06959.5938,W,2,10,1.15,5.0,M,-34.3,M,0000,0000*55 
49.384          GPS_NMEA_FROM_GPS    iGPS            $GPGGA,210214.000,4144.3504,N,06959.5938,W,2,10,1.15,5.0,M,-34.3,M,0000,0000*52 
50.387          GPS_NMEA_FROM_GPS    iGPS            $GPGGA,210215.000,4144.3504,N,06959.5938,W,2,10,1.15,5.0,M,-34.3,M,0000,0000*53 
51.389          GPS_NMEA_FROM_GPS    iGPS            $GPGGA,210216.000,4144.3504,N,06959.5938,W,2,10,1.15,5.0,M,-34.3,M,0000,0000*50 
52.292          GPS_NMEA_FROM_GPS    iGPS            $GPGGA,210217.000,4144.3504,N,06959.5938,W,2,10,1.15,5.0,M,-34.3,M,0000,0000*51 
53.395          GPS_NMEA_FROM_GPS    iGPS            $GPGGA,210218.000,4144.3504,N,06959.5938,W,2,10,1.15,5.0,M,-34.3,M,0000,0000*5E 
54.397          GPS_NMEA_FROM_GPS    iGPS            $GPGGA,210219.000,4144.3504,N,06959.5938,W,2,10,1.15,5.0,M,-34.3,M,0000,0000*5F 
55.400          GPS_NMEA_FROM_GPS    iGPS            $GPGGA,210220.000,4144.3504,N,06959.5938,W,2,10,1.15,5.0,M,-34.3,M,0000,0000*55 
56.302          GPS_NMEA_FROM_GPS    iGPS            $GPGGA,210221.000,4144.3504,N,06959.5938,W,2,11,1.04,5.0,M,-34.3,M,0000,0000*55 
57.406          GPS_NMEA_FROM_GPS    iGPS            $GPGGA,210222.000,4144.3504,N,06959.5938,W,2,11,1.04,5.0,M,-34.3,M,0000,0000*56 
58.309          GPS_NMEA_FROM_GPS    iGPS            $GPGGA,210223.000,4144.3504,N,06959.5938,W,2,10,1.15,5.0,M,-34.3,M,0000,0000*56 
59.311          GPS_NMEA_FROM_GPS    iGPS            $GPGGA,210224.000,4144.3504,N,06959.5938,W,2,11,1.04,5.0,M,-34.3,M,0000,0000*50 
60.414          GPS_NMEA_FROM_GPS    iGPS            $GPGGA,210225.000,4144.3504,N,06959.5938,W,2,11,0.91,5.0,M,-34.3,M,0000,0000*5C 
61.317          GPS_NMEA_FROM_GPS    iGPS            $GPGGA,210226.000,4144.3504,N,06959.5936,W,2,11,0.91,5.0,M,-34.3,M,0000,0000*51 
62.420          GPS_NMEA_FROM_GPS    iGPS            $GPRMC,210227.000,A,4144.3505,N,06959.5934,W,0.46,77.59,210321,,,D*4E 
63.422          GPS_NMEA_FROM_GPS    iGPS            $GPRMC,210228.000,A,4144.3505,N,06959.5933,W,0.52,76.80,210321,,,D*46 
64.425          GPS_NMEA_FROM_GPS    iGPS            $GPRMC,210229.000,A,4144.3505,N,06959.5931,W,0.52,76.58,210321,,,D*40 
65.327          GPS_NMEA_FROM_GPS    iGPS            $GPGGA,210230.000,4144.3506,N,06959.5929,W,2,11,0.91,5.0,M,-34.3,M,0000,0000*5A 
66.430          GPS_NMEA_FROM_GPS    iGPS            $GPRMC,210231.000,A,4144.3506,N,06959.5927,W,0.59,75.71,210321,,,D*4E 
67.332          GPS_NMEA_FROM_GPS    iGPS            $GPGGA,210232.000,4144.3507,N,06959.5925,W,2,09,1.14,5.0,M,-34.3,M,0000,0000*50 
68.435          GPS_NMEA_FROM_GPS    iGPS            $GPRMC,210233.000,A,4144.3507,N,06959.5923,W,0.60,73.29,210321,,,D*48 
69.337          GPS_NMEA_FROM_GPS    iGPS            $GPGGA,210234.000,4144.3508,N,06959.5921,W,2,09,1.14,5.0,M,-34.3,M,0000,0000*5D 
70.339          GPS_NMEA_FROM_GPS    iGPS            $GPGGA,210235.000,4144.3509,N,06959.5920,W,2,09,1.14,5.0,M,-34.3,M,0000,0000*5C 
71.342          GPS_NMEA_FROM_GPS    iGPS            $GPGGA,210236.000,4144.3510,N,06959.5918,W,2,11,0.91,5.1,M,-34.3,M,0000,0000*58 
72.345          GPS_NMEA_FROM_GPS    iGPS            $GPGGA,210237.000,4144.3511,N,06959.5916,W,2,11,0.91,5.0,M,-34.3,M,0000,0000*57 
73.347          GPS_NMEA_FROM_GPS    iGPS            $GPGGA,210238.000,4144.3512,N,06959.5914,W,2,10,1.01,5.0,M,-34.3,M,0000,0000*50 
74.350          GPS_NMEA_FROM_GPS    iGPS            $GPGGA,210239.000,4144.3513,N,06959.5912,W,2,11,0.91,5.0,M,-34.3,M,0000,0000*5F 
75.352          GPS_NMEA_FROM_GPS    iGPS            $GPGGA,210240.000,4144.3515,N,06959.5910,W,2,10,1.01,5.0,M,-34.3,M,0000,0000*5C 
76.355          GPS_NMEA_FROM_GPS    iGPS            $GPGGA,210241.000,4144.3516,N,06959.5908,W,2,11,0.91,5.0,M,-34.3,M,0000,0000*5E 
77.358          GPS_NMEA_FROM_GPS    iGPS            $GPGGA,210242.000,4144.3517,N,06959.5906,W,2,10,1.01,5.0,M,-34.3,M,0000,0000*5B 
78.361          GPS_NMEA_FROM_GPS    iGPS            $GPGGA,210243.000,4144.3518,N,06959.5904,W,2,11,0.91,5.0,M,-34.3,M,0000,0000*5E 
79.363          GPS_NMEA_FROM_GPS    iGPS            $GPGGA,210244.000,4144.3519,N,06959.5901,W,2,10,1.01,5.0,M,-34.3,M,0000,0000*54 
80.366          GPS_NMEA_FROM_GPS    iGPS            $GPRMC,210245.000,A,4144.3520,N,06959.5899,W,0.79,66.62,210321,,,D*4F 
81.369          GPS_NMEA_FROM_GPS    iGPS            $GPGGA,210246.000,4144.3521,N,06959.5897,W,2,11,0.91,4.9,M,-34.3,M,0000,0000*52 
82.371          GPS_NMEA_FROM_GPS    iGPS            $GPGGA,210247.000,4144.3522,N,06959.5895,W,2,11,0.91,4.8,M,-34.3,M,0000,0000*53 
83.374          GPS_NMEA_FROM_GPS    iGPS            $GPGGA,210248.000,4144.3524,N,06959.5893,W,2,11,0.91,4.8,M,-34.3,M,0000,0000*5C 
84.376          GPS_NMEA_FROM_GPS    iGPS            $GPGGA,210249.000,4144.3525,N,06959.5891,W,2,10,1.01,4.7,M,-34.3,M,0000,0000*58 
85.379          GPS_NMEA_FROM_GPS    iGPS            $GPGGA,210250.000,4144.3526,N,06959.5889,W,2,09,1.14,4.6,M,-34.3,M,0000,0000*57 
86.382          GPS_NMEA_FROM_GPS    iGPS            $GPRMC,210251.000,A,4144.3527,N,06959.5886,W,0.74,65.58,210321,,,D*44 
87.385          GPS_NMEA_FROM_GPS    iGPS            $GPRMC,210252.000,A,4144.3529,N,06959.5884,W,0.77,65.54,210321,,,D*44 
88.387          GPS_NMEA_FROM_GPS    iGPS            $GPGGA,210253.000,4144.3530,N,06959.5881,W,2,10,1.01,4.4,M,-34.3,M,0000,0000*55 
89.390          GPS_NMEA_FROM_GPS    iGPS            $GPGGA,210254.000,4144.3531,N,06959.5879,W,2,11,0.91,4.3,M,-34.3,M,0000,0000*5A 
90.393          GPS_NMEA_FROM_GPS    iGPS            $GPGGA,210255.000,4144.3532,N,06959.5877,W,2,11,0.91,4.2,M,-34.3,M,0000,0000*57 
91.395          GPS_NMEA_FROM_GPS    iGPS            $GPGGA,210256.000,4144.3533,N,06959.5875,W,2,10,1.01,4.1,M,-34.3,M,0000,0000*5D 
92.298          GPS_NMEA_FROM_GPS    iGPS            $GPGGA,210257.000,4144.3534,N,06959.5872,W,2,11,0.91,4.1,M,-34.3,M,0000,0000*55 
93.400          GPS_NMEA_FROM_GPS    iGPS            $GPGGA,210258.000,4144.3536,N,06959.5870,W,2,11,0.91,4.0,M,-34.3,M,0000,0000*5B 
94.403          GPS_NMEA_FROM_GPS    iGPS            $GPGGA,210259.000,4144.3537,N,06959.5867,W,2,11,0.91,4.0,M,-34.3,M,0000,0000*5D 
95.406          GPS_NMEA_FROM_GPS    iGPS            $GPGGA,210300.000,4144.3538,N,06959.5864,W,2,10,1.01,3.9,M,-34.3,M,0000,0000*5B 
96.409          GPS_NMEA_FROM_GPS    iGPS            $GPGGA,210301.000,4144.3540,N,06959.5861,W,2,10,1.07,3.9,M,-34.3,M,0000,0000*56 
97.311          GPS_NMEA_FROM_GPS    iGPS            $GPGGA,210302.000,4144.3541,N,06959.5859,W,2,09,1.14,3.9,M,-34.3,M,0000,0000*55 
98.414          GPS_NMEA_FROM_GPS    iGPS            $GPGGA,210303.000,4144.3543,N,06959.5856,W,2,10,1.07,3.8,M,-34.3,M,0000,0000*52 
99.416          GPS_NMEA_FROM_GPS    iGPS            $GPGGA,210304.000,4144.3544,N,06959.5853,W,2,10,1.07,3.8,M,-34.3,M,0000,0000*57 
100.320         GPS_NMEA_FROM_GPS    iGPS            $GPGGA,210305.000,4144.3545,N,06959.5850,W,2,10,1.07,3.9,M,-34.3,M,0000,0000*55 
101.422         GPS_NMEA_FROM_GPS    iGPS            $GPRMC,210306.000,A,4144.3546,N,06959.5847,W,0.80,69.76,210321,,,D*46 
102.324         GPS_NMEA_FROM_GPS    iGPS            $GPGGA,210307.000,4144.3547,N,06959.5844,W,2,10,1.01,3.9,M,-34.3,M,0000,0000*56 
103.327         GPS_NMEA_FROM_GPS    iGPS            $GPGGA,210308.000,4144.3547,N,06959.5841,W,2,10,1.01,4.0,M,-34.3,M,0000,0000*52 
104.430         GPS_NMEA_FROM_GPS    iGPS            $GPGGA,210309.000,4144.3548,N,06959.5839,W,2,10,1.01,4.0,M,-34.3,M,0000,0000*53 
105.332         GPS_NMEA_FROM_GPS    iGPS            $GPGGA,210310.000,4144.3549,N,06959.5836,W,2,10,1.01,4.0,M,-34.3,M,0000,0000*55 
106.436         GPS_NMEA_FROM_GPS    iGPS            $GPRMC,210311.000,A,4144.3550,N,06959.5833,W,0.80,71.49,210321,,,D*41 
107.338         GPS_NMEA_FROM_GPS    iGPS            $GPGGA,210312.000,4144.3551,N,06959.5831,W,2,10,1.01,3.8,M,-34.3,M,0000,0000*56 
108.341         GPS_NMEA_FROM_GPS    iGPS            $GPGGA,210313.000,4144.3552,N,06959.5828,W,2,10,1.01,3.7,M,-34.3,M,0000,0000*53 
109.343         GPS_NMEA_FROM_GPS    iGPS            $GPGGA,210314.000,4144.3553,N,06959.5825,W,2,10,1.01,3.6,M,-34.3,M,0000,0000*59 
110.346         GPS_NMEA_FROM_GPS    iGPS            $GPGGA,210315.000,4144.3554,N,06959.5822,W,2,10,1.01,3.4,M,-34.3,M,0000,0000*5A 
111.349         GPS_NMEA_FROM_GPS    iGPS            $GPGGA,210316.000,4144.3555,N,06959.5819,W,2,11,0.91,3.4,M,-34.3,M,0000,0000*59 
112.351         GPS_NMEA_FROM_GPS    iGPS            $GPGGA,210317.000,4144.3556,N,06959.5816,W,2,10,1.01,3.3,M,-34.3,M,0000,0000*5A 
113.354         GPS_NMEA_FROM_GPS    iGPS            $GPRMC,210318.000,A,4144.3556,N,06959.5813,W,0.87,73.63,210321,,,D*41 
114.457         GPS_NMEA_FROM_GPS    iGPS            $GPRMC,210319.000,A,4144.3557,N,06959.5810,W,0.88,74.69,210321,,,D*40 
115.359         GPS_NMEA_FROM_GPS    iGPS            $GPGGA,210320.000,4144.3557,N,06959.5807,W,2,11,0.91,3.4,M,-34.3,M,0000,0000*51 
116.362         GPS_NMEA_FROM_GPS    iGPS            $GPGGA,210321.000,4144.3558,N,06959.5804,W,2,11,0.91,3.4,M,-34.3,M,0000,0000*5C 
117.365         GPS_NMEA_FROM_GPS    iGPS            $GPGGA,210322.000,4144.3558,N,06959.5801,W,2,11,0.91,3.5,M,-34.3,M,0000,0000*5B 
118.368         GPS_NMEA_FROM_GPS    iGPS            $GPGGA,210323.000,4144.3559,N,06959.5799,W,2,10,1.01,3.4,M,-34.3,M,0000,0000*5D 
119.370         GPS_NMEA_FROM_GPS    iGPS            $GPGGA,210324.000,4144.3559,N,06959.5796,W,2,11,0.91,3.4,M,-34.3,M,0000,0000*5C 
120.373         GPS_NMEA_FROM_GPS    iGPS            $GPGGA,210325.000,4144.3559,N,06959.5794,W,2,11,0.91,3.3,M,-34.3,M,0000,0000*58 
121.376         GPS_NMEA_FROM_GPS    iGPS            $GPGGA,210326.000,4144.3559,N,06959.5791,W,2,11,0.91,3.3,M,-34.3,M,0000,0000*5E 
122.378         GPS_NMEA_FROM_GPS    iGPS            $GPGGA,210327.000,4144.3559,N,06959.5788,W,2,11,0.91,3.3,M,-34.3,M,0000,0000*57 
123.381         GPS_NMEA_FROM_GPS    iGPS            $GPGGA,210328.000,4144.3559,N,06959.5785,W,2,11,0.91,3.3,M,-34.3,M,0000,0000*55 
124.384         GPS_NMEA_FROM_GPS    iGPS            $GPRMC,210329.000,A,4144.3558,N,06959.5782,W,0.81,83.71,210321,,,D*40 
125.388         GPS_NMEA_FROM_GPS    iGPS            $GPGGA,210330.000,4144.3558,N,06959.5780,W,2,11,0.91,3.4,M,-34.3,M,0000,0000*5F 
126.391         GPS_NMEA_FROM_GPS    iGPS            $GPGGA,210331.000,4144.3558,N,06959.5777,W,2,11,0.91,3.3,M,-34.3,M,0000,0000*51 
127.394         GPS_NMEA_FROM_GPS    iGPS            $GPGGA,210332.000,4144.3558,N,06959.5774,W,2,11,0.91,3.3,M,-34.3,M,0000,0000*51 
128.296         GPS_NMEA_FROM_GPS    iGPS            $GPGGA,210333.000,4144.3558,N,06959.5772,W,2,11,0.91,3.3,M,-34.3,M,0000,0000*56 
129.299         GPS_NMEA_FROM_GPS    iGPS            $GPGGA,210334.000,4144.3558,N,06959.5769,W,2,11,0.91,3.3,M,-34.3,M,0000,0000*5B 
130.403         GPS_NMEA_FROM_GPS    iGPS            $GPGGA,210335.000,4144.3558,N,06959.5766,W,2,11,0.91,3.2,M,-34.3,M,0000,0000*54 
131.406         GPS_NMEA_FROM_GPS    iGPS            $GPGGA,210336.000,4144.3558,N,06959.5764,W,2,11,0.91,3.2,M,-34.3,M,0000,0000*55 
132.410         GPS_NMEA_FROM_GPS    iGPS            $GPRMC,210337.000,A,4144.3557,N,06959.5760,W,0.81,83.35,210321,,,D*4C 
133.413         GPS_NMEA_FROM_GPS    iGPS            $GPGGA,210338.000,4144.3557,N,06959.5757,W,2,11,0.91,3.2,M,-34.3,M,0000,0000*54 
134.315         GPS_NMEA_FROM_GPS    iGPS            $GPGGA,210339.000,4144.3557,N,06959.5754,W,2,11,0.91,3.3,M,-34.3,M,0000,0000*57 
135.418         GPS_NMEA_FROM_GPS    iGPS            $GPRMC,210340.000,A,4144.3557,N,06959.5751,W,0.86,84.96,210321,,,D*47 
136.321         GPS_NMEA_FROM_GPS    iGPS            $GPGGA,210341.000,4144.3557,N,06959.5748,W,2,11,1.04,3.4,M,-34.3,M,0000,0000*5F 
137.324         GPS_NMEA_FROM_GPS    iGPS            $GPGGA,210342.000,4144.3557,N,06959.5745,W,2,11,0.91,3.5,M,-34.3,M,0000,0000*5D 
138.428         GPS_NMEA_FROM_GPS    iGPS            $GPGGA,210343.000,4144.3557,N,06959.5742,W,2,11,0.91,3.7,M,-34.3,M,0000,0000*59 
139.431         GPS_NMEA_FROM_GPS    iGPS            $GPRMC,210344.000,A,4144.3556,N,06959.5738,W,0.89,85.42,210321,,,D*4A 
140.433         GPS_NMEA_FROM_GPS    iGPS            $GPRMC,210345.000,A,4144.3556,N,06959.5735,W,0.77,84.57,210321,,,D*42 
141.335         GPS_NMEA_FROM_GPS    iGPS            $GPGGA,210346.000,4144.3557,N,06959.5732,W,2,10,1.07,4.0,M,-34.3,M,0000,0000*54 
142.338         GPS_NMEA_FROM_GPS    iGPS            $GPGGA,210347.000,4144.3558,N,06959.5729,W,2,10,1.07,4.0,M,-34.3,M,0000,0000*50 
143.341         GPS_NMEA_FROM_GPS    iGPS            $GPGGA,210348.000,4144.3558,N,06959.5727,W,2,10,1.14,4.1,M,-34.3,M,0000,0000*52 
144.343         GPS_NMEA_FROM_GPS    iGPS            $GPGGA,210349.000,4144.3558,N,06959.5723,W,2,10,1.14,4.0,M,-34.3,M,0000,0000*56 
145.346         GPS_NMEA_FROM_GPS    iGPS            $GPGGA,210350.000,4144.3558,N,06959.5721,W,2,11,1.04,3.9,M,-34.3,M,0000,0000*52 
146.449         GPS_NMEA_FROM_GPS    iGPS            $GPRMC,210351.000,A,4144.3558,N,06959.5718,W,0.86,81.66,210321,,,D*4F 
147.452         GPS_NMEA_FROM_GPS    iGPS            $GPRMC,210352.000,A,4144.3557,N,06959.5716,W,0.85,82.99,210321,,,D*4D 
148.354         GPS_NMEA_FROM_GPS    iGPS            $GPGGA,210353.000,4144.3557,N,06959.5713,W,2,11,1.04,3.9,M,-34.3,M,0000,0000*5F 
149.356         GPS_NMEA_FROM_GPS    iGPS            $GPGGA,210354.000,4144.3557,N,06959.5710,W,2,11,1.04,4.0,M,-34.3,M,0000,0000*55 
150.359         GPS_NMEA_FROM_GPS    iGPS            $GPGGA,210355.000,4144.3557,N,06959.5707,W,2,11,0.91,4.1,M,-34.3,M,0000,0000*5E 
151.362         GPS_NMEA_FROM_GPS    iGPS            $GPGGA,210356.000,4144.3557,N,06959.5704,W,2,11,0.91,4.1,M,-34.3,M,0000,0000*5E 
152.364         GPS_NMEA_FROM_GPS    iGPS            $GPGGA,210357.000,4144.3557,N,06959.5701,W,2,11,0.91,4.2,M,-34.3,M,0000,0000*59 
153.367         GPS_NMEA_FROM_GPS    iGPS            $GPRMC,210358.000,A,4144.3557,N,06959.5698,W,0.78,87.12,210321,,,D*44 
154.369         GPS_NMEA_FROM_GPS    iGPS            $GPGGA,210359.000,4144.3557,N,06959.5696,W,2,11,1.04,4.2,M,-34.3,M,0000,0000*55 
155.372         GPS_NMEA_FROM_GPS    iGPS            $GPGGA,210400.000,4144.3557,N,06959.5693,W,2,11,0.91,4.2,M,-34.3,M,0000,0000*56 
156.376         GPS_NMEA_FROM_GPS    iGPS            $GPGGA,210401.000,4144.3557,N,06959.5690,W,2,11,0.91,4.3,M,-34.3,M,0000,0000*55 
157.378         GPS_NMEA_FROM_GPS    iGPS            $GPRMC,210402.000,A,4144.3556,N,06959.5687,W,0.85,89.58,210321,,,D*41 
158.381         GPS_NMEA_FROM_GPS    iGPS            $GPRMC,210403.000,A,4144.3556,N,06959.5684,W,0.87,91.04,210321,,,D*41 
159.383         GPS_NMEA_FROM_GPS    iGPS            $GPRMC,210404.000,A,4144.3556,N,06959.5681,W,0.80,90.56,210321,,,D*42 
160.386         GPS_NMEA_FROM_GPS    iGPS            $GPGGA,210405.000,4144.3557,N,06959.5678,W,2,11,0.91,4.5,M,-34.3,M,0000,0000*51 
161.388         GPS_NMEA_FROM_GPS    iGPS            $GPGGA,210406.000,4144.3557,N,06959.5676,W,2,11,0.91,4.5,M,-34.3,M,0000,0000*5C 
162.391         GPS_NMEA_FROM_GPS    iGPS            $GPGGA,210407.000,4144.3557,N,06959.5673,W,2,11,0.91,4.5,M,-34.3,M,0000,0000*58 
163.394         GPS_NMEA_FROM_GPS    iGPS            $GPRMC,210408.000,A,4144.3557,N,06959.5670,W,0.80,91.47,210321,,,D*40 
164.297         GPS_NMEA_FROM_GPS    iGPS            $GPGGA,210409.000,4144.3557,N,06959.5667,W,2,11,0.91,4.6,M,-34.3,M,0000,0000*50 
165.399         GPS_NMEA_FROM_GPS    iGPS            $GPGGA,210410.000,4144.3557,N,06959.5664,W,2,11,0.91,4.6,M,-34.3,M,0000,0000*5B 
166.402         GPS_NMEA_FROM_GPS    iGPS            $GPGGA,210411.000,4144.3557,N,06959.5661,W,2,11,0.91,4.5,M,-34.3,M,0000,0000*5C 
167.305         GPS_NMEA_FROM_GPS    iGPS            $GPGGA,210412.000,4144.3556,N,06959.5658,W,2,11,0.91,4.6,M,-34.3,M,0000,0000*57 
168.408         GPS_NMEA_FROM_GPS    iGPS            $GPGGA,210413.000,4144.3556,N,06959.5654,W,2,11,0.91,4.6,M,-34.3,M,0000,0000*5A 
169.410         GPS_NMEA_FROM_GPS    iGPS            $GPRMC,210414.000,A,4144.3555,N,06959.5651,W,0.81,95.05,210321,,,D*4F 
170.313         GPS_NMEA_FROM_GPS    iGPS            $GPGGA,210415.000,4144.3554,N,06959.5648,W,2,11,0.91,4.6,M,-34.3,M,0000,0000*53 
171.415         GPS_NMEA_FROM_GPS    iGPS            $GPGGA,210416.000,4144.3554,N,06959.5645,W,2,11,0.91,4.6,M,-34.3,M,0000,0000*5D 
172.418         GPS_NMEA_FROM_GPS    iGPS            $GPGGA,210417.000,4144.3553,N,06959.5642,W,2,11,0.91,4.7,M,-34.3,M,0000,0000*5D 
173.320         GPS_NMEA_FROM_GPS    iGPS            $GPGGA,210418.000,4144.3553,N,06959.5639,W,2,11,0.91,4.7,M,-34.3,M,0000,0000*5E 
174.323         GPS_NMEA_FROM_GPS    iGPS            $GPGGA,210419.000,4144.3553,N,06959.5636,W,2,11,0.91,4.8,M,-34.3,M,0000,0000*5F 
175.326         GPS_NMEA_FROM_GPS    iGPS            $GPGGA,210420.000,4144.3552,N,06959.5633,W,2,11,0.91,4.8,M,-34.3,M,0000,0000*51 
176.328         GPS_NMEA_FROM_GPS    iGPS            $GPGGA,210421.000,4144.3552,N,06959.5630,W,2,11,0.91,4.8,M,-34.3,M,0000,0000*53 
177.331         GPS_NMEA_FROM_GPS    iGPS            $GPGGA,210422.000,4144.3551,N,06959.5627,W,2,11,0.91,4.8,M,-34.3,M,0000,0000*55 
178.434         GPS_NMEA_FROM_GPS    iGPS            $GPGGA,210423.000,4144.3550,N,06959.5624,W,2,11,0.91,4.9,M,-34.3,M,0000,0000*57 
179.336         GPS_NMEA_FROM_GPS    iGPS            $GPGGA,210424.000,4144.3550,N,06959.5621,W,2,11,0.91,4.9,M,-34.3,M,0000,0000*55 
180.439         GPS_NMEA_FROM_GPS    iGPS            $GPGGA,210425.000,4144.3550,N,06959.5617,W,2,11,0.91,4.9,M,-34.3,M,0000,0000*51 
181.342         GPS_NMEA_FROM_GPS    iGPS            $GPGGA,210426.000,4144.3549,N,06959.5614,W,2,11,0.91,4.9,M,-34.3,M,0000,0000*59 
182.445         GPS_NMEA_FROM_GPS    iGPS            $GPRMC,210427.000,A,4144.3549,N,06959.5611,W,0.80,95.32,210321,,,D*43 
183.347         GPS_NMEA_FROM_GPS    iGPS            $GPGGA,210428.000,4144.3549,N,06959.5608,W,2,11,0.91,4.9,M,-34.3,M,0000,0000*5A 
184.350         GPS_NMEA_FROM_GPS    iGPS            $GPGGA,210429.000,4144.3549,N,06959.5605,W,2,11,0.91,4.9,M,-34.3,M,0000,0000*56 
185.352         GPS_NMEA_FROM_GPS    iGPS            $GPGGA,210430.000,4144.3549,N,06959.5602,W,2,11,0.91,4.9,M,-34.3,M,0000,0000*59 
186.355         GPS_NMEA_FROM_GPS    iGPS            $GPGGA,210431.000,4144.3549,N,06959.5599,W,2,11,0.91,4.9,M,-34.3,M,0000,0000*59 
187.358         GPS_NMEA_FROM_GPS    iGPS            $GPGGA,210432.000,4144.3549,N,06959.5597,W,2,10,1.07,5.0,M,-34.3,M,0000,0000*53 
188.360         GPS_NMEA_FROM_GPS    iGPS            $GPGGA,210433.000,4144.3550,N,06959.5594,W,2,11,0.91,5.0,M,-34.3,M,0000,0000*56 
189.363         GPS_NMEA_FROM_GPS    iGPS            $GPGGA,210434.000,4144.3550,N,06959.5592,W,2,11,0.91,5.0,M,-34.3,M,0000,0000*57 
190.366         GPS_NMEA_FROM_GPS    iGPS            $GPGGA,210435.000,4144.3550,N,06959.5590,W,2,10,1.07,5.0,M,-34.3,M,0000,0000*5B 
191.368         GPS_NMEA_FROM_GPS    iGPS            $GPRMC,210436.000,A,4144.3550,N,06959.5587,W,0.77,84.75,210321,,,D*4C 
192.371         GPS_NMEA_FROM_GPS    iGPS            $GPGGA,210437.000,4144.3551,N,06959.5585,W,2,10,1.07,4.9,M,-34.3,M,0000,0000*54 
193.273         GPS_NMEA_FROM_GPS    iGPS            $GPGGA,210438.000,4144.3551,N,06959.5582,W,2,10,1.07,4.9,M,-34.3,M,0000,0000*5C 
194.376         GPS_NMEA_FROM_GPS    iGPS            $GPGGA,210439.000,4144.3551,N,06959.5579,W,2,11,0.91,4.9,M,-34.3,M,0000,0000*56 
195.379         GPS_NMEA_FROM_GPS    iGPS            $GPGGA,210440.000,4144.3551,N,06959.5576,W,2,11,0.91,4.9,M,-34.3,M,0000,0000*57 
196.382         GPS_NMEA_FROM_GPS    iGPS            $GPGGA,210441.000,4144.3551,N,06959.5574,W,2,11,0.91,5.0,M,-34.3,M,0000,0000*5C 
197.385         GPS_NMEA_FROM_GPS    iGPS            $GPGGA,210442.000,4144.3551,N,06959.5571,W,2,11,0.91,5.0,M,-34.3,M,0000,0000*5A 
198.387         GPS_NMEA_FROM_GPS    iGPS            $GPGGA,210443.000,4144.3551,N,06959.5567,W,2,11,0.91,5.2,M,-34.3,M,0000,0000*5E 
199.390         GPS_NMEA_FROM_GPS    iGPS            $GPGGA,210444.000,4144.3551,N,06959.5564,W,2,11,0.91,5.3,M,-34.3,M,0000,0000*5B 
200.393         GPS_NMEA_FROM_GPS    iGPS            $GPRMC,210445.000,A,4144.3551,N,06959.5561,W,0.83,91.47,210321,,,D*4F 
201.396         GPS_NMEA_FROM_GPS    iGPS            $GPGGA,210446.000,4144.3551,N,06959.5558,W,2,11,0.91,5.2,M,-34.3,M,0000,0000*57 
202.398         GPS_NMEA_FROM_GPS    iGPS            $GPGGA,210447.000,4144.3551,N,06959.5555,W,2,11,0.91,5.2,M,-34.3,M,0000,0000*5B 
203.301         GPS_NMEA_FROM_GPS    iGPS            $GPGGA,210448.000,4144.3551,N,06959.5552,W,2,11,0.91,5.1,M,-34.3,M,0000,0000*50 
204.404         GPS_NMEA_FROM_GPS    iGPS            $GPGGA,210449.000,4144.3551,N,06959.5549,W,2,11,0.91,5.1,M,-34.3,M,0000,0000*5B 
205.407         GPS_NMEA_FROM_GPS    iGPS            $GPRMC,210450.000,A,4144.3551,N,06959.5546,W,0.79,89.68,210321,,,D*4F 
206.410         GPS_NMEA_FROM_GPS    iGPS            $GPGGA,210451.000,4144.3551,N,06959.5543,W,2,11,0.91,5.0,M,-34.3,M,0000,0000*59 
207.312         GPS_NMEA_FROM_GPS    iGPS            $GPGGA,210452.000,4144.3551,N,06959.5540,W,2,11,0.91,4.9,M,-34.3,M,0000,0000*51 
208.315         GPS_NMEA_FROM_GPS    iGPS            $GPGGA,210453.000,4144.3551,N,06959.5537,W,2,11,0.91,4.8,M,-34.3,M,0000,0000*51 
209.318         GPS_NMEA_FROM_GPS    iGPS            $GPGGA,210454.000,4144.3551,N,06959.5534,W,2,11,0.91,4.7,M,-34.3,M,0000,0000*5A 
210.420         GPS_NMEA_FROM_GPS    iGPS            $GPGGA,210455.000,4144.3551,N,06959.5531,W,2,11,0.91,4.5,M,-34.3,M,0000,0000*5C 
211.423         GPS_NMEA_FROM_GPS    iGPS            $GPRMC,210456.000,A,4144.3551,N,06959.5529,W,0.78,89.58,210321,,,D*42 
212.326         GPS_NMEA_FROM_GPS    iGPS            $GPGGA,210457.000,4144.3551,N,06959.5526,W,2,11,0.91,4.2,M,-34.3,M,0000,0000*5F 
213.429         GPS_NMEA_FROM_GPS    iGPS            $GPRMC,210458.000,A,4144.3551,N,06959.5523,W,0.78,89.31,210321,,,D*49 
214.432         GPS_NMEA_FROM_GPS    iGPS            $GPRMC,210459.000,A,4144.3552,N,06959.5520,W,0.78,88.90,210321,,,D*42 
215.434         GPS_NMEA_FROM_GPS    iGPS            $GPRMC,210500.000,A,4144.3552,N,06959.5517,W,0.77,88.64,210321,,,D*4F 
216.437         GPS_NMEA_FROM_GPS    iGPS            $GPRMC,210501.000,A,4144.3552,N,06959.5514,W,0.76,87.85,210321,,,D*4C 
217.341         GPS_NMEA_FROM_GPS    iGPS            $GPRMC,210502.000,A,4144.3552,N,06959.5511,W,0.77,87.69,210321,,,D*49 
218.343         GPS_NMEA_FROM_GPS    iGPS            $GPGGA,210503.000,4144.3552,N,06959.5508,W,2,11,0.91,3.5,M,-34.3,M,0000,0000*50 
219.346         GPS_NMEA_FROM_GPS    iGPS            $GPRMC,210504.000,A,4144.3552,N,06959.5505,W,0.79,87.08,210321,,,D*43 
220.448         GPS_NMEA_FROM_GPS    iGPS            $GPRMC,210505.000,A,4144.3552,N,06959.5502,W,0.78,87.61,210321,,,D*4B 
221.351         GPS_NMEA_FROM_GPS    iGPS            $GPRMC,210506.000,A,4144.3552,N,06959.5499,W,0.79,88.37,210321,,,D*46 
222.453         GPS_NMEA_FROM_GPS    iGPS            $GPRMC,210507.000,A,4144.3552,N,06959.5496,W,0.80,89.10,210321,,,D*4A 
223.356         GPS_NMEA_FROM_GPS    iGPS            $GPGGA,210508.000,4144.3552,N,06959.5493,W,2,11,0.91,3.9,M,-34.3,M,0000,0000*54 
224.258         GPS_NMEA_FROM_GPS    iGPS            $GPGGA,210509.000,4144.3551,N,06959.5490,W,2,11,0.91,3.9,M,-34.3,M,0000,0000*55 
225.261         GPS_NMEA_FROM_GPS    iGPS            $GPGGA,210510.000,4144.3551,N,06959.5486,W,2,11,0.91,4.0,M,-34.3,M,0000,0000*54 
226.363         GPS_NMEA_FROM_GPS    iGPS            $GPGGA,210511.000,4144.3551,N,06959.5482,W,2,11,0.91,4.0,M,-34.3,M,0000,0000*51 
227.366         GPS_NMEA_FROM_GPS    iGPS            $GPGGA,210512.000,4144.3551,N,06959.5479,W,2,11,0.91,4.0,M,-34.3,M,0000,0000*56 
228.369         GPS_NMEA_FROM_GPS    iGPS            $GPGGA,210513.000,4144.3551,N,06959.5475,W,2,11,0.91,4.0,M,-34.3,M,0000,0000*5B 
229.272         GPS_NMEA_FROM_GPS    iGPS            $GPGGA,210514.000,4144.3551,N,06959.5472,W,2,11,0.91,3.9,M,-34.3,M,0000,0000*55 
230.375         GPS_NMEA_FROM_GPS    iGPS            $GPGGA,210515.000,4144.3552,N,06959.5469,W,2,11,0.91,3.9,M,-34.3,M,0000,0000*5D 
231.377         GPS_NMEA_FROM_GPS    iGPS            $GPGGA,210516.000,4144.3552,N,06959.5466,W,2,11,0.91,3.9,M,-34.3,M,0000,0000*51 
232.380         GPS_NMEA_FROM_GPS    iGPS            $GPGGA,210517.000,4144.3552,N,06959.5463,W,2,10,1.07,3.9,M,-34.3,M,0000,0000*5A 
233.383         GPS_NMEA_FROM_GPS    iGPS            $GPRMC,210518.000,A,4144.3552,N,06959.5460,W,0.80,88.40,210321,,,D*49 
234.385         GPS_NMEA_FROM_GPS    iGPS            $GPGGA,210519.000,4144.3552,N,06959.5457,W,2,11,0.91,3.9,M,-34.3,M,0000,0000*5C 
235.288         GPS_NMEA_FROM_GPS    iGPS            $GPGGA,210520.000,4144.3552,N,06959.5455,W,2,11,0.91,3.9,M,-34.3,M,0000,0000*54 
236.391         GPS_NMEA_FROM_GPS    iGPS            $GPGGA,210521.000,4144.3551,N,06959.5452,W,2,10,1.07,4.0,M,-34.3,M,0000,0000*50 
237.395         GPS_NMEA_FROM_GPS    iGPS            $GPRMC,210522.000,A,4144.3551,N,06959.5450,W,0.78,90.09,210321,,,D*43 
238.297         GPS_NMEA_FROM_GPS    iGPS            $GPGGA,210523.000,4144.3551,N,06959.5447,W,2,10,1.07,3.9,M,-34.3,M,0000,0000*58 
239.400         GPS_NMEA_FROM_GPS    iGPS            $GPGGA,210524.000,4144.3552,N,06959.5444,W,2,10,1.07,3.9,M,-34.3,M,0000,0000*5F 
240.303         GPS_NMEA_FROM_GPS    iGPS            $GPGGA,210525.000,4144.3552,N,06959.5441,W,2,10,1.07,3.8,M,-34.3,M,0000,0000*5A 
241.306         GPS_NMEA_FROM_GPS    iGPS            $GPGGA,210526.000,4144.3552,N,06959.5438,W,2,10,1.07,3.8,M,-34.3,M,0000,0000*57 
242.309         GPS_NMEA_FROM_GPS    iGPS            $GPGGA,210527.000,4144.3552,N,06959.5435,W,2,10,1.07,3.7,M,-34.3,M,0000,0000*54 
243.312         GPS_NMEA_FROM_GPS    iGPS            $GPGGA,210528.000,4144.3552,N,06959.5432,W,2,10,1.07,3.8,M,-34.3,M,0000,0000*53 
244.316         GPS_NMEA_FROM_GPS    iGPS            $GPGGA,210529.000,4144.3552,N,06959.5429,W,2,10,1.07,3.9,M,-34.3,M,0000,0000*59 
245.419         GPS_NMEA_FROM_GPS    iGPS            $GPGGA,210530.000,4144.3552,N,06959.5427,W,2,11,0.91,4.0,M,-34.3,M,0000,0000*5E 
246.322         GPS_NMEA_FROM_GPS    iGPS            $GPGGA,210531.000,4144.3552,N,06959.5424,W,2,11,0.91,4.1,M,-34.3,M,0000,0000*5D 
247.428         GPS_NMEA_FROM_GPS    iGPS            $GPRMC,210532.000,A,4144.3551,N,06959.5421,W,0.82,89.21,210321,,,D*43 
248.431         GPS_NMEA_FROM_GPS    iGPS            $GPRMC,210533.000,A,4144.3551,N,06959.5419,W,0.83,90.67,210321,,,D*42 
249.333         GPS_NMEA_FROM_GPS    iGPS            $GPGGA,210534.000,4144.3551,N,06959.5416,W,2,10,1.07,4.3,M,-34.3,M,0000,0000*57 
250.336         GPS_NMEA_FROM_GPS    iGPS            $GPRMC,210535.000,A,4144.3551,N,06959.5413,W,0.82,89.13,210321,,,D*44 
251.338         GPS_NMEA_FROM_GPS    iGPS            $GPGGA,210536.000,4144.3552,N,06959.5410,W,2,10,1.07,4.2,M,-34.3,M,0000,0000*51 
252.441         GPS_NMEA_FROM_GPS    iGPS            $GPRMC,210537.000,A,4144.3552,N,06959.5407,W,0.80,86.94,210321,,,D*42 
253.444         GPS_NMEA_FROM_GPS    iGPS            $GPRMC,210538.000,A,4144.3552,N,06959.5405,W,0.81,86.02,210321,,,D*41 
254.346         GPS_NMEA_FROM_GPS    iGPS            $GPGGA,210539.000,4144.3552,N,06959.5401,W,2,11,0.91,4.0,M,-34.3,M,0000,0000*53 
255.349         GPS_NMEA_FROM_GPS    iGPS            $GPGGA,210540.000,4144.3552,N,06959.5398,W,2,11,0.91,4.1,M,-34.3,M,0000,0000*5B 
256.452         GPS_NMEA_FROM_GPS    iGPS            $GPRMC,210541.000,A,4144.3552,N,06959.5395,W,0.80,84.65,210321,,,D*43 
257.354         GPS_NMEA_FROM_GPS    iGPS            $GPGGA,210542.000,4144.3552,N,06959.5392,W,2,10,1.07,4.3,M,-34.3,M,0000,0000*5E 
258.358         GPS_NMEA_FROM_GPS    iGPS            $GPGGA,210543.000,4144.3552,N,06959.5389,W,2,10,1.07,4.5,M,-34.3,M,0000,0000*53 
259.260         GPS_NMEA_FROM_GPS    iGPS            $GPGGA,210544.000,4144.3552,N,06959.5387,W,2,10,1.07,4.6,M,-34.3,M,0000,0000*59 
260.364         GPS_NMEA_FROM_GPS    iGPS            $GPGGA,210545.000,4144.3551,N,06959.5385,W,2,10,1.14,4.8,M,-34.3,M,0000,0000*55 
261.366         GPS_NMEA_FROM_GPS    iGPS            $GPRMC,210546.000,A,4144.3551,N,06959.5384,W,0.34,88.85,210321,,,D*4A 
262.369         GPS_NMEA_FROM_GPS    iGPS            $GPGGA,210547.000,4144.3551,N,06959.5383,W,2,10,1.07,4.7,M,-34.3,M,0000,0000*5C 
263.372         GPS_NMEA_FROM_GPS    iGPS            $GPRMC,210548.000,A,4144.3551,N,06959.5382,W,0.29,86.69,210321,,,D*42 
264.374         GPS_NMEA_FROM_GPS    iGPS            $GPGGA,210549.000,4144.3551,N,06959.5381,W,2,10,1.07,4.7,M,-34.3,M,0000,0000*50 
265.377         GPS_NMEA_FROM_GPS    iGPS            $GPGGA,210550.000,4144.3552,N,06959.5380,W,2,10,1.07,4.7,M,-34.3,M,0000,0000*5A 
266.381         GPS_NMEA_FROM_GPS    iGPS            $GPGGA,210551.000,4144.3552,N,06959.5379,W,2,10,1.07,4.6,M,-34.3,M,0000,0000*5C 
267.281         GPS_NMEA_FROM_GPS    iGPS            $GPGGA,210552.000,4144.3552,N,06959.5378,W,2,10,1.07,4.6,M,-34.3,M,0000,0000*5E 
